Fix,GPS,22.5948651200,88.3618995400,-49.790618896484375,0.0,9.935046,,1731226381000,0.07069611,,563136793575723,2.5,0,,,
Fix,GPS,22.5948626700,88.3618990800,-49.661895751953125,0.0,9.935046,,1731226382000,0.07069878,,563137793317702,2.5,0,,,
Fix,GPS,22.5948615100,88.3618969700,-49.744659423828125,0.0,9.935046,,1731226383000,0.070716605,,563138789832285,2.5,0,,,
Fix,GPS,22.5948616800,88.3618945400,-49.7073974609375,0.0,9.935046,,1731226384000,0.070700504,,563139791851243,2.5,0,,,
Fix,GPS,22.5948627700,88.3618925900,-49.25775146484375,0.0,9.935046,,1731226385000,0.07069796,,563140783429888,2.5,0,,,
Fix,GPS,22.5948625200,88.3618903000,-48.916534423828125,0.0,9.935046,,1731226386000,0.070696704,,563141789927857,2.5,0,,,
Fix,GPS,22.5948613600,88.3618883500,-48.80731201171875,0.0,9.935046,,1731226387000,0.070690006,,563142787304575,2.5,0,,,
Fix,GPS,22.5948624500,88.3618875500,-48.43634033203125,0.0,9.935046,,1731226388000,0.070698656,,563143782098898,2.5,0,,,
Fix,GPS,22.5948603000,88.3618869200,-48.013916015625,0.0,9.935046,,1731226389000,0.07070182,,563144788555511,2.5,0,,,
Fix,GPS,22.5948591400,88.3618869300,-47.952301025390625,0.0,9.935046,,1731226390000,0.07070211,,563145792124365,2.5,0,,,
Fix,GPS,22.5948581600,88.3618860100,-47.7249755859375,0.0,9.935046,,1731226391000,0.070705295,,563146791436657,2.5,0,,,
Fix,GPS,22.5948578800,88.3618846000,-47.421661376953125,0.0,9.935046,,1731226392000,0.07070065,,563147780394885,2.5,0,,,
Fix,GPS,22.5948563200,88.3618863700,-47.49176025390625,0.0,9.935046,,1731226393000,0.07070068,,563148788528166,2.5,0,,,
Fix,GPS,22.5948550300,88.3618836800,-46.95159912109375,0.0,9.935046,,1731226394000,0.07069943,,563149793438947,2.5,0,,,
Fix,GPS,22.5948556800,88.3618831600,-46.8524169921875,0.0,9.935046,,1731226395000,0.07069856,,563150783491551,2.5,0,,,
Fix,GPS,22.5948554900,88.3618840400,-46.789093017578125,0.0,9.935046,,1731226396000,0.07069821,,563151788314206,2.5,0,,,
Fix,GPS,22.5948550300,88.3618857500,-46.7801513671875,0.0,9.935046,,1731226397000,0.07069774,,563152792400873,2.5,0,,,
Fix,GPS,22.5948557100,88.3618838000,-46.812408447265625,0.0,9.935046,,1731226398000,0.070699155,,563153781723112,2.5,0,,,
Fix,GPS,22.5948567900,88.3618850000,-46.8250732421875,0.0,9.935046,,1731226399000,0.07069871,,563154786880560,2.5,0,,,
Fix,GPS,22.5948542200,88.3618849500,-47.011749267578125,0.0,9.935046,,1731226400000,0.07070047,,563155784541758,2.5,0,,,
Fix,GPS,22.5948517600,88.3618863000,-46.8775634765625,0.0,9.935046,,1731226401000,0.070699126,,563156788668685,2.5,0,,,
Fix,GPS,22.5948520700,88.3618886600,-46.8819580078125,0.0,9.935046,,1731226402000,0.070699945,,563157786543580,2.5,0,,,
Fix,GPS,22.5948509500,88.3618902600,-47.0023193359375,0.0,9.935046,,1731226403000,0.07069975,,563158783638162,2.5,0,,,
Fix,GPS,22.5948510900,88.3618909900,-46.911590576171875,0.0,9.935046,,1731226404000,0.07069913,,563159790322381,2.5,0,,,
Fix,GPS,22.5948512300,88.3618884500,-46.6015625,0.0,9.935046,,1731226405000,0.07070104,,563160783228005,2.5,0,,,
Fix,GPS,22.5948508700,88.3618901500,-46.58917236328125,0.0,9.935046,,1731226406000,0.07069593,,563161792753005,2.5,0,,,
Fix,GPS,22.5948499000,88.3618900300,-46.53045654296875,0.0,9.935046,,1731226407000,0.070698656,,563162790448578,2.5,0,,,
Fix,GPS,22.5948494100,88.3618899500,-46.50396728515625,0.0,9.935046,,1731226408000,0.070695065,,563163791009462,2.5,0,,,
Fix,GPS,22.5948490600,88.3618899100,-46.478851318359375,0.0,9.935046,,1731226409000,0.07069839,,563164787245920,2.5,0,,,
Fix,GPS,22.5948489100,88.3618899100,-46.45721435546875,0.0,9.935046,,1731226410000,0.07068965,,563165789047847,2.5,0,,,
Fix,GPS,22.5948487200,88.3618899200,-46.441925048828125,0.0,9.935046,,1731226411000,0.0706998,,563166780136076,2.5,0,,,
Fix,GPS,22.5948485600,88.3618899400,-46.433349609375,0.0,9.935046,,1731226412000,0.070698276,,563167781259252,2.5,0,,,
Fix,GPS,22.5948484700,88.3618899400,-46.425506591796875,0.0,9.935046,,1731226413000,0.07070057,,563168790932221,2.5,0,,,
Fix,GPS,22.5948483100,88.3618899500,-46.41937255859375,0.0,9.935046,,1731226414000,0.07070138,,563169780091596,2.5,0,,,
Fix,GPS,22.5948482200,88.3618899600,-46.41107177734375,0.0,9.935046,,1731226415000,0.0707023,,563170789452064,2.5,0,,,
Fix,GPS,22.5948481200,88.3618899900,-46.402099609375,0.0,9.935046,,1731226416000,0.0707012,,563171791762012,2.5,0,,,
Fix,GPS,22.5948480100,88.3618899800,-46.39483642578125,0.0,9.935046,,1731226417000,0.07070025,,563172785255866,2.5,0,,,
Fix,GPS,22.5948479200,88.3618899900,-46.3927001953125,0.0,9.935046,,1731226418000,0.07069695,,563173784702583,2.5,0,,,
Fix,GPS,22.5948478900,88.3618899300,-46.389007568359375,0.0,9.935046,,1731226419000,0.070700586,,563174780109302,2.5,0,,,
Fix,GPS,22.5948478300,88.3618899400,-46.38775634765625,0.0,9.935046,,1731226420000,0.070701085,,563175790155812,2.5,0,,,
Fix,GPS,22.5948477400,88.3618898800,-46.37066650390625,0.0,9.935046,,1731226421000,0.07070273,,563176791094927,2.5,0,,,
Fix,GPS,22.5948477100,88.3618898900,-46.369903564453125,0.0,9.935046,,1731226422000,0.07071754,,563177790039769,2.5,0,,,
Fix,GPS,22.5948476800,88.3618899000,-46.369293212890625,0.0,9.935046,,1731226423000,0.070716746,,563178786743364,2.5,0,,,
Fix,GPS,22.5948476500,88.3618899100,-46.36822509765625,0.0,9.935046,,1731226424000,0.070717305,,563179781192946,2.5,0,,,
Fix,GPS,22.5948476100,88.3618899300,-46.368072509765625,0.0,9.935046,,1731226425000,0.07070503,,563180792873884,2.5,0,,,
Fix,GPS,22.5948475800,88.3618899600,-46.368011474609375,0.0,9.935046,,1731226426000,0.07070531,,563181790531799,2.5,0,,,
Fix,GPS,22.5948475600,88.3618899600,-46.367462158203125,0.0,9.935046,,1731226427000,0.07071717,,563182785729247,2.5,0,,,
Fix,GPS,22.5948475500,88.3618899900,-46.36724853515625,0.0,9.935046,,1731226428000,0.070706114,,563183784625966,2.5,0,,,
Fix,GPS,22.5948475300,88.3618900100,-46.367462158203125,0.0,9.935046,,1731226429000,0.07070608,,563184791340497,2.5,0,,,
Fix,GPS,22.5948475200,88.3618900300,-46.367767333984375,0.0,9.935046,,1731226430000,0.07070522,,563185782293152,2.5,0,,,
Fix,GPS,22.5948475100,88.3618900400,-46.366943359375,0.0,9.935046,,1731226431000,0.07071674,,563186791495288,2.5,0,,,
Fix,GPS,22.5948475100,88.3618900600,-46.366485595703125,0.0,9.935046,,1731226432000,0.070717394,,563187788903411,2.5,0,,,
Fix,GPS,22.5948475000,88.3618900900,-46.36676025390625,0.0,9.935046,,1731226433000,0.07070625,,563188792599088,2.5,0,,,
Fix,GPS,22.5948474900,88.3618901000,-46.365875244140625,0.0,9.935046,,1731226434000,0.070716724,,563189785488619,2.5,0,,,
Fix,GPS,22.5948474800,88.3618901300,-46.365936279296875,0.0,9.935046,,1731226435000,0.070706286,,563190780635078,2.5,0,,,
Fix,GPS,22.5948474800,88.3618901500,-46.36541748046875,0.0,9.935046,,1731226436000,0.07071513,,563191788283149,2.5,0,,,
Fix,GPS,22.5948474700,88.3618901700,-46.36553955078125,0.0,9.935046,,1731226437000,0.070706025,,563192789730545,2.5,0,,,
Fix,GPS,22.5948474600,88.3618901800,-46.36474609375,0.0,9.935046,,1731226438000,0.07071656,,563193781081691,2.5,0,,,
Fix,GPS,22.5948474600,88.3618902000,-46.36370849609375,0.0,9.935046,,1731226439000,0.0707167,,563194792079086,2.5,0,,,
Fix,GPS,22.5948474500,88.3618902100,-46.363006591796875,0.0,9.935046,,1731226440000,0.07071496,,563195780727471,2.5,0,,,
Fix,GPS,22.5948474500,88.3618902400,-46.362762451171875,0.0,9.935046,,1731226441000,0.070706226,,563196781998304,2.5,0,,,
Fix,GPS,22.5948474400,88.3618902500,-46.362457275390625,0.0,9.935046,,1731226442000,0.07071619,,563197781740023,2.5,0,,,
Fix,GPS,22.5948474400,88.3618902700,-46.36285400390625,0.0,9.935046,,1731226443000,0.07070673,,563198793297679,2.5,0,,,
Fix,GPS,22.5948474300,88.3618903000,-46.363037109375,0.0,9.935046,,1731226444000,0.07070577,,563199781927626,2.5,0,,,
Fix,GPS,22.5948474300,88.3618903200,-46.3634033203125,0.0,9.935046,,1731226445000,0.0707066,,563200791546584,2.5,0,,,
Fix,GPS,22.5948474200,88.3618903500,-46.3638916015625,0.0,9.935046,,1731226446000,0.0707063,,563201789420490,2.5,0,,,
Fix,GPS,22.5948474100,88.3618903700,-46.364654541015625,0.0,9.935046,,1731226447000,0.07070637,,563202784951636,2.5,0,,,
Fix,GPS,22.5948474000,88.3618903900,-46.365325927734375,0.0,9.935046,,1731226448000,0.07070682,,563203792137728,2.5,0,,,
Fix,GPS,22.5948474100,88.3618904000,-46.36456298828125,0.0,9.935046,,1731226449000,0.07071872,,563204788053457,2.5,0,,,
Fix,GPS,22.5948474000,88.3618904100,-46.363861083984375,0.0,9.935046,,1731226450000,0.07071944,,563205784209447,2.5,0,,,
Fix,GPS,22.5948473900,88.3618904300,-46.36431884765625,0.0,9.935046,,1731226451000,0.07070966,,563206790701947,2.5,0,,,
Fix,GPS,22.5948473800,88.3618904400,-46.364044189453125,0.0,9.935046,,1731226452000,0.07071939,,563207782298873,2.5,0,,,
Fix,GPS,22.5948473600,88.3618904500,-46.3634033203125,0.0,9.935046,,1731226453000,0.070715144,,563208793126529,2.5,0,,,
Fix,GPS,22.5948473500,88.3618904600,-46.36376953125,0.0,9.935046,,1731226454000,0.07072552,,563209788584653,2.5,0,,,
Fix,GPS,22.5948473400,88.3618904600,-46.3636474609375,0.0,9.935046,,1731226455000,0.070729785,,563210789557361,2.5,0,,,
Fix,GPS,22.5948473200,88.3618904700,-46.3634033203125,0.0,9.935046,,1731226456000,0.070715435,,563211785206736,2.5,0,,,
Fix,GPS,22.5948473100,88.3618904900,-46.36297607421875,0.0,9.935046,,1731226457000,0.070715696,,563212786217464,2.5,0,,,
Fix,GPS,22.5948473000,88.3618904900,-46.36297607421875,0.0,9.935046,,1731226458000,0.07071851,,563213788092048,2.5,0,,,
Fix,GPS,22.5948472800,88.3618905000,-46.36346435546875,0.0,9.935046,,1731226459000,0.07070716,,563214782085693,2.5,0,,,
Fix,GPS,22.5948472800,88.3618905300,-46.364776611328125,0.0,9.935046,,1731226460000,0.0707068,,563215791178713,2.5,0,,,
Fix,GPS,22.5948472700,88.3618905400,-46.364532470703125,0.0,9.935046,,1731226461000,0.07071748,,563216784727150,2.5,0,,,
Fix,GPS,22.5948472600,88.3618905600,-46.365081787109375,0.0,9.935046,,1731226462000,0.07070981,,563217785636526,2.5,0,,,
Fix,GPS,22.5948472500,88.3618905800,-46.36419677734375,0.0,9.935046,,1731226463000,0.070715114,,563218780164077,2.5,0,,,
Fix,GPS,22.5948472300,88.3618905800,-46.364166259765625,0.0,9.935046,,1731226464000,0.070718884,,563219785307202,2.5,0,,,
Fix,GPS,22.5948472300,88.3618905900,-46.364044189453125,0.0,9.935046,,1731226465000,0.0707187,,563220781498764,2.5,0,,,
Fix,GPS,22.5948472200,88.3618906000,-46.3636474609375,0.0,9.935046,,1731226466000,0.07072023,,563221785064076,2.5,0,,,
Fix,GPS,22.5948472100,88.3618906200,-46.36309814453125,0.0,9.935046,,1731226467000,0.070718735,,563222782740430,2.5,0,,,
Fix,GPS,22.5948472000,88.3618906400,-46.363555908203125,0.0,9.935046,,1731226468000,0.070712775,,563223780950377,2.5,0,,,
Fix,GPS,22.5948471900,88.3618906600,-46.36297607421875,0.0,9.935046,,1731226469000,0.070718266,,563224782227200,2.5,0,,,
Fix,GPS,22.5948471900,88.3618906700,-46.362030029296875,0.0,9.935046,,1731226470000,0.07071991,,563225781890533,2.7571213,0,,,
Fix,GPS,22.5948471800,88.3618906800,-46.36199951171875,0.0,9.935046,,1731226471000,0.07071685,,563226784113970,2.639635,0,,,
Fix,GPS,22.5948471700,88.3618906900,-46.360687255859375,0.0,9.935046,,1731226472000,0.07071397,,563227784747303,2.6137116,0,,,
Fix,GPS,22.5948471600,88.3618907000,-46.360321044921875,0.0,9.935046,,1731226473000,0.070719615,,563228792302614,2.5,0,,,
Fix,GPS,22.5948471500,88.3618907100,-46.359954833984375,0.0,9.935046,,1731226474000,0.07072394,,563229793206520,3.026945,0,,,
Fix,GPS,22.5948471500,88.3618907200,-46.35955810546875,0.0,9.935046,,1731226475000,0.07072092,,563230786954593,3.0299551,0,,,
Fix,GPS,22.5948471400,88.3618907300,-46.358551025390625,0.0,9.935046,,1731226476000,0.07071214,,563231787596103,3.187026,0,,,
Fix,GPS,22.5948471400,88.3618907500,-46.358734130859375,0.0,9.935046,,1731226477000,0.070711434,,563232785756259,3.028017,0,,,
Fix,GPS,22.5948471300,88.3618907700,-46.359344482421875,0.0,9.935046,,1731226478000,0.07071261,,563233791470529,2.884909,0,,,
Fix,GPS,22.5948471300,88.3618907800,-46.359405517578125,0.0,9.935046,,1731226479000,0.070719056,,563234787869123,2.7727149,0,,,
Fix,GPS,22.5948471200,88.3618907900,-46.3599853515625,0.0,9.935046,,1731226480000,0.07071148,,563235786851257,2.5459156,0,,,
Fix,GPS,22.5948471100,88.3618908000,-46.359375,0.0,9.935046,,1731226481000,0.070710406,,563236781115789,3.198592,0,,,
Fix,GPS,22.5948471100,88.3618908300,-46.35943603515625,0.0,9.935046,,1731226482000,0.07070989,,563237784694903,2.9206634,0,,,
Fix,GPS,22.5948471100,88.3618908500,-46.359710693359375,0.0,9.935046,,1731226483000,0.07071286,,563238790935997,3.581303,0,,,
Fix,GPS,22.5948471100,88.3618908600,-46.3597412109375,0.0,9.935046,,1731226484000,0.0707114,,563239785924799,3.6974616,0,,,
Fix,GPS,22.5948471100,88.3618908700,-46.357818603515625,0.0,9.935046,,1731226485000,0.070715114,,563240792525267,3.9756823,0,,,
Fix,GPS,22.5948471100,88.3618909000,-46.35711669921875,0.0,9.935046,,1731226486000,0.070707895,,563241791448808,3.6469479,0,,,
Fix,GPS,22.5948471100,88.3618909100,-46.356689453125,0.0,9.935046,,1731226487000,0.070717216,,563242785085475,3.7630994,0,,,
Fix,GPS,22.5948471100,88.3618909300,-46.3555908203125,0.0,9.935046,,1731226488000,0.0707197,,563243786456932,4.521535,0,,,
Fix,GPS,22.5948471100,88.3618909300,-46.355560302734375,0.0,9.935046,,1731226489000,0.070717774,,563244788763651,4.2891684,0,,,
Fix,GPS,22.5948471100,88.3618909500,-46.355133056640625,0.0,9.935046,,1731226490000,0.07071793,,563245787379588,5.0816894,0,,,
Fix,GPS,22.5948471100,88.3618909700,-46.355438232421875,0.0,9.935046,,1731226491000,0.07071008,,563246785477087,5.8679667,0,,,
Fix,GPS,22.5948471100,88.3618909800,-46.354766845703125,0.0,10.128076,,1731226492000,0.070710815,,563247783198129,6.627823,0,,,
Fix,GPS,22.5948471100,88.3618909900,-46.354339599609375,0.0,10.26854,,1731226493000,0.07070992,,563248791182086,7.4011374,0,,,
Fix,GPS,22.5948471100,88.3618910100,-46.35491943359375,0.0,10.4150715,,1731226494000,0.070711546,,563249790633127,8.173724,0,,,
Fix,GPS,22.5948471200,88.3618910200,-46.354522705078125,0.0,10.336951,,1731226495000,0.07071064,,563250781077293,7.7479157,0,,,
Fix,GPS,22.5948471100,88.3618910300,-46.354095458984375,0.0,10.370412,,1731226496000,0.07071342,,563251780849533,8.512833,0,,,
Fix,GPS,22.5948471200,88.3618910500,-46.353973388671875,0.0,10.378694,,1731226497000,0.070711195,,563252786098960,8.000884,0,,,
Fix,GPS,22.5948471200,88.3618910600,-46.35284423828125,0.0,10.289526,,1731226498000,0.07070931,,563253781461929,7.4892144,0,,,
Fix,GPS,22.5948471300,88.3618910800,-46.352752685546875,0.0,10.229628,,1731226499000,0.07071252,,563254792405209,7.137886,0,,,
Fix,GPS,22.5948471400,88.3618911100,-46.352386474609375,0.0,10.193581,,1731226500000,0.070709445,,563255787097657,6.8820844,0,,,
Fix,GPS,22.5948471400,88.3618911200,-46.350738525390625,0.0,10.173854,,1731226501000,0.07071055,,563256784680156,6.7235227,0,,,
Fix,GPS,22.5948471500,88.3618911300,-46.349395751953125,0.0,9.935046,,1731226502000,0.07070927,,563257783347551,5.575244,0,,,
Fix,GPS,22.5948471500,88.3618911400,-46.3507080078125,0.0,9.935046,,1731226503000,0.07071446,,563258790385677,5.591969,0,,,
Fix,GPS,22.5948471500,88.3618911600,-46.3499755859375,0.0,9.935046,,1731226504000,0.07070936,,563259789197082,4.598068,0,,,
Fix,GPS,22.5948471600,88.3618911700,-46.34808349609375,0.0,9.935046,,1731226505000,0.070712976,,563260781739842,4.491461,0,,,
Fix,GPS,22.5948471600,88.3618911900,-46.346832275390625,0.0,9.935046,,1731226506000,0.07070925,,563261790231353,4.0038915,0,,,
Fix,GPS,22.5948471600,88.3618912000,-46.34454345703125,0.0,9.935046,,1731226507000,0.070710905,,563262792020467,3.761389,0,,,
Fix,GPS,22.5948471500,88.3618912000,-46.34326171875,0.0,9.935046,,1731226508000,0.0707126,,563263792693695,3.6025257,0,,,
Fix,GPS,22.5948471600,88.3618912300,-46.343048095703125,0.0,9.935046,,1731226509000,0.070709385,,563264786199216,3.1054397,0,,,
Fix,GPS,22.5948471500,88.3618912300,-46.3433837890625,0.0,9.935046,,1731226510000,0.07071608,,563265791052027,3.26507,0,,,
Fix,GPS,22.5948471600,88.3618912400,-46.34100341796875,0.0,9.935046,,1731226511000,0.0707095,,563266792797861,3.2233868,0,,,
Fix,GPS,22.5948471600,88.3618912500,-46.339599609375,0.0,9.935046,,1731226512000,0.07070874,,563267781500360,2.823125,0,,,
Fix,GPS,22.5948471700,88.3618912700,-46.3382568359375,0.0,9.935046,,1731226513000,0.07070961,,563268790769318,2.5353155,0,,,
Fix,GPS,22.5948471800,88.3618912900,-46.337249755859375,0.0,9.935046,,1731226514000,0.07071038,,563269791010308,3.0662725,0,,,
Fix,GPS,22.5948471900,88.3618913000,-46.3343505859375,0.0,9.935046,,1731226515000,0.07071546,,563270780609110,3.0577545,0,,,
Fix,GPS,22.5948471900,88.3618913200,-46.332305908203125,0.0,9.935046,,1731226516000,0.07070849,,563271780755931,2.7931795,0,,,
Fix,GPS,22.5948472000,88.3618913400,-46.330078125,0.0,9.935046,,1731226517000,0.07071433,,563272787813952,2.5,0,,,
Fix,GPS,22.5948472100,88.3618913600,-46.329803466796875,0.0,9.935046,,1731226518000,0.07071147,,563273784781921,2.5629432,0,,,
Fix,GPS,22.5948472100,88.3618913700,-46.327056884765625,0.0,9.935046,,1731226519000,0.07071224,,563274781812337,2.5758104,0,,,
Fix,GPS,22.5948472200,88.3618913800,-46.325927734375,0.0,9.935046,,1731226520000,0.07072076,,563275790474888,2.5528817,0,,,
Fix,GPS,22.5948472300,88.3618913800,-46.3251953125,0.0,9.935046,,1731226521000,0.07071124,,563276786019836,2.5582325,0,,,
Fix,GPS,22.5948472200,88.3618913800,-46.324859619140625,0.0,9.935046,,1731226522000,0.07071623,,563277781450096,2.508805,0,,,
Fix,GPS,22.5948472100,88.3618913800,-46.32257080078125,0.0,9.935046,,1731226523000,0.070713036,,563278792016086,2.5411618,0,,,
Fix,GPS,22.5948472100,88.3618913900,-46.321136474609375,0.0,9.935046,,1731226524000,0.07070909,,563279783445513,2.5397494,0,,,
Fix,GPS,22.5948472300,88.3618914100,-46.319244384765625,0.0,9.935046,,1731226525000,0.07070709,,563280784417908,2.5,0,,,
Fix,GPS,22.5948472200,88.3618914000,-46.3194580078125,0.0,9.935046,,1731226526000,0.07071536,,563281787670564,2.5,0,,,
Fix,GPS,22.5948472300,88.3618914100,-46.318511962890625,0.0,9.935046,,1731226527000,0.07070707,,563282786675459,2.5,0,,,
Fix,GPS,22.5948472300,88.3618914200,-46.31439208984375,0.0,9.935046,,1731226528000,0.07070835,,563283780439886,2.5,0,,,
Fix,GPS,22.5948472300,88.3618914300,-46.3140869140625,0.0,9.935046,,1731226529000,0.07070886,,563284780434312,2.50072,0,,,
Fix,GPS,22.5948472400,88.3618914500,-46.310546875,0.0,9.935046,,1731226530000,0.07070841,,563285785539625,2.5039446,0,,,
Fix,GPS,22.5948472500,88.3618914600,-46.309478759765625,0.0,9.935046,,1731226531000,0.07070829,,563286787019832,2.5,0,,,
Fix,GPS,22.5948472700,88.3618914900,-46.30828857421875,0.0,9.935046,,1731226532000,0.07071275,,563287783534155,2.5,0,,,
Fix,GPS,22.5948472700,88.3618915000,-46.307647705078125,0.0,9.935046,,1731226533000,0.070710085,,563288783511394,2.5,0,,,
Fix,GPS,22.5948472600,88.3618915000,-46.307159423828125,0.0,9.935046,,1731226534000,0.07071186,,563289782498009,2.5,0,,,
Fix,GPS,22.5948472700,88.3618915000,-46.304656982421875,0.0,9.935046,,1731226535000,0.070709385,,563290788480665,2.5,0,,,
Fix,GPS,22.5948472700,88.3618915100,-46.3018798828125,0.0,9.935046,,1731226536000,0.07070915,,563291780053685,2.5,0,,,
Fix,GPS,22.5948472800,88.3618915300,-46.300140380859375,0.0,9.935046,,1731226537000,0.07070865,,563292785015039,2.5,0,,,
Fix,GPS,22.5948472800,88.3618915300,-46.29864501953125,0.0,9.935046,,1731226538000,0.0707087,,563293782377851,2.5,0,,,
Fix,GPS,22.5948472900,88.3618915400,-46.296142578125,0.0,9.935046,,1731226539000,0.070709914,,563294779564621,2.5,0,,,
Fix,GPS,22.5948473000,88.3618915400,-46.29449462890625,0.0,9.935046,,1731226540000,0.070708625,,563295792789412,2.5,0,,,
Fix,GPS,22.5948473200,88.3618915500,-46.292755126953125,0.0,9.935046,,1731226541000,0.07070863,,563296782516131,2.5,0,,,
Fix,GPS,22.5948473300,88.3618915600,-46.290069580078125,0.0,9.935046,,1731226542000,0.07070747,,563297792972380,2.5,0,,,
Fix,GPS,22.5948473400,88.3618915600,-46.287811279296875,0.0,9.935046,,1731226543000,0.07070934,,563298792375348,2.5,0,,,
Fix,GPS,22.5948473500,88.3618915800,-46.286651611328125,0.0,9.935046,,1731226544000,0.07070933,,563299786102327,2.5,0,,,
Fix,GPS,22.5948473500,88.3618915900,-46.286285400390625,0.0,9.935046,,1731226545000,0.0707085,,563300791175973,2.5,0,,,
Fix,GPS,22.5948473400,88.3618915900,-46.28564453125,0.0,9.935046,,1731226546000,0.07071145,,563301787087327,2.5,0,,,
Fix,GPS,22.5948473500,88.3618916000,-46.28338623046875,0.0,9.935046,,1731226547000,0.0707084,,563302785764149,2.5,0,,,
Fix,GPS,22.5948473400,88.3618916200,-46.280975341796875,0.0,9.935046,,1731226548000,0.07070858,,563303782691076,2.5,0,,,
Fix,GPS,22.5948473500,88.3618916300,-46.279815673828125,0.0,9.935046,,1731226549000,0.07070847,,563304786118472,2.5,0,,,
Fix,GPS,22.5948473700,88.3618916400,-46.27801513671875,0.0,9.935046,,1731226550000,0.070708565,,563305790831388,2.5,0,,,
Fix,GPS,22.5948473700,88.3618916500,-46.276611328125,0.0,9.935046,,1731226551000,0.07070906,,563306786050502,2.5,0,,,
Fix,GPS,22.5948473800,88.3618916600,-46.275482177734375,0.0,9.935046,,1731226552000,0.07071037,,563307781719304,2.5,0,,,
Fix,GPS,22.5948473900,88.3618916700,-46.2745361328125,0.0,9.935046,,1731226553000,0.07071045,,563308782572532,2.5,0,,,
Fix,GPS,22.5948473900,88.3618916800,-46.273162841796875,0.0,9.935046,,1731226554000,0.07070903,,563309784561333,2.5,0,,,
Fix,GPS,22.5948474000,88.3618916800,-46.2708740234375,0.0,9.935046,,1731226555000,0.07070961,,563310786061177,2.5,0,,,
Fix,GPS,22.5948474000,88.3618916900,-46.2696533203125,0.0,9.935046,,1731226556000,0.07070958,,563311785587063,2.5,0,,,
Fix,GPS,22.5948474000,88.3618917000,-46.26763916015625,0.0,9.935046,,1731226557000,0.07070849,,563312784581905,2.5,0,,,
Fix,GPS,22.5948474100,88.3618917000,-46.265869140625,0.0,9.935046,,1731226558000,0.07071035,,563313790147478,2.5,0,,,
Fix,GPS,22.5948474200,88.3618917000,-46.2645263671875,0.0,9.935046,,1731226559000,0.07071059,,563314790286331,2.5,0,,,
Fix,GPS,22.5948474100,88.3618917000,-46.263214111328125,0.0,9.935046,,1731226560000,0.070709765,,563315789384404,2.5,0,,,
Fix,GPS,22.5948474300,88.3618917100,-46.2618408203125,0.0,9.935046,,1731226561000,0.07070971,,563316788075290,2.5,0,,,
Fix,GPS,22.5948474300,88.3618917200,-46.260498046875,0.0,9.935046,,1731226562000,0.07071089,,563317786038101,2.5,0,,,
Fix,GPS,22.5948474200,88.3618917200,-46.25732421875,0.0,9.935046,,1731226563000,0.07071028,,563318786884716,2.5,0,,,
Fix,GPS,22.5948474200,88.3618917200,-46.25653076171875,0.0,9.935046,,1731226564000,0.07071385,,563319784135758,2.5,0,,,
Fix,GPS,22.5948474100,88.3618917100,-46.2557373046875,0.0,9.935046,,1731226565000,0.070709735,,563320790118569,2.5,0,,,
Fix,GPS,22.5948474000,88.3618917100,-46.25421142578125,0.0,9.935046,,1731226566000,0.07071133,,563321787125236,2.5,0,,,
Fix,GPS,22.5948473900,88.3618917000,-46.2530517578125,0.0,9.935046,,1731226567000,0.07070977,,563322780029089,2.5,0,,,
Fix,GPS,22.5948473900,88.3618917100,-46.251983642578125,0.0,9.935046,,1731226568000,0.0707104,,563323791714870,2.5,0,,,
Fix,GPS,22.5948473800,88.3618917100,-46.250762939453125,0.0,9.935046,,1731226569000,0.07071032,,563324780948881,2.5,0,,,
Fix,GPS,22.5948473700,88.3618917000,-46.249298095703125,0.0,9.935046,,1731226570000,0.070710324,,563325785906589,2.5,0,,,
Fix,GPS,22.5948473700,88.3618917000,-46.247283935546875,0.0,9.935046,,1731226571000,0.070709765,,563326791141744,2.5,0,,,
Fix,GPS,22.5948473600,88.3618917000,-46.2457275390625,0.0,9.935046,,1731226572000,0.07070974,,563327785565026,2.5,0,,,
Fix,GPS,22.5948473500,88.3618917000,-46.2457275390625,0.0,9.935046,,1731226573000,0.07070869,,563328781315233,2.5,0,,,
Fix,GPS,22.5948473400,88.3618917000,-46.24468994140625,0.0,9.935046,,1731226574000,0.07070864,,563329791423982,2.5,0,,,
Fix,GPS,22.5948473300,88.3618917000,-46.242889404296875,0.0,9.935046,,1731226575000,0.07071291,,563330786895127,2.5,0,,,
Fix,GPS,22.5948473200,88.3618917100,-46.24163818359375,0.0,9.935046,,1731226576000,0.0707113,,563331784296481,2.5,0,,,
Fix,GPS,22.5948473000,88.3618917100,-46.240447998046875,0.0,9.935046,,1731226577000,0.07071182,,563332791405388,2.5,0,,,
Fix,GPS,22.5948472900,88.3618917100,-46.2388916015625,0.0,9.935046,,1731226578000,0.07071085,,563333784922262,2.5,0,,,
Fix,GPS,22.5948472700,88.3618917000,-46.234893798828125,0.0,9.935046,,1731226579000,0.07071164,,563334781609709,2.5,0,,,
Fix,GPS,22.5948472700,88.3618916900,-46.234222412109375,0.0,9.935046,,1731226580000,0.0707124,,563335792247053,2.5,0,,,
Fix,GPS,22.5948472500,88.3618916900,-46.233123779296875,0.0,9.935046,,1731226581000,0.070713006,,563336787553407,2.5,0,,,
Fix,GPS,22.5948472400,88.3618916900,-46.232696533203125,0.0,9.935046,,1731226582000,0.07071685,,563337791860907,2.5,0,,,
Fix,GPS,22.5948472400,88.3618916800,-46.23223876953125,0.0,9.935046,,1731226583000,0.07071084,,563338791197364,2.5,0,,,
Fix,GPS,22.5948472300,88.3618916800,-46.232696533203125,0.0,9.935046,,1731226584000,0.07071198,,563339786608979,2.5,0,,,
Fix,GPS,22.5948472200,88.3618916700,-46.231475830078125,0.0,9.935046,,1731226585000,0.07071009,,563340783323979,2.5,0,,,
Fix,GPS,22.5948472000,88.3618916600,-46.2293701171875,0.0,9.935046,,1731226586000,0.07071147,,563341785298978,2.5,0,,,
Fix,GPS,22.5948471900,88.3618916600,-46.226959228515625,0.0,9.935046,,1731226587000,0.07071152,,563342785501478,2.5,0,,,
Fix,GPS,22.5948471700,88.3618916600,-46.225250244140625,0.0,9.935046,,1731226588000,0.07071057,,563343779656425,2.5,0,,,
Fix,GPS,22.5948471700,88.3618916700,-46.2261962890625,0.0,9.935046,,1731226589000,0.07071045,,563344792486737,2.5,0,,,
Fix,GPS,22.5948471600,88.3618916600,-46.227020263671875,0.0,9.935046,,1731226590000,0.07071168,,563345779698872,2.5,0,,,
Fix,GPS,22.5948471600,88.3618916700,-46.225860595703125,0.0,9.935046,,1731226591000,0.07071039,,563346781059758,2.5,0,,,
Fix,GPS,22.5948471400,88.3618916600,-46.224334716796875,0.0,9.935046,,1731226592000,0.07071034,,563347784292933,2.5,0,,,
Fix,GPS,22.5948471400,88.3618916600,-46.22479248046875,0.0,9.935046,,1731226593000,0.07071175,,563348779268246,2.5,0,,,
Fix,GPS,22.5948471300,88.3618916700,-46.22552490234375,0.0,9.935046,,1731226594000,0.07071089,,563349779952100,2.5,0,,,
Fix,GPS,22.5948471200,88.3618916700,-46.225555419921875,0.0,9.935046,,1731226595000,0.070712015,,563350787727204,2.5,0,,,
Fix,GPS,22.5948471100,88.3618916700,-46.224853515625,0.0,9.935046,,1731226596000,0.07071132,,563351787256890,2.5,0,,,
Fix,GPS,22.5948471100,88.3618916600,-46.22564697265625,0.0,9.935046,,1731226597000,0.07071206,,563352792359703,2.5,0,,,
Fix,GPS,22.5948471100,88.3618916700,-46.225616455078125,0.0,9.935046,,1731226598000,0.0707114,,563353791972984,2.5,0,,,
Fix,GPS,22.5948471000,88.3618916800,-46.226104736328125,0.0,9.935046,,1731226599000,0.070711344,,563354782116056,2.5,0,,,
Fix,GPS,22.5948470900,88.3618916900,-46.2266845703125,0.0,9.935046,,1731226600000,0.07071106,,563355790632827,2.5,0,,,
Fix,GPS,22.5948470800,88.3618916800,-46.225982666015625,0.0,9.935046,,1731226601000,0.07071164,,563356791875222,2.5,0,,,
Fix,GPS,22.5948470800,88.3618916900,-46.2266845703125,0.0,9.935046,,1731226602000,0.07071103,,563357784429024,2.5,0,,,
Fix,GPS,22.5948470600,88.3618916900,-46.224365234375,0.0,9.935046,,1731226603000,0.07071221,,563358789653919,2.5,0,,,
Fix,GPS,22.5948470600,88.3618916900,-46.223968505859375,0.0,9.935046,,1731226604000,0.070710965,,563359780821210,2.5,0,,,
Fix,GPS,22.5948470500,88.3618916800,-46.22296142578125,0.0,9.935046,,1731226605000,0.0707121,,563360792659283,2.5,0,,,
Fix,GPS,22.5948470500,88.3618916900,-46.223602294921875,0.0,9.935046,,1731226606000,0.07071088,,563361790614699,2.5,0,,,
Fix,GPS,22.5948470500,88.3618917000,-46.221832275390625,0.0,9.935046,,1731226607000,0.070710436,,563362781414178,2.5,0,,,
Fix,GPS,22.5948470500,88.3618917000,-46.222137451171875,0.0,9.935046,,1731226608000,0.07071144,,563363792476626,2.5,0,,,
Fix,GPS,22.5948470400,88.3618916900,-46.22198486328125,0.0,9.935046,,1731226609000,0.070712924,,563364789239751,2.5,0,,,
Fix,GPS,22.5948470300,88.3618916900,-46.22216796875,0.0,9.935046,,1731226610000,0.070712045,,563365786996157,2.5,0,,,
Fix,GPS,22.5948470300,88.3618916800,-46.222869873046875,0.0,9.935046,,1731226611000,0.07071094,,563366780058396,2.5,0,,,
Fix,GPS,22.5948470300,88.3618916800,-46.223785400390625,0.0,9.935046,,1731226612000,0.07071152,,563367785638030,2.5,0,,,
Fix,GPS,22.5948470400,88.3618916900,-46.221954345703125,0.0,9.935046,,1731226613000,0.07070936,,563368782694801,2.5,0,,,
Fix,GPS,22.5948470400,88.3618916800,-46.222015380859375,0.0,9.935046,,1731226614000,0.07071439,,563369786436780,2.5,0,,,
Fix,GPS,22.5948470400,88.3618916900,-46.22314453125,0.0,9.935046,,1731226615000,0.070711784,,563370782907613,2.5,0,,,
Fix,GPS,22.5948470400,88.3618916900,-46.22509765625,0.0,9.935046,,1731226616000,0.070711344,,563371791326675,2.5,0,,,
Fix,GPS,22.5948470400,88.3618917000,-46.226104736328125,0.0,9.935046,,1731226617000,0.07071104,,563372792336309,2.5,0,,,
Fix,GPS,22.5948470400,88.3618917000,-46.227142333984375,0.0,9.935046,,1731226618000,0.0707117,,563373779497872,2.5,0,,,
Fix,GPS,22.5948470300,88.3618917000,-46.227203369140625,0.0,9.935046,,1731226619000,0.07071093,,563374782511518,2.5,0,,,
Fix,GPS,22.5948470400,88.3618917100,-46.2286376953125,0.0,9.935046,,1731226620000,0.07071218,,563375781355527,2.5,0,,,
Fix,GPS,22.5948470600,88.3618917300,-46.226165771484375,0.0,9.935046,,1731226621000,0.07070891,,563376792347089,2.5,0,,,
Fix,GPS,22.5948470900,88.3618917500,-46.223968505859375,0.0,9.935046,,1731226622000,0.070709236,,563377780564901,2.5,0,,,
Fix,GPS,22.5948470900,88.3618917500,-46.224884033203125,0.0,9.935046,,1731226623000,0.070714444,,563378787625214,2.5,0,,,
Fix,GPS,22.5948470900,88.3618917500,-46.226409912109375,0.0,9.935046,,1731226624000,0.070711374,,563379782603703,2.5,0,,,
Fix,GPS,22.5948471100,88.3618917800,-46.223968505859375,0.0,9.935046,,1731226625000,0.070710845,,563380782716254,2.5,0,,,
Fix,GPS,22.5948471300,88.3618918000,-46.223602294921875,0.0,9.935046,,1731226626000,0.070708945,,563381792200317,2.5,0,,,
Fix,GPS,22.5948471300,88.3618918000,-46.223602294921875,0.0,9.935046,,1731226627000,0.07070994,,563382783794848,2.5,0,,,
Fix,GPS,22.5948471500,88.3618918200,-46.22247314453125,0.0,9.935046,,1731226628000,0.07070869,,563383782146462,2.5,0,,,
Fix,GPS,22.5948471700,88.3618918400,-46.2205810546875,0.0,9.935046,,1731226629000,0.07070932,,563384784494014,2.5,0,,,
Fix,GPS,22.5948472000,88.3618918700,-46.21783447265625,0.0,9.935046,,1731226630000,0.07071019,,563385782667190,2.5,0,,,
Fix,GPS,22.5948472200,88.3618918800,-46.217376708984375,0.0,9.935046,,1731226631000,0.07070954,,563386791673388,2.5,0,,,
Fix,GPS,22.5948472400,88.3618919000,-46.215362548828125,0.0,9.935046,,1731226632000,0.070710525,,563387783539117,2.5,0,,,
Fix,GPS,22.5948472600,88.3618919000,-46.21368408203125,0.0,9.935046,,1731226633000,0.0707094,,563388783592970,2.5,0,,,
Fix,GPS,22.5948472800,88.3618919200,-46.212860107421875,0.0,9.935046,,1731226634000,0.07071055,,563389780891096,2.5,0,,,
Fix,GPS,22.5948472800,88.3618919200,-46.214630126953125,0.0,9.935046,,1731226635000,0.07071144,,563390792135366,2.5,0,,,
Fix,GPS,22.5948473100,88.3618919400,-46.2142333984375,0.0,9.935046,,1731226636000,0.07070812,,563391785987761,2.5,0,,,
Fix,GPS,22.5948473300,88.3618919700,-46.213226318359375,0.0,9.935046,,1731226637000,0.07070787,,563392792449375,2.5,0,,,
Fix,GPS,22.5948473500,88.3618919900,-46.2117919921875,0.0,9.935046,,1731226638000,0.07070826,,563393785601980,2.5,0,,,
Fix,GPS,22.5948473700,88.3618920200,-46.2113037109375,0.0,9.935046,,1731226639000,0.07070817,,563394782064479,2.5,0,,,
Fix,GPS,22.5948473900,88.3618920400,-46.21063232421875,0.0,9.935046,,1731226640000,0.070709035,,563395786863281,2.5,0,,,
Fix,GPS,22.5948474200,88.3618920600,-46.2100830078125,0.0,9.935046,,1731226641000,0.07070845,,563396788723175,2.5,0,,,
Fix,GPS,22.5948474300,88.3618920900,-46.20947265625,0.0,9.935046,,1731226642000,0.07070865,,563397781747759,2.5,0,,,
Fix,GPS,22.5948474400,88.3618920900,-46.210723876953125,0.0,9.935046,,1731226643000,0.07070875,,563398785847603,2.5,0,,,
Fix,GPS,22.5948474600,88.3618921000,-46.21197509765625,0.0,9.935046,,1731226644000,0.07070975,,563399783441247,2.5,0,,,
Fix,GPS,22.5948474600,88.3618921000,-46.21337890625,0.0,9.935046,,1731226645000,0.07070846,,563400785488331,2.5,0,,,
Fix,GPS,22.5948474900,88.3618921300,-46.21142578125,0.0,9.935046,,1731226646000,0.0707087,,563401780226350,2.5,0,,,
Fix,GPS,22.5948475100,88.3618921400,-46.21038818359375,0.0,9.935046,,1731226647000,0.0707092,,563402791199059,2.5,0,,,
Fix,GPS,22.5948475300,88.3618921600,-46.209625244140625,0.0,9.935046,,1731226648000,0.07070977,,563403780912652,2.5,0,,,
Fix,GPS,22.5948475500,88.3618921600,-46.2083740234375,0.0,9.935046,,1731226649000,0.070711754,,563404786422600,2.5,0,,,
Fix,GPS,22.5948475800,88.3618921800,-46.20672607421875,0.0,9.935046,,1731226650000,0.07071011,,563405788233537,2.5,0,,,
Fix,GPS,22.5948476200,88.3618922000,-46.204986572265625,0.0,9.935046,,1731226651000,0.07070835,,563406785160828,2.5,0,,,
Fix,GPS,22.5948476400,88.3618922200,-46.203857421875,0.0,9.935046,,1731226652000,0.07070851,,563407786389318,2.5,0,,,
Fix,GPS,22.5948476600,88.3618922300,-46.203338623046875,0.0,9.935046,,1731226653000,0.07070953,,563408784039109,2.5,0,,,
Fix,GPS,22.5948476700,88.3618922300,-46.203460693359375,0.0,9.935046,,1731226654000,0.07071226,,563409782569316,2.5,0,,,
Fix,GPS,22.5948477000,88.3618922500,-46.2003173828125,0.0,9.935046,,1731226655000,0.07071079,,563410786835253,2.5,0,,,
Fix,GPS,22.5948477000,88.3618922400,-46.20062255859375,0.0,9.935046,,1731226656000,0.07071223,,563411783792649,2.5,0,,,
Fix,GPS,22.5948477100,88.3618922400,-46.200225830078125,0.0,9.935046,,1731226657000,0.070710644,,563412785405565,2.5,0,,,
Fix,GPS,22.5948477400,88.3618922600,-46.19891357421875,0.0,9.935046,,1731226658000,0.07070942,,563413785395460,2.5,0,,,
Fix,GPS,22.5948477600,88.3618922600,-46.1993408203125,0.0,9.935046,,1731226659000,0.07070893,,563414784477180,2.5,0,,,
Fix,GPS,22.5948477800,88.3618922800,-46.19915771484375,0.0,9.935046,,1731226660000,0.07071007,,563415791666867,2.5,0,,,
Fix,GPS,22.5948478000,88.3618922900,-46.199310302734375,0.0,9.935046,,1731226661000,0.0707087,,563416780533793,2.5,0,,,
Fix,GPS,22.5948478100,88.3618922900,-46.200439453125,0.0,9.935046,,1731226662000,0.07070876,,563417780062647,2.5,0,,,
Fix,GPS,22.5948478200,88.3618923000,-46.199432373046875,0.0,9.935046,,1731226663000,0.07071302,,563418785489469,2.5,0,,,
Fix,GPS,22.5948478400,88.3618923000,-46.1995849609375,0.0,9.935046,,1731226664000,0.07070955,,563419783464313,2.5,0,,,
Fix,GPS,22.5948478500,88.3618923000,-46.19964599609375,0.0,9.935046,,1731226665000,0.07070959,,563420785427438,2.5,0,,,
Fix,GPS,22.5948478600,88.3618923100,-46.200164794921875,0.0,9.935046,,1731226666000,0.07070832,,563421785571239,2.5,0,,,
Fix,GPS,22.5948478800,88.3618923300,-46.20025634765625,0.0,9.935046,,1731226667000,0.07070833,,563422784260561,2.5,0,,,
Fix,GPS,22.5948479000,88.3618923400,-46.199493408203125,0.0,9.935046,,1731226668000,0.0707102,,563423788891083,2.5,0,,,
Fix,GPS,22.5948479100,88.3618923500,-46.19976806640625,0.0,9.935046,,1731226669000,0.07070828,,563424784509050,2.5,0,,,
Fix,GPS,22.5948479100,88.3618923500,-46.20025634765625,0.0,9.935046,,1731226670000,0.07070948,,563425782224727,2.5,0,,,
Fix,GPS,22.5948479300,88.3618923600,-46.19921875,0.0,9.935046,,1731226671000,0.07071001,,563426781571810,2.5,0,,,
Fix,GPS,22.5948479400,88.3618923700,-46.2003173828125,0.0,9.935046,,1731226672000,0.070708245,,563427780433164,2.5,0,,,
Fix,GPS,22.5948479500,88.3618923600,-46.200225830078125,0.0,9.935046,,1731226673000,0.07071167,,563428787646236,2.5,0,,,
Fix,GPS,22.5948479700,88.3618923700,-46.200897216796875,0.0,9.935046,,1731226674000,0.07070821,,563429781539413,2.5,0,,,
Fix,GPS,22.5948479900,88.3618923800,-46.20086669921875,0.0,9.935046,,1731226675000,0.07070834,,563430788977903,2.5,0,,,
Fix,GPS,22.5948480100,88.3618923900,-46.201141357421875,0.0,9.935046,,1731226676000,0.070708215,,563431788267485,2.5,0,,,
Fix,GPS,22.5948480100,88.3618923900,-46.20184326171875,0.0,9.935046,,1731226677000,0.07071005,,563432780755662,2.5,0,,,
Fix,GPS,22.5948480200,88.3618923900,-46.202667236328125,0.0,9.935046,,1731226678000,0.07070959,,563433779503422,2.5,0,,,
Fix,GPS,22.5948480300,88.3618923800,-46.203582763671875,0.0,9.935046,,1731226679000,0.07071021,,563434781257224,2.5,0,,,
Fix,GPS,22.5948480300,88.3618923900,-46.204315185546875,0.0,9.935046,,1731226680000,0.07070971,,563435781491441,2.5,0,,,
Fix,GPS,22.5948480500,88.3618924000,-46.203704833984375,0.0,9.935046,,1731226681000,0.07070802,,563436790645296,2.5,0,,,
Fix,GPS,22.5948480600,88.3618924100,-46.20367431640625,0.0,9.935046,,1731226682000,0.07070825,,563437790128473,2.5,0,,,
Fix,GPS,22.5948480800,88.3618924200,-46.202239990234375,0.0,9.935046,,1731226683000,0.070709184,,563438785181597,2.5,0,,,
Fix,GPS,22.5948480800,88.3618924200,-46.20257568359375,0.0,9.935046,,1731226684000,0.07071166,,563439790327587,2.5,0,,,
Fix,GPS,22.5948480900,88.3618924200,-46.203521728515625,0.0,9.935046,,1731226685000,0.070709735,,563440783622013,2.5,0,,,
Fix,GPS,22.5948481000,88.3618924000,-46.20294189453125,0.0,9.935046,,1731226686000,0.0707106,,563441779103575,2.5,0,,,
Fix,GPS,22.5948481100,88.3618924000,-46.202972412109375,0.0,9.935046,,1731226687000,0.07071144,,563442791797221,2.5,0,,,
Fix,GPS,22.5948481200,88.3618924000,-46.202850341796875,0.0,9.935046,,1731226688000,0.070710786,,563443787604616,2.5,0,,,
Fix,GPS,22.5948481300,88.3618924000,-46.20245361328125,0.0,9.935046,,1731226689000,0.07071073,,563444784042793,2.5,0,,,
Fix,GPS,22.5948481300,88.3618923900,-46.201934814453125,0.0,9.935046,,1731226690000,0.07071073,,563445781569616,2.5,0,,,
Fix,GPS,22.5948481400,88.3618923900,-46.202484130859375,0.0,9.935046,,1731226691000,0.07070957,,563446780256074,2.5,0,,,
Fix,GPS,22.5948481500,88.3618923900,-46.202545166015625,0.0,9.935046,,1731226692000,0.07071127,,563447785567479,2.5,0,,,
Fix,GPS,22.5948481500,88.3618923900,-46.20355224609375,0.0,9.935046,,1731226693000,0.0707113,,563448779730656,2.5,0,,,
Fix,GPS,22.5948481500,88.3618923900,-46.2042236328125,0.0,9.935046,,1731226694000,0.070709646,,563449788827895,2.5,0,,,
Fix,GPS,22.5948481600,88.3618923800,-46.20440673828125,0.0,9.935046,,1731226695000,0.070710965,,563450782330603,2.5,0,,,
Fix,GPS,22.5948481800,88.3618923900,-46.20257568359375,0.0,9.935046,,1731226696000,0.07071057,,563451791817166,2.5,0,,,
Fix,GPS,22.5948481800,88.3618923900,-46.20318603515625,0.0,9.935046,,1731226697000,0.07070958,,563452782606592,2.5,0,,,
Fix,GPS,22.5948481900,88.3618923900,-46.20245361328125,0.0,9.935046,,1731226698000,0.07070996,,563453789894613,2.5,0,,,
Fix,GPS,22.5948481900,88.3618923900,-46.20263671875,0.0,9.935046,,1731226699000,0.07071631,,563454790413882,2.5,0,,,
Fix,GPS,22.5948481900,88.3618923800,-46.20147705078125,0.0,9.935046,,1731226700000,0.07071364,,563455789926748,2.5,0,,,
Fix,GPS,22.5948481800,88.3618923800,-46.201507568359375,0.0,9.935046,,1731226701000,0.07071349,,563456788645079,2.5,0,,,
Fix,GPS,22.5948482000,88.3618923700,-46.200958251953125,0.0,9.935046,,1731226702000,0.07071377,,563457778945184,2.5,0,,,
Fix,GPS,22.5948482100,88.3618923600,-46.200531005859375,0.0,9.935046,,1731226703000,0.07071061,,563458785323152,2.5,0,,,
Fix,GPS,22.5948482200,88.3618923600,-46.200531005859375,0.0,9.935046,,1731226704000,0.07070922,,563459782590912,2.5,0,,,
Fix,GPS,22.5948482200,88.3618923600,-46.20068359375,0.0,9.935046,,1731226705000,0.07071183,,563460779073568,2.5,0,,,
Fix,GPS,22.5948482300,88.3618923600,-46.200775146484375,0.0,9.935046,,1731226706000,0.07070925,,563461790674609,2.5,0,,,
Fix,GPS,22.5948482400,88.3618923500,-46.200927734375,0.0,9.935046,,1731226707000,0.070712306,,563462792253047,2.5,0,,,
Fix,GPS,22.5948482400,88.3618923400,-46.20111083984375,0.0,9.935046,,1731226708000,0.0707106,,563463781857785,2.5,0,,,
Fix,GPS,22.5948482500,88.3618923400,-46.200775146484375,0.0,9.935046,,1731226709000,0.07071486,,563464786767056,2.5,0,,,
Fix,GPS,22.5948482500,88.3618923300,-46.200927734375,0.0,9.935046,,1731226710000,0.070710585,,563465784889608,2.5,0,,,
Fix,GPS,22.5948482600,88.3618923200,-46.200347900390625,0.0,9.935046,,1731226711000,0.07071058,,563466791523982,2.5,0,,,
Fix,GPS,22.5948482600,88.3618923200,-46.2003173828125,0.0,9.935046,,1731226712000,0.07070908,,563467787300492,2.5,0,,,
Fix,GPS,22.5948482700,88.3618923200,-46.200408935546875,0.0,9.935046,,1731226713000,0.07070932,,563468785958773,2.5,0,,,
Fix,GPS,22.5948482700,88.3618923100,-46.2003173828125,0.0,9.935046,,1731226714000,0.070712596,,563469778984762,2.5,0,,,
Fix,GPS,22.5948482700,88.3618923100,-46.199371337890625,0.0,9.935046,,1731226715000,0.07071086,,563470781995699,2.5,0,,,
Fix,GPS,22.5948482800,88.3618923100,-46.20037841796875,0.0,9.935046,,1731226716000,0.07070905,,563471782470960,2.5,0,,,
Fix,GPS,22.5948482800,88.3618923200,-46.200225830078125,0.0,9.935046,,1731226717000,0.0707099,,563472785956949,2.5,0,,,
Fix,GPS,22.5948482900,88.3618923100,-46.199798583984375,0.0,9.935046,,1731226718000,0.07070946,,563473782277365,2.5,0,,,
Fix,GPS,22.5948482900,88.3618923100,-46.199951171875,0.0,9.935046,,1731226719000,0.07070994,,563474784667938,2.5,0,,,
Fix,GPS,22.5948482800,88.3618923100,-46.200103759765625,0.0,9.935046,,1731226720000,0.07071207,,563475780329761,2.5,0,,,
Fix,GPS,22.5948482900,88.3618923200,-46.19952392578125,0.0,9.935046,,1731226721000,0.07071067,,563476779848510,2.5,0,,,
Fix,GPS,22.5948482900,88.3618923200,-46.199249267578125,0.0,9.935046,,1731226722000,0.07070989,,563477781701477,2.5,0,,,
Fix,GPS,22.5948482900,88.3618923200,-46.199127197265625,0.0,9.935046,,1731226723000,0.07071198,,563478781244967,2.5,0,,,
Fix,GPS,22.5948482900,88.3618923100,-46.19854736328125,0.0,9.935046,,1731226724000,0.070709504,,563479784432623,2.5,0,,,
Fix,GPS,22.5948483000,88.3618923100,-46.197998046875,0.0,9.935046,,1731226725000,0.07070928,,563480781396113,2.5,0,,,
Fix,GPS,22.5948483100,88.3618923100,-46.19842529296875,0.0,9.935046,,1731226726000,0.07070888,,563481780243196,2.5,0,,,
Fix,GPS,22.5948483300,88.3618923100,-46.19830322265625,0.0,9.935046,,1731226727000,0.07070891,,563482781924341,2.5,0,,,
Fix,GPS,22.5948483300,88.3618923200,-46.19873046875,0.0,9.935046,,1731226728000,0.07070974,,563483781212986,2.5,0,,,
Fix,GPS,22.5948483500,88.3618923100,-46.197662353515625,0.0,9.935046,,1731226729000,0.07071059,,563484788512465,2.5,0,,,
Fix,GPS,22.5948483500,88.3618923100,-46.197509765625,0.0,9.935046,,1731226730000,0.070709385,,563485788518715,2.5,0,,,
Fix,GPS,22.5948483600,88.3618923100,-46.1968994140625,0.0,9.935046,,1731226731000,0.070710495,,563486790481943,2.5,0,,,
Fix,GPS,22.5948483700,88.3618923000,-46.196319580078125,0.0,9.935046,,1731226732000,0.07071135,,563487778992412,2.5,0,,,
Fix,GPS,22.5948483700,88.3618923000,-46.1954345703125,0.0,9.935046,,1731226733000,0.0707095,,563488787989079,2.5,0,,,
Fix,GPS,22.5948483800,88.3618922900,-46.19451904296875,0.0,9.935046,,1731226734000,0.07071058,,563489791454494,2.5,0,,,
Fix,GPS,22.5948483900,88.3618922900,-46.193328857421875,0.0,9.935046,,1731226735000,0.07071056,,563490782792307,2.5,0,,,
Fix,GPS,22.5948484000,88.3618922900,-46.192718505859375,0.0,9.935046,,1731226736000,0.07071056,,563491785785640,2.5,0,,,
Fix,GPS,22.5948484100,88.3618922800,-46.1925048828125,0.0,9.935046,,1731226737000,0.07071057,,563492781003504,2.5,0,,,
Fix,GPS,22.5948484000,88.3618922800,-46.191925048828125,0.0,9.935046,,1731226738000,0.07071202,,563493784518190,2.5,0,,,
Fix,GPS,22.5948484100,88.3618922700,-46.191802978515625,0.0,9.935046,,1731226739000,0.070710614,,563494780277879,2.5,0,,,
Fix,GPS,22.5948484000,88.3618922600,-46.191253662109375,0.0,9.935046,,1731226740000,0.070713535,,563495780124648,2.5,0,,,
Fix,GPS,22.5948484100,88.3618922400,-46.19000244140625,0.0,9.935046,,1731226741000,0.07071057,,563496791134649,2.5,0,,,
Fix,GPS,22.5948484100,88.3618922500,-46.190185546875,0.0,9.935046,,1731226742000,0.07071082,,563497785393085,2.5,0,,,
Fix,GPS,22.5948484200,88.3618922300,-46.188995361328125,0.0,9.935046,,1731226743000,0.07071291,,563498781452616,2.5,0,,,
Fix,GPS,22.5948484200,88.3618922300,-46.1885986328125,0.0,9.935046,,1731226744000,0.07071198,,563499779831782,2.5,0,,,
Fix,GPS,22.5948484100,88.3618922200,-46.18829345703125,0.0,9.935046,,1731226745000,0.07071203,,563500779113397,2.5,0,,,
Fix,GPS,22.5948484300,88.3618922100,-46.187042236328125,0.0,9.935046,,1731226746000,0.07071293,,563501788015739,2.5,0,,,
Fix,GPS,22.5948484200,88.3618922000,-46.187042236328125,0.0,9.935046,,1731226747000,0.07071224,,563502785310010,2.5,0,,,
Fix,GPS,22.5948484400,88.3618921900,-46.185577392578125,0.0,9.935046,,1731226748000,0.07071043,,563503779703291,2.5,0,,,
Fix,GPS,22.5948484300,88.3618921800,-46.18463134765625,0.0,9.935046,,1731226749000,0.07071229,,563504784931624,2.5,0,,,
Fix,GPS,22.5948484500,88.3618921700,-46.1834716796875,0.0,9.935046,,1731226750000,0.07071054,,563505790432405,2.5,0,,,
Fix,GPS,22.5948484600,88.3618921500,-46.181854248046875,0.0,9.935046,,1731226751000,0.07071313,,563506785390738,2.5,0,,,
Fix,GPS,22.5948484500,88.3618921500,-46.18145751953125,0.0,9.935046,,1731226752000,0.07071192,,563507778815113,2.5,0,,,
Fix,GPS,22.5948484700,88.3618921300,-46.179412841796875,0.0,9.935046,,1731226753000,0.0707098,,563508785896883,2.5,0,,,
Fix,GPS,22.5948484600,88.3618921300,-46.17913818359375,0.0,9.935046,,1731226754000,0.07071504,,563509791432820,2.5,0,,,
Fix,GPS,22.5948484800,88.3618921300,-46.177398681640625,0.0,9.935046,,1731226755000,0.07071054,,563510788429017,2.5,0,,,
Fix,GPS,22.5948485000,88.3618921100,-46.175323486328125,0.0,9.935046,,1731226756000,0.070713095,,563511784989174,2.5,0,,,
Fix,GPS,22.5948485100,88.3618921000,-46.17388916015625,0.0,9.935046,,1731226757000,0.07071298,,563512784270944,2.5,0,,,
Fix,GPS,22.5948485300,88.3618920900,-46.1715087890625,0.0,9.935046,,1731226758000,0.07071052,,563513788111412,2.5,0,,,
Fix,GPS,22.5948485400,88.3618920800,-46.169769287109375,0.0,9.935046,,1731226759000,0.07071061,,563514783190162,2.5,0,,,
Fix,GPS,22.5948485600,88.3618920700,-46.16748046875,0.0,9.935046,,1731226760000,0.07071056,,563515785662350,2.5,0,,,
Fix,GPS,22.5948485800,88.3618920500,-46.164794921875,0.0,9.935046,,1731226761000,0.07071335,,563516782029380,2.5,0,,,
Fix,GPS,22.5948485900,88.3618920400,-46.162933349609375,0.0,9.935046,,1731226762000,0.07071314,,563517787274223,2.5,0,,,
Fix,GPS,22.5948485800,88.3618920300,-46.1629638671875,0.0,9.935046,,1731226763000,0.07072082,,563518781783546,2.5,0,,,
Fix,GPS,22.5948486000,88.3618920200,-46.160400390625,0.0,9.935046,,1731226764000,0.07071123,,563519779137244,2.5,0,,,
Fix,GPS,22.5948486100,88.3618920000,-46.158538818359375,0.0,9.935046,,1731226765000,0.070710815,,563520791590420,2.5,0,,,
Fix,GPS,22.5948486300,88.3618920000,-46.1563720703125,0.0,9.935046,,1731226766000,0.07071082,,563521790928857,2.5,0,,,
Fix,GPS,22.5948486400,88.3618919800,-46.15484619140625,0.0,9.935046,,1731226767000,0.07071345,,563522782145835,2.5,0,,,
Fix,GPS,22.5948486600,88.3618919700,-46.152984619140625,0.0,9.935046,,1731226768000,0.07071101,,563523785064221,2.5,0,,,
Fix,GPS,22.5948486400,88.3618919700,-46.152435302734375,0.0,9.935046,,1731226769000,0.07071211,,563524784563908,2.5,0,,,
Fix,GPS,22.5948486600,88.3618919600,-46.1502685546875,0.0,9.935046,,1731226770000,0.07071095,,563525786344220,2.5,0,,,
Fix,GPS,22.5948486800,88.3618919500,-46.15069580078125,0.0,9.935046,,1731226771000,0.070710436,,563526778355052,2.5,0,,,
Fix,GPS,22.5948487000,88.3618919400,-46.148956298828125,0.0,9.935046,,1731226772000,0.07071007,,563527780958282,2.5,0,,,
Fix,GPS,22.5948487200,88.3618919300,-46.1468505859375,0.0,9.935046,,1731226773000,0.07071087,,563528790433334,2.5,0,,,
Fix,GPS,22.5948487300,88.3618919300,-46.1453857421875,0.0,9.935046,,1731226774000,0.07071081,,563529785596511,2.5,0,,,
Fix,GPS,22.5948487400,88.3618919300,-46.14349365234375,0.0,9.935046,,1731226775000,0.07071078,,563530791460156,2.5,0,,,
Fix,GPS,22.5948487600,88.3618919100,-46.141204833984375,0.0,9.935046,,1731226776000,0.070713125,,563531786908958,2.5,0,,,
Fix,GPS,22.5948487800,88.3618919000,-46.139495849609375,0.0,9.935046,,1731226777000,0.07071114,,563532789207135,2.5,0,,,
Fix,GPS,22.5948488000,88.3618918800,-46.135986328125,0.0,9.935046,,1731226778000,0.07071072,,563533789359478,2.5,0,,,
Fix,GPS,22.5948488300,88.3618918600,-46.136932373046875,0.0,9.935046,,1731226779000,0.07071044,,563534789815936,2.5,0,,,
Fix,GPS,22.5948488400,88.3618918500,-46.135223388671875,0.0,9.935046,,1731226780000,0.070711054,,563535790583383,2.5,0,,,
Fix,GPS,22.5948488500,88.3618918400,-46.132843017578125,0.0,9.935046,,1731226781000,0.07071378,,563536780192029,2.5,0,,,
Fix,GPS,22.5948488600,88.3618918300,-46.130950927734375,0.0,9.935046,,1731226782000,0.07071079,,563537784246195,2.5,0,,,
Fix,GPS,22.5948488800,88.3618918200,-46.128997802734375,0.0,9.935046,,1731226783000,0.07071181,,563538787784789,2.5,0,,,
Fix,GPS,22.5948489000,88.3618917900,-46.12860107421875,0.0,9.935046,,1731226784000,0.07071048,,563539779753382,2.5,0,,,
Fix,GPS,22.5948489200,88.3618917800,-46.128753662109375,0.0,9.935046,,1731226785000,0.07071068,,563540788620724,2.5,0,,,
Fix,GPS,22.5948489400,88.3618917500,-46.12933349609375,0.0,9.935046,,1731226786000,0.07071031,,563541784246714,2.5,0,,,
Fix,GPS,22.5948489600,88.3618917300,-46.130401611328125,0.0,9.935046,,1731226787000,0.07070835,,563542789373015,2.5,0,,,
Fix,GPS,22.5948489800,88.3618917100,-46.12799072265625,0.0,9.935046,,1731226788000,0.07070915,,563543789545411,2.5,0,,,
Fix,GPS,22.5948489900,88.3618917000,-46.125457763671875,0.0,9.935046,,1731226789000,0.07071389,,563544786121401,2.5,0,,,
Fix,GPS,22.5948490100,88.3618916800,-46.123779296875,0.0,9.935046,,1731226790000,0.070710115,,563545786248587,2.5,0,,,
Fix,GPS,22.5948490200,88.3618916600,-46.121734619140625,0.0,9.935046,,1731226791000,0.07070809,,563546791224056,2.5,0,,,
Fix,GPS,22.5948490500,88.3618916600,-46.120025634765625,0.0,9.935046,,1731226792000,0.07070701,,563547785754941,2.5,0,,,
Fix,GPS,22.5948490400,88.3618916500,-46.11834716796875,0.0,9.935046,,1731226793000,0.070708096,,563548786874107,2.5,0,,,
Fix,GPS,22.5948490500,88.3618916300,-46.115692138671875,0.0,9.935046,,1731226794000,0.07070583,,563549788270774,2.5,0,,,
Fix,GPS,22.5948490700,88.3618916300,-46.11395263671875,0.0,9.935046,,1731226795000,0.07071045,,563550778616920,2.5,0,,,
Fix,GPS,22.5948490800,88.3618916200,-46.112060546875,0.0,9.935046,,1731226796000,0.070710175,,563551791209367,2.5,0,,,
Fix,GPS,22.5948491000,88.3618916200,-46.110107421875,0.0,9.935046,,1731226797000,0.07070866,,563552784384939,2.5,0,,,
Fix,GPS,22.5948490900,88.3618916100,-46.1092529296875,0.0,9.935046,,1731226798000,0.07071191,,563553786224783,2.5,0,,,
Fix,GPS,22.5948490800,88.3618916000,-46.1083984375,0.0,9.935046,,1731226799000,0.07071134,,563554790022803,2.5,0,,,
Fix,GPS,22.5948491000,88.3618915800,-46.1058349609375,0.0,9.935046,,1731226800000,0.07071058,,563555781815511,2.5,0,,,
Fix,GPS,22.5948491100,88.3618915700,-46.102935791015625,0.0,9.935046,,1731226801000,0.07071041,,563556778249625,2.5,0,,,
Fix,GPS,22.5948491400,88.3618915500,-46.10015869140625,0.0,9.935046,,1731226802000,0.070709854,,563557784108584,2.5,0,,,
Fix,GPS,22.5948491600,88.3618915400,-46.096527099609375,0.0,9.935046,,1731226803000,0.07070561,,563558789145093,2.5,0,,,
Fix,GPS,22.5948491700,88.3618915300,-46.0947265625,0.0,9.935046,,1731226804000,0.070702426,,563559779343374,2.5,0,,,
Fix,GPS,22.5948491900,88.3618915100,-46.09222412109375,0.0,9.935046,,1731226805000,0.07071414,,563560782278425,2.5,0,,,
Fix,GPS,22.5948492100,88.3618915000,-46.090484619140625,0.0,9.935046,,1731226806000,0.070704296,,563561778419988,2.5,0,,,
Fix,GPS,22.5948492000,88.3618914900,-46.089874267578125,0.0,9.935046,,1731226807000,0.070705906,,563562783220873,2.5,0,,,
Fix,GPS,22.5948492200,88.3618914700,-46.0870361328125,0.0,9.935046,,1731226808000,0.070709966,,563563786142122,2.5,0,,,
Fix,GPS,22.5948492400,88.3618914500,-46.08428955078125,0.0,9.935046,,1731226809000,0.07070818,,563564787880664,2.5,0,,,
Fix,GPS,22.5948492600,88.3618914500,-46.0809326171875,0.0,9.935046,,1731226810000,0.07071111,,563565785737851,2.5,0,,,
Fix,GPS,22.5948492700,88.3618914200,-46.07958984375,0.0,9.935046,,1731226811000,0.07070437,,563566783735924,2.5,0,,,
Fix,GPS,22.5948492900,88.3618914100,-46.0765380859375,0.0,9.935046,,1731226812000,0.070704214,,563567779508944,2.5,0,,,
Fix,GPS,22.5948493100,88.3618914000,-46.074493408203125,0.0,9.935046,,1731226813000,0.07070426,,563568781844881,2.5,0,,,
Fix,GPS,22.5948493300,88.3618913800,-46.072113037109375,0.0,9.935046,,1731226814000,0.070704125,,563569780404724,2.5,0,,,
Fix,GPS,22.5948493400,88.3618913700,-46.07049560546875,0.0,9.935046,,1731226815000,0.070707455,,563570784400922,2.5,0,,,
Fix,GPS,22.5948493600,88.3618913500,-46.06793212890625,0.0,9.935046,,1731226816000,0.07070425,,563571785325661,2.5,0,,,
Fix,GPS,22.5948493600,88.3618913200,-46.064849853515625,0.0,9.935046,,1731226817000,0.07070552,,563572785925973,2.5,0,,,
Fix,GPS,22.5948493800,88.3618913100,-46.062652587890625,0.0,9.935046,,1731226818000,0.07070525,,563573791128317,2.5,0,,,
Fix,GPS,22.5948493900,88.3618912800,-46.06085205078125,0.0,9.935046,,1731226819000,0.07070438,,563574778097743,2.5,0,,,
Fix,GPS,22.5948494000,88.3618912700,-46.058197021484375,0.0,9.935046,,1731226820000,0.07071447,,563575781572482,2.5,0,,,
Fix,GPS,22.5948494100,88.3618912500,-46.054931640625,0.0,9.935046,,1731226821000,0.070705205,,563576778220920,2.5,0,,,
Fix,GPS,22.5948494100,88.3618912300,-46.05377197265625,0.0,9.935046,,1731226822000,0.0707071,,563577784089512,2.5,0,,,
Fix,GPS,22.5948494200,88.3618912200,-46.050872802734375,0.0,9.935046,,1731226823000,0.07070536,,563578788962272,2.5,0,,,
Fix,GPS,22.5948494300,88.3618912000,-46.049041748046875,0.0,9.935046,,1731226824000,0.07070307,,563579782956334,2.5,0,,,
Fix,GPS,22.5948494200,88.3618911900,-46.047637939453125,0.0,9.935046,,1731226825000,0.070714965,,563580786600501,2.5,0,,,
Fix,GPS,22.5948494300,88.3618911700,-46.044952392578125,0.0,9.935046,,1731226826000,0.07070414,,563581782524616,2.5,0,,,
Fix,GPS,22.5948494500,88.3618911600,-46.0419921875,0.0,9.935046,,1731226827000,0.070704006,,563582779813105,2.5,0,,,
Fix,GPS,22.5948494500,88.3618911400,-46.040496826171875,0.0,9.935046,,1731226828000,0.07070476,,563583778300917,2.5,0,,,
Fix,GPS,22.5948494600,88.3618911200,-46.03826904296875,0.0,9.935046,,1731226829000,0.07070764,,563584778680604,2.5,0,,,
Fix,GPS,22.5948494600,88.3618911100,-46.036163330078125,0.0,9.935046,,1731226830000,0.0707076,,563585786742895,2.5,0,,,
Fix,GPS,22.5948494800,88.3618910900,-46.03375244140625,0.0,9.935046,,1731226831000,0.07070762,,563586782430811,2.5,0,,,
Fix,GPS,22.5948494800,88.3618910800,-46.03240966796875,0.0,9.935046,,1731226832000,0.07070298,,563587787299040,2.5,0,,,
Fix,GPS,22.5948494900,88.3618910500,-46.029998779296875,0.0,9.935046,,1731226833000,0.070704155,,563588781472998,2.5,0,,,
Fix,GPS,22.5948495100,88.3618910400,-46.027801513671875,0.0,9.935046,,1731226834000,0.070703015,,563589790543206,2.5,0,,,
Fix,GPS,22.5948495100,88.3618910300,-46.02435302734375,0.0,9.935046,,1731226835000,0.0707107,,563590790968779,2.5,0,,,
Fix,GPS,22.5948495200,88.3618910000,-46.023162841796875,0.0,9.935046,,1731226836000,0.070703186,,563591780601175,2.5,0,,,
Fix,GPS,22.5948495300,88.3618909800,-46.0213623046875,0.0,9.935046,,1731226837000,0.0707052,,563592781678934,2.5,0,,,
Fix,GPS,22.5948495300,88.3618909600,-46.01898193359375,0.0,9.935046,,1731226838000,0.07070523,,563593782391381,2.5,0,,,
Fix,GPS,22.5948495500,88.3618909500,-46.01715087890625,0.0,9.935046,,1731226839000,0.070703015,,563594788833100,2.5,0,,,
Fix,GPS,22.5948495500,88.3618909200,-46.014617919921875,0.0,9.935046,,1731226840000,0.07070701,,563595781567371,2.5,0,,,
Fix,GPS,22.5948495600,88.3618909100,-46.012420654296875,0.0,9.935046,,1731226841000,0.07070363,,563596790949766,2.5,0,,,
Fix,GPS,22.5948495800,88.3618908800,-46.00994873046875,0.0,9.935046,,1731226842000,0.07070292,,563597787489192,2.5,0,,,
Fix,GPS,22.5948495600,88.3618908700,-46.0096435546875,0.0,9.935046,,1731226843000,0.07070517,,563598788175339,2.5,0,,,
Fix,GPS,22.5948495700,88.3618908600,-46.00787353515625,0.0,9.935046,,1731226844000,0.070702754,,563599788553775,2.5,0,,,
Fix,GPS,22.5948495700,88.3618908500,-46.00640869140625,0.0,9.935046,,1731226845000,0.070714965,,563600780384191,2.5,0,,,
Fix,GPS,22.5948495700,88.3618908200,-46.004241943359375,0.0,9.935046,,1731226846000,0.07070269,,563601778428305,2.5,0,,,
Fix,GPS,22.5948495700,88.3618908100,-46.001922607421875,0.0,9.935046,,1731226847000,0.07070275,,563602779968306,2.5,0,,,
Fix,GPS,22.5948495800,88.3618907900,-46.000274658203125,0.0,9.935046,,1731226848000,0.07070275,,563603778043149,2.5,0,,,
Fix,GPS,22.5948495900,88.3618907800,-45.998382568359375,0.0,9.935046,,1731226849000,0.0707029,,563604782174919,2.5,0,,,
Fix,GPS,22.5948496000,88.3618907700,-45.99664306640625,0.0,9.935046,,1731226850000,0.07070317,,563605783147158,2.5,0,,,
Fix,GPS,22.5948496000,88.3618907500,-45.9942626953125,0.0,9.935046,,1731226851000,0.07070512,,563606788273825,2.5,0,,,
Fix,GPS,22.5948496000,88.3618907300,-45.991912841796875,0.0,9.935046,,1731226852000,0.070704944,,563607781103772,2.5,0,,,
Fix,GPS,22.5948496000,88.3618907200,-45.98974609375,0.0,9.935046,,1731226853000,0.070702806,,563608781972990,2.5,0,,,
Fix,GPS,22.5948496000,88.3618907200,-45.989959716796875,0.0,9.935046,,1731226854000,0.07070585,,563609778431792,2.5,0,,,
Fix,GPS,22.5948495900,88.3618907200,-45.989776611328125,0.0,9.935046,,1731226855000,0.070711456,,563610788549135,2.5,0,,,
Fix,GPS,22.5948496000,88.3618907200,-45.987823486328125,0.0,9.935046,,1731226856000,0.07070723,,563611781398354,2.5,0,,,
Fix,GPS,22.5948496100,88.3618907000,-45.984771728515625,0.0,9.935046,,1731226857000,0.07071105,,563612779225593,2.5,0,,,
Fix,GPS,22.5948496100,88.3618906800,-45.982818603515625,0.0,9.935046,,1731226858000,0.07070529,,563613787542781,2.5,0,,,
Fix,GPS,22.5948496000,88.3618906800,-45.981414794921875,0.0,9.935046,,1731226859000,0.07070642,,563614780144082,2.5,0,,,
Fix,GPS,22.5948496000,88.3618906800,-45.9813232421875,0.0,9.935046,,1731226860000,0.07071274,,563615781818718,2.5,0,,,
Fix,GPS,22.5948496000,88.3618906700,-45.9805908203125,0.0,9.935046,,1731226861000,0.07071462,,563616784678352,2.5,0,,,
Fix,GPS,22.5948495900,88.3618906600,-45.98065185546875,0.0,9.935046,,1731226862000,0.07070429,,563617788668924,2.5,0,,,
Fix,GPS,22.5948495900,88.3618906400,-45.97918701171875,0.0,9.935046,,1731226863000,0.07070276,,563618789958404,2.5,0,,,
Fix,GPS,22.5948495900,88.3618906300,-45.977813720703125,0.0,9.935046,,1731226864000,0.070716955,,563619791207205,2.5,0,,,
Fix,GPS,22.5948495800,88.3618906100,-45.976409912109375,0.0,9.935046,,1731226865000,0.07071465,,563620790012517,2.5,0,,,
Fix,GPS,22.5948495700,88.3618906100,-45.97601318359375,0.0,9.935046,,1731226866000,0.07070375,,563621777895278,2.5,0,,,
Fix,GPS,22.5948495600,88.3618905900,-45.97515869140625,0.0,9.935046,,1731226867000,0.07070663,,563622782191891,2.5,0,,,
Fix,GPS,22.5948495600,88.3618905800,-45.97442626953125,0.0,9.935046,,1731226868000,0.070703976,,563623781949600,2.5,0,,,
Fix,GPS,22.5948495500,88.3618905700,-45.9732666015625,0.0,9.935046,,1731226869000,0.0707145,,563624781568505,2.5,0,,,
Fix,GPS,22.5948495400,88.3618905700,-45.971923828125,0.0,9.935046,,1731226870000,0.07070952,,563625784362620,2.5,0,,,
Fix,GPS,22.5948495400,88.3618905500,-45.969696044921875,0.0,9.935046,,1731226871000,0.07071332,,563626788712724,2.5,0,,,
Fix,GPS,22.5948495300,88.3618905400,-45.96820068359375,0.0,9.935046,,1731226872000,0.07071863,,563627779027150,2.5,0,,,
Fix,GPS,22.5948495300,88.3618905400,-45.965728759765625,0.0,9.935046,,1731226873000,0.07070961,,563628780247463,2.5,0,,,
Fix,GPS,22.5948495300,88.3618905300,-45.96417236328125,0.0,9.935046,,1731226874000,0.070714585,,563629781551055,2.5,0,,,
Fix,GPS,22.5948495100,88.3618905200,-45.96234130859375,0.0,9.935046,,1731226875000,0.0707147,,563630780758816,2.5,0,,,
Fix,GPS,22.5948495100,88.3618905300,-45.961944580078125,0.0,9.935046,,1731226876000,0.07071113,,563631786083711,2.5,0,,,
