Fix,GPS,22.5666407100,88.3620695400,-53.692901611328125,0.0,3.7900925,,1731488531000,0.086023256,,1123742720905787,2.5,0,,,
Fix,GPS,22.5666415600,88.3620680100,-53.267822265625,0.0,3.7900925,,1731488532000,0.086023256,,1123743720905787,2.5,0,,,
Fix,GPS,22.5666416200,88.3620674000,-53.08343505859375,0.0,3.7900925,,1731488533000,0.086023256,,1123744720905787,2.5,0,,,
Fix,GPS,22.5666403600,88.3620677300,-52.97222900390625,0.0,3.7900925,,1731488534000,0.086023256,,1123745720905787,2.5,0,,,
Fix,GPS,22.5666405100,88.3620661400,-52.5948486328125,0.0,3.7900925,,1731488535000,0.086023256,,1123746720905787,2.5,0,,,
Fix,GPS,22.5666410800,88.3620662600,-52.24041748046875,0.0,3.7900925,,1731488536000,0.086023256,,1123747720905787,2.5,0,,,
Fix,GPS,22.5666420400,88.3620658900,-52.1231689453125,0.0,3.7900925,,1731488537000,0.086023256,,1123748720905787,2.5,0,,,
Fix,GPS,22.5666413300,88.3620648300,-51.965057373046875,0.0,3.7900925,,1731488538000,0.086023256,,1123749720905787,2.5,0,,,
Fix,GPS,22.5666394000,88.3620641400,-52.15814208984375,0.0,3.7900925,,1731488539000,0.086023256,,1123750720905787,2.5,0,,,
Fix,GPS,22.5666391900,88.3620617300,-52.185302734375,0.0,3.7900925,,1731488540000,0.086023256,,1123751720905787,2.5,0,,,
Fix,GPS,22.5666385600,88.3620586700,-52.139007568359375,0.0,3.7900925,,1731488541000,0.086023256,,1123752720905787,2.5,0,,,
Fix,GPS,22.5666382500,88.3620559300,-51.811614990234375,0.0,3.7900925,,1731488542000,0.086023256,,1123753720905787,2.5,0,,,
Fix,GPS,22.5666389100,88.3620531100,-51.5340576171875,0.0,3.7900925,,1731488543000,0.086023256,,1123754720905787,2.5,0,,,
Fix,GPS,22.5666397200,88.3620525900,-51.55963134765625,0.0,3.7900925,,1731488544000,0.086023256,,1123755720905787,2.5,0,,,
Fix,GPS,22.5666407400,88.3620520600,-51.38232421875,0.0,3.7900925,,1731488545000,0.086023256,,1123756720905787,2.5,0,,,
Fix,GPS,22.5666421800,88.3620509300,-51.35540771484375,0.0,3.7900925,,1731488546000,0.086023256,,1123757720905787,2.5,0,,,
Fix,GPS,22.5666439000,88.3620481700,-51.4521484375,0.0,3.7900925,,1731488547000,0.086023256,,1123758720905787,2.5,0,,,
Fix,GPS,22.5666442000,88.3620473500,-51.144012451171875,0.0,3.7900925,,1731488548000,0.086023256,,1123759720905787,2.5,0,,,
Fix,GPS,22.5666444800,88.3620466800,-51.549407958984375,0.0,3.7900925,,1731488549000,0.086023256,,1123760720905787,2.5,0,,,
Fix,GPS,22.5666455000,88.3620457400,-51.3126220703125,0.0,3.7900925,,1731488550000,0.086023256,,1123761720905787,2.5,0,,,
Fix,GPS,22.5666459100,88.3620444400,-51.132080078125,0.0,3.7900925,,1731488551000,0.086023256,,1123762720905787,2.5,0,,,
Fix,GPS,22.5666436700,88.3620434100,-51.031982421875,0.0,3.7900925,,1731488552000,0.086023256,,1123763720905787,2.5,0,,,
Fix,GPS,22.5666424100,88.3620415200,-50.532196044921875,0.0,3.7900925,,1731488553000,0.086023256,,1123764720905787,2.5,0,,,
Fix,GPS,22.5666421000,88.3620382300,-50.5247802734375,0.0,3.7900925,,1731488554000,0.086023256,,1123765720905787,2.5,0,,,
Fix,GPS,22.5666416100,88.3620369400,-50.339019775390625,0.0,3.7900925,,1731488555000,0.086023256,,1123766720905787,2.5,0,,,
Fix,GPS,22.5666402400,88.3620343300,-50.83563232421875,0.0,3.7900925,,1731488556000,0.086023256,,1123767720905787,2.5,0,,,
Fix,GPS,22.5666397900,88.3620322300,-51.150665283203125,0.0,3.7900925,,1731488557000,0.086023256,,1123768720905787,2.5,0,,,
Fix,GPS,22.5666375000,88.3620306200,-51.14080810546875,0.0,3.7900925,,1731488558000,0.086023256,,1123769720905787,2.5,0,,,
Fix,GPS,22.5666364800,88.3620306600,-50.98321533203125,0.0,3.7900925,,1731488559000,0.086023256,,1123770720905787,2.5,0,,,
Fix,GPS,22.5666372800,88.3620291500,-51.054107666015625,0.0,3.7900925,,1731488560000,0.086023256,,1123771720905787,2.5,0,,,
Fix,GPS,22.5666383900,88.3620287800,-50.93414306640625,0.0,3.7900925,,1731488561000,0.086023256,,1123772720905787,2.5,0,,,
Fix,GPS,22.5666397000,88.3620288800,-51.073516845703125,0.0,9.935046,,1731488562000,0.086023256,,1123773720905787,2.5,0,,,
Fix,GPS,22.5666403100,88.3620295200,-51.080535888671875,0.0,9.935046,,1731488563000,0.086023256,,1123774720905787,2.5,0,,,
Fix,GPS,22.5666417000,88.3620316800,-50.99285888671875,0.0,9.935046,,1731488564000,0.086023256,,1123775720905787,2.5,0,,,
Fix,GPS,22.5666431500,88.3620354600,-50.79168701171875,0.0,9.935046,,1731488565000,0.086023256,,1123776720905787,2.5,0,,,
Fix,GPS,22.5666426000,88.3620384500,-50.72528076171875,0.0,9.935046,,1731488566000,0.086023256,,1123777720905787,2.5,0,,,
Fix,GPS,22.5666420500,88.3620420100,-50.529876708984375,0.0,9.935046,,1731488567000,0.086023256,,1123778720905787,2.5,0,,,
Fix,GPS,22.5666426100,88.3620448800,-50.60089111328125,0.0,9.935046,,1731488568000,0.086023256,,1123779720905787,2.5,0,,,
Fix,GPS,22.5666442900,88.3620457900,-50.898468017578125,0.0,9.935046,,1731488569000,0.086023256,,1123780720905787,2.5,0,,,
Fix,GPS,22.5666471100,88.3620448600,-51.14849853515625,0.0,9.935046,,1731488570000,0.086023256,,1123781720905787,2.5,0,,,
Fix,GPS,22.5666491400,88.3620450300,-51.035736083984375,0.0,9.935046,,1731488571000,0.086023256,,1123782720905787,2.5,0,,,
Fix,GPS,22.5666505600,88.3620442100,-51.225677490234375,0.0,9.935046,,1731488572000,0.086023256,,1123783720905787,2.5,0,,,
Fix,GPS,22.5666525000,88.3620440200,-51.708465576171875,0.0,9.935046,,1731488573000,0.086023256,,1123784720905787,2.5,0,,,
Fix,GPS,22.5666548500,88.3620432100,-52.24847412109375,0.0,9.935046,,1731488574000,0.086023256,,1123785720905787,2.5,0,,,
Fix,GPS,22.5666563100,88.3620438100,-52.5784912109375,0.0,9.935046,,1731488575000,0.086023256,,1123786720905787,2.5,0,,,
Fix,GPS,22.5666562000,88.3620439700,-52.9619140625,0.0,9.935046,,1731488576000,0.086023256,,1123787720905787,2.5,0,,,
Fix,GPS,22.5666561900,88.3620431900,-53.46356201171875,0.0,9.935046,,1731488577000,0.080622576,,1123788720905787,2.5,0,,,
Fix,GPS,22.5666573900,88.3620433700,-53.814208984375,0.0,9.935046,,1731488578000,0.080622576,,1123789720905787,2.5,0,,,
Fix,GPS,22.5666574700,88.3620424000,-54.4224853515625,0.0,9.935046,,1731488579000,0.086023256,,1123790720905787,2.5,0,,,
Fix,GPS,22.5666586700,88.3620418900,-54.527435302734375,0.0,9.935046,,1731488580000,0.086023256,,1123791720905787,2.5,0,,,
Fix,GPS,22.5666597300,88.3620414900,-54.8240966796875,0.0,9.935046,,1731488581000,0.086023256,,1123792720905787,2.5,0,,,
Fix,GPS,22.5666601200,88.3620405100,-54.779541015625,0.0,9.935046,,1731488582000,0.086023256,,1123793720905787,2.5,0,,,
Fix,GPS,22.5666587800,88.3620400500,-54.922119140625,0.0,9.935046,,1731488583000,0.086023256,,1123794720905787,2.5,0,,,
Fix,GPS,22.5666566400,88.3620400900,-54.859375,0.0,9.935046,,1731488584000,0.086023256,,1123795720905787,2.5,0,,,
Fix,GPS,22.5666555900,88.3620400500,-54.3702392578125,0.0,9.935046,,1731488585000,0.086023256,,1123796720905787,2.5,0,,,
Fix,GPS,22.5666562700,88.3620395400,-54.280609130859375,0.0,9.935046,,1731488586000,0.086023256,,1123797720905787,2.5,0,,,
Fix,GPS,22.5666551000,88.3620397200,-53.9976806640625,0.0,9.935046,,1731488587000,0.086023256,,1123798720905787,2.5,0,,,
Fix,GPS,22.5666526700,88.3620388600,-53.9351806640625,0.0,9.935046,,1731488588000,0.086023256,,1123799720905787,2.5,0,,,
Fix,GPS,22.5666507600,88.3620387900,-54.1787109375,0.0,9.935046,,1731488589000,0.086023256,,1123800720905787,2.5,0,,,
Fix,GPS,22.5666482000,88.3620378100,-53.9969482421875,0.0,9.935046,,1731488590000,0.086023256,,1123801720905787,2.5,0,,,
Fix,GPS,22.5666467700,88.3620371300,-53.82965087890625,0.0,9.935046,,1731488591000,0.086023256,,1123802720905787,2.5,0,,,
Fix,GPS,22.5666453200,88.3620368500,-53.825347900390625,0.0,9.935046,,1731488592000,0.086023256,,1123803720905787,2.5,0,,,
Fix,GPS,22.5666450600,88.3620380500,-53.49395751953125,0.0,9.935046,,1731488593000,0.086023256,,1123804720905787,2.5,0,,,
Fix,GPS,22.5666452700,88.3620399500,-53.75665283203125,0.0,9.935046,,1731488594000,0.086023256,,1123805720905787,2.5,0,,,
Fix,GPS,22.5666451800,88.3620398200,-53.732025146484375,0.0,9.935046,,1731488595000,0.086023256,,1123806720905787,2.5,0,,,
Fix,GPS,22.5666454600,88.3620381000,-54.207855224609375,0.0,9.935046,,1731488596000,0.086023256,,1123807720905787,2.5,0,,,
Fix,GPS,22.5666453000,88.3620371300,-54.48138427734375,0.0,9.935046,,1731488597000,0.086023256,,1123808720905787,2.5,0,,,
Fix,GPS,22.5666428400,88.3620380100,-54.34393310546875,0.0,9.935046,,1731488598000,0.086023256,,1123809720905787,2.5,0,,,
Fix,GPS,22.5666426300,88.3620391200,-54.36346435546875,0.0,9.935046,,1731488599000,0.086023256,,1123810720905787,2.5,0,,,
Fix,GPS,22.5666418600,88.3620386700,-54.46893310546875,0.0,9.935046,,1731488600000,0.086023256,,1123811720905787,2.5,0,,,
Fix,GPS,22.5666420400,88.3620383400,-54.483001708984375,0.0,9.935046,,1731488601000,0.086023256,,1123812720905787,2.5,0,,,
Fix,GPS,22.5666432600,88.3620391200,-54.659332275390625,0.0,9.935046,,1731488602000,0.086023256,,1123813720905787,2.5,0,,,
Fix,GPS,22.5666453300,88.3620398900,-54.4310302734375,0.0,9.935046,,1731488603000,0.086023256,,1123814720905787,2.5,0,,,
Fix,GPS,22.5666456100,88.3620403300,-54.400970458984375,0.0,9.935046,,1731488604000,0.086023256,,1123815720905787,2.5,0,,,
Fix,GPS,22.5666449400,88.3620403600,-54.6617431640625,0.0,9.935046,,1731488605000,0.086023256,,1123816720905787,2.5,0,,,
Fix,GPS,22.5666451500,88.3620414500,-54.530364990234375,0.0,9.935046,,1731488606000,0.086023256,,1123817720905787,2.5,0,,,
Fix,GPS,22.5666453900,88.3620419500,-54.57275390625,0.0,9.935046,,1731488607000,0.086023256,,1123818720905787,2.5,0,,,
Fix,GPS,22.5666451500,88.3620409500,-54.7581787109375,0.0,9.935046,,1731488608000,0.086023256,,1123819720905787,2.5,0,,,
Fix,GPS,22.5666461200,88.3620415200,-54.60968017578125,0.0,9.935046,,1731488609000,0.086023256,,1123820720905787,2.5,0,,,
Fix,GPS,22.5666468200,88.3620406500,-54.328521728515625,0.0,9.935046,,1731488610000,0.086023256,,1123821720905787,2.5,0,,,
Fix,GPS,22.5666467200,88.3620392000,-54.39959716796875,0.0,9.935046,,1731488611000,0.086023256,,1123822720905787,2.5,0,,,
Fix,GPS,22.5666494900,88.3620393200,-54.289764404296875,0.0,9.935046,,1731488612000,0.086023256,,1123823720905787,2.5,0,,,
Fix,GPS,22.5666512300,88.3620399500,-54.068450927734375,0.0,9.935046,,1731488613000,0.086023256,,1123824720905787,2.5,0,,,
Fix,GPS,22.5666525100,88.3620399200,-54.31927490234375,0.0,9.935046,,1731488614000,0.086023256,,1123825720905787,2.5,0,,,
Fix,GPS,22.5666529600,88.3620401800,-54.334014892578125,0.0,9.935046,,1731488615000,0.086023256,,1123826720905787,2.5,0,,,
Fix,GPS,22.5666537500,88.3620404900,-54.195343017578125,0.0,9.935046,,1731488616000,0.086023256,,1123827720905787,2.5,0,,,
Fix,GPS,22.5666537500,88.3620400700,-53.925933837890625,0.0,9.935046,,1731488617000,0.086023256,,1123828720905787,2.5,0,,,
Fix,GPS,22.5666524100,88.3620398000,-53.746490478515625,0.0,9.935046,,1731488618000,0.086023256,,1123829720905787,2.5,0,,,
Fix,GPS,22.5666520200,88.3620394900,-53.660003662109375,0.0,9.935046,,1731488619000,0.086023256,,1123830720905787,2.5,0,,,
Fix,GPS,22.5666518600,88.3620393100,-53.658843994140625,0.0,9.935046,,1731488620000,0.086023256,,1123831720905787,2.5,0,,,
Fix,GPS,22.5666517800,88.3620391900,-53.652099609375,0.0,9.935046,,1731488621000,0.086023256,,1123832720905787,2.5,0,,,
Fix,GPS,22.5666515500,88.3620399500,-53.686767578125,0.0,9.935046,,1731488622000,0.086023256,,1123833720905787,2.5,0,,,
Fix,GPS,22.5666514400,88.3620403200,-53.683135986328125,0.0,9.935046,,1731488623000,0.086023256,,1123834720905787,2.5,0,,,
Fix,GPS,22.5666514200,88.3620404800,-53.6754150390625,0.0,9.935046,,1731488624000,0.086023256,,1123835720905787,2.5,0,,,
Fix,GPS,22.5666514600,88.3620411600,-53.65032958984375,0.0,9.935046,,1731488625000,0.086023256,,1123836720905787,2.5,0,,,
Fix,GPS,22.5666514800,88.3620415200,-53.646331787109375,0.0,9.935046,,1731488626000,0.086023256,,1123837720905787,2.5,0,,,
Fix,GPS,22.5666515000,88.3620416800,-53.642547607421875,0.0,9.935046,,1731488627000,0.086023256,,1123838720905787,2.5,0,,,
Fix,GPS,22.5666515000,88.3620417600,-53.638427734375,0.0,9.935046,,1731488628000,0.086023256,,1123839720905787,2.5,0,,,
Fix,GPS,22.5666515300,88.3620417800,-53.641082763671875,0.0,9.935046,,1731488629000,0.086023256,,1123840720905787,2.5,0,,,
Fix,GPS,22.5666515600,88.3620417800,-53.64691162109375,0.0,9.935046,,1731488630000,0.086023256,,1123841720905787,2.5,0,,,
Fix,GPS,22.5666515700,88.3620417800,-53.6444091796875,0.0,9.935046,,1731488631000,0.086023256,,1123842720905787,2.5,0,,,
Fix,GPS,22.5666515900,88.3620417700,-53.648406982421875,0.0,9.935046,,1731488632000,0.086023256,,1123843720905787,2.5,0,,,
Fix,GPS,22.5666516100,88.3620417800,-53.65228271484375,0.0,9.935046,,1731488633000,0.086023256,,1123844720905787,2.5,0,,,
Fix,GPS,22.5666516400,88.3620417800,-53.654693603515625,0.0,9.935046,,1731488634000,0.086023256,,1123845720905787,2.5,0,,,
Fix,GPS,22.5666516700,88.3620417800,-53.65966796875,0.0,9.935046,,1731488635000,0.086023256,,1123846720905787,2.5,0,,,
Fix,GPS,22.5666517000,88.3620417800,-53.6651611328125,0.0,9.935046,,1731488636000,0.086023256,,1123847720905787,2.5,0,,,
Fix,GPS,22.5666517300,88.3620417800,-53.669586181640625,0.0,9.935046,,1731488637000,0.086023256,,1123848720905787,2.5,0,,,
Fix,GPS,22.5666517600,88.3620417900,-53.6751708984375,0.0,9.935046,,1731488638000,0.086023256,,1123849720905787,2.5,0,,,
Fix,GPS,22.5666517900,88.3620418000,-53.67626953125,0.0,9.935046,,1731488639000,0.086023256,,1123850720905787,2.5,0,,,
Fix,GPS,22.5666518100,88.3620418000,-53.67999267578125,0.0,9.935046,,1731488640000,0.086023256,,1123851720905787,2.5,0,,,
Fix,GPS,22.5666518400,88.3620418000,-53.68487548828125,0.0,9.935046,,1731488641000,0.086023256,,1123852720905787,2.5,0,,,
Fix,GPS,22.5666518600,88.3620418100,-53.687744140625,0.0,9.935046,,1731488642000,0.086023256,,1123853720905787,2.5,0,,,
Fix,GPS,22.5666518900,88.3620418000,-53.68505859375,0.0,9.935046,,1731488643000,0.086023256,,1123854720905787,2.5,0,,,
Fix,GPS,22.5666519200,88.3620418000,-53.687286376953125,0.0,9.935046,,1731488644000,0.086023256,,1123855720905787,2.5,0,,,
Fix,GPS,22.5666519400,88.3620418000,-53.689483642578125,0.0,9.935046,,1731488645000,0.086023256,,1123856720905787,2.5,0,,,
Fix,GPS,22.5666519500,88.3620418000,-53.691986083984375,0.0,9.935046,,1731488646000,0.086023256,,1123857720905787,2.5,0,,,
Fix,GPS,22.5666519900,88.3620417800,-53.691436767578125,0.0,9.935046,,1731488647000,0.086023256,,1123858720905787,2.5,0,,,
Fix,GPS,22.5666520500,88.3620417500,-53.691741943359375,0.0,9.935046,,1731488648000,0.086023256,,1123859720905787,2.5,0,,,
Fix,GPS,22.5666521000,88.3620417200,-53.692657470703125,0.0,9.935046,,1731488649000,0.086023256,,1123860720905787,2.5,0,,,
Fix,GPS,22.5666521400,88.3620416900,-53.6927490234375,0.0,9.935046,,1731488650000,0.086023256,,1123861720905787,2.5,0,,,
Fix,GPS,22.5666521700,88.3620416700,-53.69097900390625,0.0,9.935046,,1731488651000,0.086023256,,1123862720905787,2.5,0,,,
Fix,GPS,22.5666521900,88.3620416500,-53.693817138671875,0.0,9.935046,,1731488652000,0.086023256,,1123863720905787,2.5,0,,,
Fix,GPS,22.5666522200,88.3620416200,-53.694427490234375,0.0,9.935046,,1731488653000,0.086023256,,1123864720905787,2.5,0,,,
Fix,GPS,22.5666522500,88.3620415900,-53.6986083984375,0.0,9.935046,,1731488654000,0.086023256,,1123865720905787,2.5,0,,,
Fix,GPS,22.5666523900,88.3620420300,-53.6820068359375,0.0,9.935046,,1731488655000,0.086023256,,1123866720905787,2.5,0,,,
Fix,GPS,22.5666524800,88.3620422700,-53.679779052734375,0.0,9.935046,,1731488656000,0.086023256,,1123867720905787,2.5,0,,,
Fix,GPS,22.5666525400,88.3620424000,-53.678375244140625,0.0,9.935046,,1731488657000,0.086023256,,1123868720905787,2.5,0,,,
Fix,GPS,22.5666525700,88.3620424700,-53.6763916015625,0.0,9.935046,,1731488658000,0.086023256,,1123869720905787,2.5,0,,,
Fix,GPS,22.5666526100,88.3620425100,-53.67327880859375,0.0,9.935046,,1731488659000,0.086023256,,1123870720905787,2.5,0,,,
Fix,GPS,22.5666526300,88.3620425300,-53.672882080078125,0.0,9.935046,,1731488660000,0.086023256,,1123871720905787,2.5,0,,,
Fix,GPS,22.5666526400,88.3620425700,-53.673065185546875,0.0,9.935046,,1731488661000,0.086023256,,1123872720905787,2.5,0,,,
Fix,GPS,22.5666526500,88.3620425900,-53.672332763671875,0.0,9.935046,,1731488662000,0.086023256,,1123873720905787,2.5,0,,,
Fix,GPS,22.5666526400,88.3620425900,-53.673187255859375,0.0,9.935046,,1731488663000,0.086023256,,1123874720905787,2.5,0,,,
Fix,GPS,22.5666526400,88.3620425900,-53.673858642578125,0.0,9.935046,,1731488664000,0.086023256,,1123875720905787,2.5,0,,,
Fix,GPS,22.5666526500,88.3620425900,-53.672210693359375,0.0,9.935046,,1731488665000,0.086023256,,1123876720905787,2.5,0,,,
Fix,GPS,22.5666526600,88.3620425600,-53.6719970703125,0.0,9.935046,,1731488666000,0.086023256,,1123877720905787,2.5,0,,,
Fix,GPS,22.5666526800,88.3620425000,-53.670806884765625,0.0,9.935046,,1731488667000,0.086023256,,1123878720905787,2.5,0,,,
Fix,GPS,22.5666527100,88.3620424400,-53.66827392578125,0.0,9.935046,,1731488668000,0.086023256,,1123879720905787,2.5,0,,,
Fix,GPS,22.5666527400,88.3620424000,-53.670440673828125,0.0,9.935046,,1731488669000,0.086023256,,1123880720905787,2.5,0,,,
Fix,GPS,22.5666527700,88.3620423700,-53.67327880859375,0.0,9.935046,,1731488670000,0.086023256,,1123881720905787,2.5,0,,,
Fix,GPS,22.5666527800,88.3620423400,-53.675201416015625,0.0,9.935046,,1731488671000,0.086023256,,1123882720905787,2.5,0,,,
Fix,GPS,22.5666526100,88.3620430500,-53.721099853515625,0.0,9.935046,,1731488672000,0.086023256,,1123883720905787,2.5,0,,,
Fix,GPS,22.5666525300,88.3620433900,-53.7220458984375,0.0,9.935046,,1731488673000,0.086023256,,1123884720905787,2.5,0,,,
Fix,GPS,22.5666523000,88.3620440700,-53.75616455078125,0.0,9.935046,,1731488674000,0.086023256,,1123885720905787,2.5,0,,,
Fix,GPS,22.5666521900,88.3620444000,-53.7613525390625,0.0,9.935046,,1731488675000,0.086023256,,1123886720905787,2.5,0,,,
Fix,GPS,22.5666521300,88.3620445600,-53.76055908203125,0.0,9.935046,,1731488676000,0.086023256,,1123887720905787,2.5,0,,,
Fix,GPS,22.5666521300,88.3620446400,-53.76483154296875,0.0,9.935046,,1731488677000,0.1,,1123888720905787,2.5,0,,,
Fix,GPS,22.5666521300,88.3620446800,-53.768798828125,0.0,9.935046,,1731488678000,0.086023256,,1123889720905787,2.5,0,,,
Fix,GPS,22.5666521500,88.3620447000,-53.77093505859375,0.0,9.935046,,1731488679000,0.086023256,,1123890720905787,2.5,0,,,
Fix,GPS,22.5666521600,88.3620447100,-53.774688720703125,0.0,9.935046,,1731488680000,0.086023256,,1123891720905787,2.5,0,,,
Fix,GPS,22.5666521700,88.3620447200,-53.781463623046875,0.0,9.935046,,1731488681000,0.086023256,,1123892720905787,2.5,0,,,
Fix,GPS,22.5666522000,88.3620447200,-53.78759765625,0.0,9.935046,,1731488682000,0.086023256,,1123893720905787,2.5,0,,,
Fix,GPS,22.5666522300,88.3620447100,-53.7957763671875,0.0,9.935046,,1731488683000,0.086023256,,1123894720905787,2.5,0,,,
Fix,GPS,22.5666522600,88.3620446900,-53.797698974609375,0.0,9.935046,,1731488684000,0.086023256,,1123895720905787,2.5,0,,,
Fix,GPS,22.5666523800,88.3620451300,-53.781707763671875,0.0,9.935046,,1731488685000,0.086023256,,1123896720905787,2.5,0,,,
Fix,GPS,22.5666524600,88.3620453500,-53.78192138671875,0.0,9.935046,,1731488686000,0.086023256,,1123897720905787,2.5,0,,,
Fix,GPS,22.5666525200,88.3620454600,-53.789031982421875,0.0,9.935046,,1731488687000,0.22472206,,1123898720905787,2.5,0,,,
Fix,GPS,22.5666525700,88.3620455200,-53.79290771484375,0.0,9.935046,,1731488688000,0.086023256,,1123899720905787,2.5,0,,,
Fix,GPS,22.5666525900,88.3620455700,-53.791290283203125,0.0,9.935046,,1731488689000,0.086023256,,1123900720905787,2.5,0,,,
Fix,GPS,22.5666526200,88.3620456000,-53.7965087890625,0.0,9.935046,,1731488690000,0.086023256,,1123901720905787,2.5,0,,,
Fix,GPS,22.5666526500,88.3620456100,-53.800872802734375,0.0,9.935046,,1731488691000,0.086023256,,1123902720905787,2.5,0,,,
Fix,GPS,22.5666526900,88.3620456100,-53.806976318359375,0.0,9.935046,,1731488692000,0.086023256,,1123903720905787,2.5,0,,,
Fix,GPS,22.5666527300,88.3620456200,-53.811370849609375,0.0,9.935046,,1731488693000,0.086023256,,1123904720905787,2.5,0,,,
Fix,GPS,22.5666527600,88.3620456200,-53.81622314453125,0.0,9.935046,,1731488694000,0.086023256,,1123905720905787,2.5,0,,,
Fix,GPS,22.5666527900,88.3620456100,-53.82025146484375,0.0,9.935046,,1731488695000,0.086023256,,1123906720905787,2.5,0,,,
Fix,GPS,22.5666528200,88.3620456000,-53.824066162109375,0.0,9.935046,,1731488696000,0.086023256,,1123907720905787,2.5,0,,,
Fix,GPS,22.5666528300,88.3620455900,-53.829833984375,0.0,9.935046,,1731488697000,0.086023256,,1123908720905787,2.5,0,,,
Fix,GPS,22.5666528400,88.3620455800,-53.836334228515625,0.0,9.935046,,1731488698000,0.086023256,,1123909720905787,2.5,0,,,
Fix,GPS,22.5666528600,88.3620455700,-53.83929443359375,0.0,9.935046,,1731488699000,0.086023256,,1123910720905787,2.5,0,,,
Fix,GPS,22.5666528900,88.3620455700,-53.839141845703125,0.0,9.935046,,1731488700000,0.086023256,,1123911720905787,2.5,0,,,
Fix,GPS,22.5666529200,88.3620455400,-53.83819580078125,0.0,9.935046,,1731488701000,0.086023256,,1123912720905787,2.5,0,,,
Fix,GPS,22.5666529500,88.3620455300,-53.841461181640625,0.0,9.935046,,1731488702000,0.086023256,,1123913720905787,2.5,0,,,
Fix,GPS,22.5666529600,88.3620455200,-53.8414306640625,0.0,9.935046,,1731488703000,0.086023256,,1123914720905787,2.5,0,,,
Fix,GPS,22.5666529800,88.3620455000,-53.84405517578125,0.0,9.935046,,1731488704000,0.086023256,,1123915720905787,2.5,0,,,
Fix,GPS,22.5666530000,88.3620454900,-53.84552001953125,0.0,9.935046,,1731488705000,0.086023256,,1123916720905787,2.5,0,,,
Fix,GPS,22.5666530100,88.3620454900,-53.848602294921875,0.0,9.935046,,1731488706000,0.086023256,,1123917720905787,2.5,0,,,
Fix,GPS,22.5666530300,88.3620454800,-53.8504638671875,0.0,9.935046,,1731488707000,0.086023256,,1123918720905787,2.5,0,,,
Fix,GPS,22.5666530500,88.3620454700,-53.85577392578125,0.0,9.935046,,1731488708000,0.086023256,,1123919720905787,2.5,0,,,
Fix,GPS,22.5666530700,88.3620454700,-53.86077880859375,0.0,9.935046,,1731488709000,0.086023256,,1123920720905787,2.5,0,,,
Fix,GPS,22.5666531100,88.3620454500,-53.863189697265625,0.0,9.935046,,1731488710000,0.086023256,,1123921720905787,2.5,0,,,
Fix,GPS,22.5666531500,88.3620454500,-53.867279052734375,0.0,9.935046,,1731488711000,0.086023256,,1123922720905787,2.5,0,,,
Fix,GPS,22.5666532000,88.3620454400,-53.86883544921875,0.0,9.935046,,1731488712000,0.086023256,,1123923720905787,2.5,0,,,
Fix,GPS,22.5666532500,88.3620454200,-53.87274169921875,0.0,9.935046,,1731488713000,0.086023256,,1123924720905787,2.5,0,,,
Fix,GPS,22.5666533000,88.3620454200,-53.87847900390625,0.0,9.935046,,1731488714000,0.086023256,,1123925720905787,2.5,0,,,
Fix,GPS,22.5666534000,88.3620457800,-53.8704833984375,0.0,9.935046,,1731488715000,0.086023256,,1123926720905787,2.5,0,,,
Fix,GPS,22.5666534600,88.3620459700,-53.869598388671875,0.0,9.935046,,1731488716000,0.086023256,,1123927720905787,2.5,0,,,
Fix,GPS,22.5666535100,88.3620460800,-53.87237548828125,0.0,9.935046,,1731488717000,0.086023256,,1123928720905787,2.5,0,,,
Fix,GPS,22.5666535700,88.3620461400,-53.8773193359375,0.0,9.935046,,1731488718000,0.086023256,,1123929720905787,2.5,0,,,
Fix,GPS,22.5666536000,88.3620461700,-53.883697509765625,0.0,9.935046,,1731488719000,0.086023256,,1123930720905787,2.5,0,,,
Fix,GPS,22.5666536300,88.3620461800,-53.8896484375,0.0,9.935046,,1731488720000,0.086023256,,1123931720905787,2.5,0,,,
Fix,GPS,22.5666536700,88.3620462000,-53.890045166015625,0.0,9.935046,,1731488721000,0.086023256,,1123932720905787,2.5,0,,,
Fix,GPS,22.5666537100,88.3620462200,-53.890472412109375,0.0,9.935046,,1731488722000,0.086023256,,1123933720905787,2.5,0,,,
Fix,GPS,22.5666537500,88.3620462300,-53.89300537109375,0.0,9.935046,,1731488723000,0.086023256,,1123934720905787,2.5,0,,,
Fix,GPS,22.5666537900,88.3620462400,-53.8980712890625,0.0,9.935046,,1731488724000,0.086023256,,1123935720905787,2.5,0,,,
Fix,GPS,22.5666538200,88.3620462500,-53.900177001953125,0.0,9.935046,,1731488725000,0.086023256,,1123936720905787,2.5,0,,,
Fix,GPS,22.5666538300,88.3620462600,-53.90142822265625,0.0,9.935046,,1731488726000,0.086023256,,1123937720905787,2.5,0,,,
Fix,GPS,22.5666538500,88.3620462700,-53.90380859375,0.0,9.935046,,1731488727000,0.086023256,,1123938720905787,2.5,0,,,
Fix,GPS,22.5666538600,88.3620462700,-53.906646728515625,0.0,9.935046,,1731488728000,0.086023256,,1123939720905787,2.5,0,,,
Fix,GPS,22.5666538700,88.3620462700,-53.912200927734375,0.0,9.935046,,1731488729000,0.086023256,,1123940720905787,2.5,0,,,
Fix,GPS,22.5666538900,88.3620462700,-53.914642333984375,0.0,9.935046,,1731488730000,0.086023256,,1123941720905787,2.5,0,,,
Fix,GPS,22.5666538900,88.3620462800,-53.9150390625,0.0,9.935046,,1731488731000,0.086023256,,1123942720905787,2.5,0,,,
Fix,GPS,22.5666538900,88.3620462800,-53.916473388671875,0.0,9.935046,,1731488732000,0.086023256,,1123943720905787,2.5,0,,,
Fix,GPS,22.5666538900,88.3620462900,-53.918121337890625,0.0,9.935046,,1731488733000,0.086023256,,1123944720905787,2.5,0,,,
Fix,GPS,22.5666539000,88.3620463100,-53.919219970703125,0.0,9.935046,,1731488734000,0.086023256,,1123945720905787,2.5,0,,,
Fix,GPS,22.5666539000,88.3620463300,-53.918365478515625,0.0,9.935046,,1731488735000,0.086023256,,1123946720905787,2.5,0,,,
Fix,GPS,22.5666539200,88.3620463400,-53.921875,0.0,9.935046,,1731488736000,0.086023256,,1123947720905787,2.5,0,,,
Fix,GPS,22.5666539300,88.3620463500,-53.924896240234375,0.0,9.935046,,1731488737000,0.086023256,,1123948720905787,2.5,0,,,
Fix,GPS,22.5666539400,88.3620463600,-53.9267578125,0.0,9.935046,,1731488738000,0.086023256,,1123949720905787,2.5,0,,,
Fix,GPS,22.5666539500,88.3620463600,-53.929351806640625,0.0,9.935046,,1731488739000,0.086023256,,1123950720905787,2.5,0,,,
Fix,GPS,22.5666539600,88.3620463600,-53.933319091796875,0.0,9.935046,,1731488740000,0.086023256,,1123951720905787,2.5,0,,,
Fix,GPS,22.5666539800,88.3620463400,-53.934356689453125,0.0,9.935046,,1731488741000,0.086023256,,1123952720905787,2.5,0,,,
Fix,GPS,22.5666539900,88.3620463200,-53.935546875,0.0,9.935046,,1731488742000,0.086023256,,1123953720905787,2.5,0,,,
Fix,GPS,22.5666540000,88.3620463100,-53.937042236328125,0.0,9.935046,,1731488743000,0.086023256,,1123954720905787,2.5,0,,,
Fix,GPS,22.5666540200,88.3620463000,-53.94036865234375,0.0,9.935046,,1731488744000,0.086023256,,1123955720905787,2.5,0,,,
Fix,GPS,22.5666541800,88.3620466600,-53.92523193359375,0.0,9.935046,,1731488745000,0.086023256,,1123956720905787,2.5,0,,,
Fix,GPS,22.5666542800,88.3620468700,-53.925048828125,0.0,9.935046,,1731488746000,0.086023256,,1123957720905787,2.5,0,,,
Fix,GPS,22.5666543300,88.3620470000,-53.926422119140625,0.0,9.935046,,1731488747000,0.086023256,,1123958720905787,2.5,0,,,
Fix,GPS,22.5666543800,88.3620470600,-53.927734375,0.0,9.935046,,1731488748000,0.086023256,,1123959720905787,2.5,0,,,
Fix,GPS,22.5666544100,88.3620471000,-53.925445556640625,0.0,9.935046,,1731488749000,0.086023256,,1123960720905787,2.5,0,,,
Fix,GPS,22.5666544400,88.3620471300,-53.9268798828125,0.0,9.935046,,1731488750000,0.086023256,,1123961720905787,2.5,0,,,
Fix,GPS,22.5666544700,88.3620471400,-53.9290771484375,0.0,9.935046,,1731488751000,0.086023256,,1123962720905787,2.5,0,,,
Fix,GPS,22.5666544900,88.3620471500,-53.93115234375,0.0,9.935046,,1731488752000,0.086023256,,1123963720905787,2.5,0,,,
Fix,GPS,22.5666545000,88.3620471600,-53.931488037109375,0.0,9.935046,,1731488753000,0.086023256,,1123964720905787,2.5,0,,,
Fix,GPS,22.5666545200,88.3620471700,-53.932525634765625,0.0,9.935046,,1731488754000,0.086023256,,1123965720905787,2.5,0,,,
Fix,GPS,22.5666545300,88.3620471700,-53.934478759765625,0.0,9.935046,,1731488755000,0.086023256,,1123966720905787,2.5,0,,,
Fix,GPS,22.5666545400,88.3620471700,-53.934478759765625,0.0,9.935046,,1731488756000,0.086023256,,1123967720905787,2.5,0,,,
Fix,GPS,22.5666545500,88.3620471700,-53.9365234375,0.0,9.935046,,1731488757000,0.086023256,,1123968720905787,2.5,0,,,
Fix,GPS,22.5666545600,88.3620471600,-53.9375,0.0,9.935046,,1731488758000,0.086023256,,1123969720905787,2.5,0,,,
Fix,GPS,22.5666545700,88.3620471500,-53.93780517578125,0.0,9.935046,,1731488759000,0.086023256,,1123970720905787,2.5,0,,,
Fix,GPS,22.5666545700,88.3620471300,-53.941314697265625,0.0,9.935046,,1731488760000,0.086023256,,1123971720905787,2.5,0,,,
Fix,GPS,22.5666545800,88.3620471200,-53.94696044921875,0.0,9.935046,,1731488761000,0.086023256,,1123972720905787,2.5,0,,,
Fix,GPS,22.5666545900,88.3620471100,-53.948577880859375,0.0,9.935046,,1731488762000,0.086023256,,1123973720905787,2.5,0,,,
Fix,GPS,22.5666546100,88.3620470900,-53.948211669921875,0.0,9.935046,,1731488763000,0.086023256,,1123974720905787,2.5,0,,,
Fix,GPS,22.5666546200,88.3620470800,-53.95367431640625,0.0,9.935046,,1731488764000,0.086023256,,1123975720905787,2.5,0,,,
Fix,GPS,22.5666546500,88.3620470600,-53.95721435546875,0.0,9.935046,,1731488765000,0.086023256,,1123976720905787,2.5,0,,,
Fix,GPS,22.5666546800,88.3620470400,-53.96148681640625,0.0,9.935046,,1731488766000,0.086023256,,1123977720905787,2.5,0,,,
Fix,GPS,22.5666546900,88.3620470300,-53.96307373046875,0.0,9.935046,,1731488767000,0.086023256,,1123978720905787,2.5,0,,,
Fix,GPS,22.5666547000,88.3620470100,-53.967132568359375,0.0,9.935046,,1731488768000,0.086023256,,1123979720905787,2.5,0,,,
Fix,GPS,22.5666547200,88.3620470000,-53.969390869140625,0.0,9.935046,,1731488769000,0.086023256,,1123980720905787,2.5,0,,,
Fix,GPS,22.5666547400,88.3620469800,-53.973907470703125,0.0,9.935046,,1731488770000,0.086023256,,1123981720905787,2.5,0,,,
Fix,GPS,22.5666547400,88.3620469600,-53.9757080078125,0.0,9.935046,,1731488771000,0.086023256,,1123982720905787,2.5,0,,,
Fix,GPS,22.5666547500,88.3620469500,-53.97869873046875,0.0,9.935046,,1731488772000,0.086023256,,1123983720905787,2.5,0,,,
Fix,GPS,22.5666547700,88.3620469200,-53.97943115234375,0.0,9.935046,,1731488773000,0.086023256,,1123984720905787,2.5,0,,,
Fix,GPS,22.5666547900,88.3620469100,-53.980255126953125,0.0,9.935046,,1731488774000,0.086023256,,1123985720905787,2.5,0,,,
Fix,GPS,22.5666549200,88.3620472800,-53.979644775390625,0.0,9.935046,,1731488775000,0.086023256,,1123986720905787,2.5,0,,,
Fix,GPS,22.5666549900,88.3620474900,-53.978057861328125,0.0,9.935046,,1731488776000,0.086023256,,1123987720905787,2.5,0,,,
Fix,GPS,22.5666548300,88.3620481100,-54.015960693359375,0.0,9.935046,,1731488777000,0.086023256,,1123988720905787,2.5,0,,,
Fix,GPS,22.5666547700,88.3620484300,-54.020965576171875,0.0,9.935046,,1731488778000,0.086023256,,1123989720905787,2.5,0,,,
Fix,GPS,22.5666547600,88.3620485900,-54.025482177734375,0.0,9.935046,,1731488779000,0.086023256,,1123990720905787,2.5,0,,,
Fix,GPS,22.5666547700,88.3620486900,-54.02838134765625,0.0,9.935046,,1731488780000,0.086023256,,1123991720905787,2.5,0,,,
Fix,GPS,22.5666547900,88.3620487400,-54.032501220703125,0.0,9.935046,,1731488781000,0.086023256,,1123992720905787,2.5,0,,,
Fix,GPS,22.5666548200,88.3620487600,-54.03753662109375,0.0,9.935046,,1731488782000,0.086023256,,1123993720905787,2.5,0,,,
Fix,GPS,22.5666548500,88.3620487700,-54.040130615234375,0.0,9.935046,,1731488783000,0.086023256,,1123994720905787,2.5,0,,,
Fix,GPS,22.5666548600,88.3620487700,-54.043975830078125,0.0,9.935046,,1731488784000,0.086023256,,1123995720905787,2.5,0,,,
Fix,GPS,22.5666548700,88.3620487700,-54.046875,0.0,9.935046,,1731488785000,0.086023256,,1123996720905787,2.5,0,,,
Fix,GPS,22.5666548700,88.3620487800,-54.051300048828125,0.0,9.935046,,1731488786000,0.086023256,,1123997720905787,2.5,0,,,
Fix,GPS,22.5666548700,88.3620487700,-54.053375244140625,0.0,9.935046,,1731488787000,0.086023256,,1123998720905787,2.5,0,,,
Fix,GPS,22.5666542600,88.3620484800,-55.2305908203125,0.2,9.935046,280.4,1731488788000,0.83216584,45.530743,1123999720905787,2.5,0,,,
Fix,GPS,22.5666535400,88.3620468000,-55.30731201171875,0.0,9.935046,,1731488789000,0.086023256,,1124000720905787,2.5,0,,,
Fix,GPS,22.5666535100,88.3620471500,-55.401611328125,0.0,9.935046,,1731488790000,0.086023256,,1124001720905787,2.5,0,,,
Fix,GPS,22.5666528500,88.3620489500,-56.083953857421875,0.0,9.935046,,1731488791000,0.840595,,1124002720905787,2.5,0,,,
Fix,GPS,22.5666513200,88.3620497100,-56.666778564453125,0.2,9.935046,280.4,1731488792000,0.84905833,46.06532,1124003720905787,2.5,0,,,
Fix,GPS,22.5666505400,88.3620506400,-56.829559326171875,0.0,9.935046,,1731488793000,0.086023256,,1124004720905787,2.5,0,,,
Fix,GPS,22.5666494700,88.3620514800,-57.241302490234375,0.0,9.935046,,1731488794000,0.086023256,,1124005720905787,2.5,0,,,
Fix,GPS,22.5666474300,88.3620535300,-57.342437744140625,0.0,9.935046,,1731488795000,0.092195444,,1124006720905787,2.5,0,,,
Fix,GPS,22.5666481900,88.3620538000,-57.12548828125,0.0,9.935046,,1731488796000,0.086023256,,1124007720905787,2.5,0,,,
Fix,GPS,22.5666482800,88.3620565700,-57.431427001953125,0.0,9.935046,,1731488797000,0.086023256,,1124008720905787,2.5,0,,,
Fix,GPS,22.5666473300,88.3620622400,-57.7275390625,0.0,9.935046,,1731488798000,0.086023256,,1124009720905787,2.5,0,,,
Fix,GPS,22.5666463300,88.3620653800,-58.016693115234375,0.0,9.935046,,1731488799000,0.092195444,,1124010720905787,2.5,0,,,
Fix,GPS,22.5666456100,88.3620663500,-58.044464111328125,0.0,9.935046,,1731488800000,0.086023256,,1124011720905787,2.5,0,,,
Fix,GPS,22.5666448700,88.3620671800,-58.31988525390625,0.0,9.935046,,1731488801000,0.086023256,,1124012720905787,2.5,0,,,
Fix,GPS,22.5666445400,88.3620683500,-58.511260986328125,0.0,9.935046,,1731488802000,0.086023256,,1124013720905787,2.5,0,,,
Fix,GPS,22.5666439900,88.3620688600,-58.7310791015625,0.0,9.935046,,1731488803000,0.086023256,,1124014720905787,2.5,0,,,
Fix,GPS,22.5666436900,88.3620691900,-58.7969970703125,0.0,9.935046,,1731488804000,0.086023256,,1124015720905787,2.5,0,,,
Fix,GPS,22.5666435200,88.3620693900,-58.801116943359375,0.0,9.935046,,1731488805000,0.086023256,,1124016720905787,2.5,0,,,
Fix,GPS,22.5666434000,88.3620694700,-58.80633544921875,0.0,9.935046,,1731488806000,0.1640122,,1124017720905787,2.5,0,,,
Fix,GPS,22.5666433300,88.3620695600,-58.811065673828125,0.0,9.935046,,1731488807000,0.086023256,,1124018720905787,2.5,0,,,
Fix,GPS,22.5666432500,88.3620696200,-58.82501220703125,0.0,9.935046,,1731488808000,0.086023256,,1124019720905787,2.5,0,,,
Fix,GPS,22.5666431900,88.3620696600,-58.828857421875,0.0,9.935046,,1731488809000,0.09433981,,1124020720905787,2.5,0,,,
Fix,GPS,22.5666431600,88.3620696800,-58.830596923828125,0.0,9.935046,,1731488810000,0.086023256,,1124021720905787,2.5,0,,,
Fix,GPS,22.5666431200,88.3620697200,-58.83758544921875,0.0,9.935046,,1731488811000,0.086023256,,1124022720905787,2.5,0,,,
Fix,GPS,22.5666414900,88.3620690900,-59.480926513671875,0.24,9.935046,280.4,1731488812000,0.840595,52.753387,1124023720905787,2.5,0,,,
Fix,GPS,22.5666392100,88.3620678600,-60.1822509765625,0.0,9.935046,,1731488813000,0.1,,1124024720905787,2.5,0,,,
Fix,GPS,22.5666376300,88.3620700600,-61.174835205078125,0.32,9.935046,280.4,1731488814000,0.84905833,53.668354,1124025720905787,2.5,0,,,
Fix,GPS,22.5666376100,88.3620636800,-59.1112060546875,0.0,9.935046,,1731488815000,0.086023256,,1124026720905787,2.5,0,,,
Fix,GPS,22.5666381300,88.3620600200,-59.619140625,0.0,9.935046,,1731488816000,0.086023256,,1124027720905787,2.5,0,,,
Fix,GPS,22.5666378600,88.3620580700,-59.942138671875,0.0,9.935046,,1731488817000,0.086023256,,1124028720905787,2.5,0,,,
Fix,GPS,22.5666379900,88.3620544200,-59.89752197265625,0.0,9.935046,,1731488818000,0.086023256,,1124029720905787,2.5,0,,,
Fix,GPS,22.5666379100,88.3620500600,-59.807373046875,0.0,9.935046,,1731488819000,0.086023256,,1124030720905787,2.5,0,,,
Fix,GPS,22.5666373300,88.3620496900,-60.45111083984375,0.19,9.935046,280.4,1731488820000,0.840595,54.153618,1124031720905787,2.5,0,,,
Fix,GPS,22.5666375300,88.3620492200,-60.324737548828125,0.22,9.935046,280.4,1731488821000,0.82680106,54.3243,1124032720905787,2.5,0,,,
Fix,GPS,22.5666373200,88.3620455600,-60.34857177734375,0.0,9.935046,,1731488822000,0.09433981,,1124033720905787,2.5,0,,,
Fix,GPS,22.5666371200,88.3620429100,-60.42974853515625,0.0,9.935046,,1731488823000,0.086023256,,1124034720905787,2.5,0,,,
Fix,GPS,22.5666374100,88.3620407800,-60.038330078125,0.0,9.935046,,1731488824000,0.0781025,,1124035720905787,2.5,0,,,
Fix,GPS,22.5666360300,88.3620417400,-60.222625732421875,0.16,9.935046,280.4,1731488825000,0.840595,55.44769,1124036720905787,2.5,0,,,
Fix,GPS,22.5666349800,88.3620412000,-60.1600341796875,0.22,9.935046,280.4,1731488826000,0.84905833,55.692787,1124037720905787,2.5,0,,,
Fix,GPS,22.5666377400,88.3620390200,-60.14215087890625,0.0,9.935046,,1731488827000,0.086023256,,1124038720905787,2.5,0,,,
Fix,GPS,22.5666393300,88.3620403400,-60.10028076171875,0.0,9.935046,,1731488828000,0.086023256,,1124039720905787,2.5,0,,,
Fix,GPS,22.5666407100,88.3620390100,-59.493804931640625,0.0,9.935046,,1731488829000,0.1,,1124040720905787,2.5,0,,,
Fix,GPS,22.5666408400,88.3620385800,-59.611785888671875,0.0,9.935046,,1731488830000,0.086023256,,1124041720905787,2.5,0,,,
