Fix,GPS,22.5666895300,88.3621458800,-53.888031005859375,0.0,4.7996817,,1731489267000,0.23600848,,1124478713678831,6.5092306,0,,,
Fix,GPS,22.5667017200,88.3621382400,-54.81396484375,0.0,3.8968878,,1731489268000,0.086023256,,1124479718162580,5.100987,0,,,
Fix,GPS,22.5667053300,88.3621308100,-55.1060791015625,0.0,3.7900925,,1731489269000,0.086023256,,1124480716531226,4.616228,0,,,
Fix,GPS,22.5667086600,88.3621284800,-55.496307373046875,0.0,3.7900925,,1731489270000,0.086023256,,1124481716531226,3.9383368,0,,,
Fix,GPS,22.5667107600,88.3621281000,-55.51751708984375,0.0,3.7900925,,1731489271000,0.086023256,,1124482716531226,3.677311,0,,,
Fix,GPS,22.5667104900,88.3621262200,-54.9434814453125,0.0,3.7900925,,1731489272000,0.086023256,,1124483716531226,3.4348054,0,,,
Fix,GPS,22.5667118600,88.3621250700,-55.21429443359375,0.0,3.7900925,,1731489273000,0.086023256,,1124484716531226,3.533765,0,,,
Fix,GPS,22.5667093100,88.3621232900,-55.032928466796875,0.0,3.7900925,,1731489274000,0.086023256,,1124485716531226,3.557502,0,,,
Fix,GPS,22.5667102700,88.3621197200,-55.234466552734375,0.0,3.7900925,,1731489275000,0.086023256,,1124486716531226,3.6091034,0,,,
Fix,GPS,22.5667080600,88.3621178100,-55.04620361328125,0.0,3.7900925,,1731489276000,0.086023256,,1124487716531226,3.3001027,0,,,
Fix,GPS,22.5667080500,88.3621176900,-54.951507568359375,0.0,3.7900925,,1731489277000,0.086023256,,1124488716531226,3.44661,0,,,
Fix,GPS,22.5667060200,88.3621170100,-55.15240478515625,0.0,3.7900925,,1731489278000,0.086023256,,1124489716531226,3.581837,0,,,
Fix,GPS,22.5667066900,88.3621212600,-55.34478759765625,0.0,3.7900925,,1731489279000,0.086023256,,1124490716531226,3.6057758,0,,,
Fix,GPS,22.5667055000,88.3621175000,-55.60302734375,0.0,3.7900925,,1731489280000,0.086023256,,1124491716531226,3.2992873,0,,,
Fix,GPS,22.5667063400,88.3621161500,-55.859649658203125,0.0,3.7900925,,1731489281000,0.086023256,,1124492716531226,3.1635077,0,,,
Fix,GPS,22.5667090800,88.3621158800,-56.066619873046875,0.0,3.7900925,,1731489282000,0.086023256,,1124493716531226,3.0354996,0,,,
Fix,GPS,22.5667064000,88.3621165600,-55.8536376953125,0.0,3.7900925,,1731489283000,0.086023256,,1124494716531226,2.775543,0,,,
Fix,GPS,22.5667039800,88.3621156300,-56.060546875,0.0,3.7900925,,1731489284000,0.086023256,,1124495716531226,2.574875,0,,,
Fix,GPS,22.5667054700,88.3621158300,-56.33453369140625,0.0,3.7900925,,1731489285000,0.086023256,,1124496716531226,2.5,0,,,
Fix,GPS,22.5667075200,88.3621186000,-56.568115234375,0.0,3.7900925,,1731489286000,0.086023256,,1124497716531226,2.51029,0,,,
Fix,GPS,22.5667098100,88.3621182500,-56.789306640625,0.0,3.7900925,,1731489287000,0.086023256,,1124498716531226,2.5,0,,,
Fix,GPS,22.5667070400,88.3621191000,-56.6563720703125,0.0,3.7900925,,1731489288000,0.086023256,,1124499716531226,2.5,0,,,
Fix,GPS,22.5667059100,88.3621191600,-56.389617919921875,0.0,3.7900925,,1731489289000,0.086023256,,1124500716531226,2.5,0,,,
Fix,GPS,22.5667037500,88.3621177600,-56.42999267578125,0.0,3.7900925,,1731489290000,0.086023256,,1124501716531226,2.5,0,,,
Fix,GPS,22.5667047400,88.3621125300,-56.519775390625,0.0,3.7900925,,1731489291000,0.086023256,,1124502716531226,2.5,0,,,
Fix,GPS,22.5667060600,88.3621118400,-56.97540283203125,0.0,3.7900925,,1731489292000,0.086023256,,1124503716531226,2.5,0,,,
Fix,GPS,22.5667052200,88.3621096900,-56.614349365234375,0.0,3.7900925,,1731489293000,0.086023256,,1124504716531226,2.5,0,,,
Fix,GPS,22.5667063900,88.3621098100,-56.613311767578125,0.0,3.7900925,,1731489294000,0.086023256,,1124505716531226,2.5,0,,,
Fix,GPS,22.5667049400,88.3621081500,-56.497039794921875,0.0,3.7900925,,1731489295000,0.086023256,,1124506716531226,2.5,0,,,
Fix,GPS,22.5667036300,88.3621066700,-56.38714599609375,0.0,3.7900925,,1731489296000,0.086023256,,1124507716531226,2.5,0,,,
Fix,GPS,22.5667021600,88.3621108200,-56.26080322265625,0.0,3.7900925,,1731489297000,0.086023256,,1124508716531226,2.5,0,,,
Fix,GPS,22.5667026700,88.3621114100,-56.12432861328125,0.0,3.7900925,,1731489298000,0.086023256,,1124509716531226,2.5,0,,,
Fix,GPS,22.5667030500,88.3621101600,-56.5015869140625,0.0,3.7900925,,1731489299000,0.086023256,,1124510716531226,2.5,0,,,
Fix,GPS,22.5667011000,88.3621106100,-56.5963134765625,0.0,3.7900925,,1731489300000,0.086023256,,1124511716531226,2.5,0,,,
Fix,GPS,22.5667030900,88.3621118800,-56.52716064453125,0.0,3.7900925,,1731489301000,0.092195444,,1124512716531226,2.5,0,,,
Fix,GPS,22.5666995000,88.3621123100,-56.54388427734375,0.0,3.7900925,,1731489302000,0.086023256,,1124513716531226,2.5,0,,,
Fix,GPS,22.5667032300,88.3621134400,-56.43011474609375,0.0,3.7900925,,1731489303000,0.086023256,,1124514716531226,2.5,0,,,
Fix,GPS,22.5667009200,88.3621119600,-56.36993408203125,0.0,3.7900925,,1731489304000,0.086023256,,1124515716531226,2.5,0,,,
Fix,GPS,22.5667002500,88.3621126400,-56.700653076171875,0.0,3.7900925,,1731489305000,0.086023256,,1124516716531226,2.5,0,,,
Fix,GPS,22.5666990300,88.3621138300,-56.888824462890625,0.0,3.7900925,,1731489306000,0.086023256,,1124517716531226,2.5,0,,,
Fix,GPS,22.5666959600,88.3621139500,-57.031646728515625,0.0,3.7900925,,1731489307000,0.086023256,,1124518716531226,2.5,0,,,
Fix,GPS,22.5666958700,88.3621147400,-57.004486083984375,0.0,3.7900925,,1731489308000,0.086023256,,1124519716531226,2.5,0,,,
Fix,GPS,22.5666961000,88.3621152200,-57.044525146484375,0.0,3.7900925,,1731489309000,0.086023256,,1124520716531226,2.5,0,,,
Fix,GPS,22.5666989000,88.3621153800,-56.87115478515625,0.0,3.7900925,,1731489310000,0.086023256,,1124521716531226,2.5,0,,,
Fix,GPS,22.5666979300,88.3621125500,-56.84918212890625,0.0,3.7900925,,1731489311000,0.086023256,,1124522716531226,2.5,0,,,
Fix,GPS,22.5666987800,88.3621129700,-56.85076904296875,0.0,3.7900925,,1731489312000,0.086023256,,1124523716531226,2.5,0,,,
Fix,GPS,22.5667003000,88.3621129900,-56.944427490234375,0.0,3.7900925,,1731489313000,0.086023256,,1124524716531226,2.5,0,,,
Fix,GPS,22.5667032500,88.3621134700,-56.654571533203125,0.0,3.7900925,,1731489314000,0.086023256,,1124525716531226,2.5,0,,,
Fix,GPS,22.5667037200,88.3621161900,-56.750396728515625,0.0,3.7900925,,1731489315000,0.086023256,,1124526716531226,2.5,0,,,
Fix,GPS,22.5667036300,88.3621175500,-56.57476806640625,0.0,3.7900925,,1731489316000,0.086023256,,1124527716531226,2.5,0,,,
Fix,GPS,22.5667040500,88.3621180100,-56.534515380859375,0.0,3.7900925,,1731489317000,0.086023256,,1124528716531226,2.5,0,,,
Fix,GPS,22.5667033200,88.3621193100,-56.488037109375,0.0,3.7900925,,1731489318000,0.086023256,,1124529716531226,2.5,0,,,
Fix,GPS,22.5667044800,88.3621160800,-56.90692138671875,0.0,3.7900925,,1731489319000,0.086023256,,1124530716531226,2.5,0,,,
Fix,GPS,22.5667046600,88.3621187000,-56.9913330078125,0.0,3.7900925,,1731489320000,0.086023256,,1124531716531226,2.5,0,,,
Fix,GPS,22.5667043000,88.3621194500,-57.107330322265625,0.0,3.7900925,,1731489321000,0.086023256,,1124532716531226,2.5,0,,,
Fix,GPS,22.5667044000,88.3621204400,-57.079254150390625,0.0,3.7900925,,1731489322000,0.086023256,,1124533716531226,2.5,0,,,
Fix,GPS,22.5667041400,88.3621209800,-57.03192138671875,0.0,3.7900925,,1731489323000,0.086023256,,1124534716531226,2.5,0,,,
Fix,GPS,22.5667026600,88.3621186800,-57.253265380859375,0.0,3.7900925,,1731489324000,0.086023256,,1124535716531226,2.5,0,,,
Fix,GPS,22.5667044900,88.3621149600,-57.266357421875,0.0,3.7900925,,1731489325000,0.086023256,,1124536716531226,2.5,0,,,
Fix,GPS,22.5667058700,88.3621156700,-57.36859130859375,0.0,3.7900925,,1731489326000,0.086023256,,1124537716531226,2.5,0,,,
Fix,GPS,22.5667075800,88.3621131800,-57.628662109375,0.0,9.935046,,1731489327000,0.086023256,,1124538716531226,2.5,0,,,
Fix,GPS,22.5667074300,88.3621135800,-57.632293701171875,0.0,9.935046,,1731489328000,0.086023256,,1124539716531226,2.5,0,,,
Fix,GPS,22.5667047700,88.3621128200,-57.810821533203125,0.0,9.935046,,1731489329000,0.086023256,,1124540716531226,2.5,0,,,
Fix,GPS,22.5667060300,88.3621120700,-58.100128173828125,0.0,9.935046,,1731489330000,0.086023256,,1124541716531226,2.5,0,,,
Fix,GPS,22.5667043200,88.3621102300,-58.082061767578125,0.0,9.935046,,1731489331000,0.086023256,,1124542716531226,2.5,0,,,
Fix,GPS,22.5667062600,88.3621115700,-57.935211181640625,0.0,9.935046,,1731489332000,0.086023256,,1124543716531226,2.5,0,,,
Fix,GPS,22.5667072000,88.3621138900,-57.992034912109375,0.0,9.935046,,1731489333000,0.086023256,,1124544716531226,2.5,0,,,
Fix,GPS,22.5667072700,88.3621157500,-57.9554443359375,0.0,9.935046,,1731489334000,0.086023256,,1124545716531226,2.5,0,,,
Fix,GPS,22.5667053900,88.3621151300,-58.027984619140625,0.0,9.935046,,1731489335000,0.086023256,,1124546716531226,2.5,0,,,
Fix,GPS,22.5667046700,88.3621173800,-58.6329345703125,0.41,9.935046,108.7,1731489336000,0.90443355,73.95251,1124547716531226,2.5,0,,,
Fix,GPS,22.5667054500,88.3621201600,-58.747344970703125,0.0,9.935046,,1731489337000,0.15811388,,1124548716531226,2.5,0,,,
Fix,GPS,22.5667036100,88.3621187700,-58.459869384765625,0.0,9.935046,,1731489338000,0.086023256,,1124549716531226,2.5,0,,,
Fix,GPS,22.5667013400,88.3621189500,-58.46539306640625,0.0,9.935046,,1731489339000,0.086023256,,1124550716531226,2.5,0,,,
Fix,GPS,22.5667046400,88.3621198900,-58.65374755859375,0.0,9.935046,,1731489340000,0.086023256,,1124551716531226,2.5,0,,,
Fix,GPS,22.5667059200,88.3621190800,-58.0902099609375,0.0,9.935046,,1731489341000,0.086023256,,1124552716531226,2.5,0,,,
Fix,GPS,22.5667044600,88.3621173100,-58.184356689453125,0.0,9.935046,,1731489342000,0.086023256,,1124553716531226,2.5,0,,,
Fix,GPS,22.5667035700,88.3621173800,-58.265716552734375,0.0,9.935046,,1731489343000,0.086023256,,1124554716531226,2.5,0,,,
Fix,GPS,22.5667026300,88.3621191000,-58.4849853515625,0.0,9.935046,,1731489344000,0.086023256,,1124555716531226,2.5,0,,,
Fix,GPS,22.5667011700,88.3621198000,-58.439483642578125,0.0,9.935046,,1731489345000,0.086023256,,1124556716531226,2.5,0,,,
Fix,GPS,22.5667009500,88.3621194400,-58.588409423828125,0.0,9.935046,,1731489346000,0.086023256,,1124557716531226,2.5,0,,,
Fix,GPS,22.5667020900,88.3621218400,-58.44366455078125,0.0,9.935046,,1731489347000,0.086023256,,1124558716531226,2.5,0,,,
Fix,GPS,22.5667070900,88.3621233600,-58.497039794921875,0.0,9.935046,,1731489348000,0.086023256,,1124559716531226,2.5,0,,,
Fix,GPS,22.5667046300,88.3621237600,-58.43011474609375,0.0,9.935046,,1731489349000,0.086023256,,1124560716531226,2.5,0,,,
Fix,GPS,22.5667065700,88.3621277600,-58.630889892578125,0.0,9.935046,,1731489350000,0.086023256,,1124561716531226,2.5,0,,,
Fix,GPS,22.5667048500,88.3621271000,-58.680419921875,0.0,9.935046,,1731489351000,0.086023256,,1124562716531226,2.5,0,,,
Fix,GPS,22.5667064600,88.3621263800,-58.533447265625,0.0,9.935046,,1731489352000,0.086023256,,1124563716531226,2.5,0,,,
Fix,GPS,22.5667056700,88.3621238100,-58.69866943359375,0.0,9.935046,,1731489353000,0.086023256,,1124564716531226,2.5,0,,,
Fix,GPS,22.5667086600,88.3621258100,-58.472442626953125,0.0,9.935046,,1731489354000,0.086023256,,1124565716531226,2.5,0,,,
Fix,GPS,22.5667072700,88.3621280500,-58.576171875,0.0,9.935046,,1731489355000,0.086023256,,1124566716531226,2.5,0,,,
Fix,GPS,22.5667072300,88.3621300400,-58.773101806640625,0.0,9.935046,,1731489356000,0.086023256,,1124567716531226,2.5,0,,,
Fix,GPS,22.5667068100,88.3621259300,-58.8692626953125,0.0,9.935046,,1731489357000,0.086023256,,1124568716531226,2.5,0,,,
Fix,GPS,22.5667079200,88.3621284700,-58.833465576171875,0.0,9.935046,,1731489358000,0.086023256,,1124569716531226,2.5,0,,,
Fix,GPS,22.5667074100,88.3621303800,-58.73211669921875,0.0,9.935046,,1731489359000,0.086023256,,1124570716531226,2.5,0,,,
Fix,GPS,22.5667060800,88.3621310200,-58.731658935546875,0.0,9.935046,,1731489360000,0.086023256,,1124571716531226,2.5,0,,,
Fix,GPS,22.5667054800,88.3621280300,-58.878326416015625,0.0,9.935046,,1731489361000,0.086023256,,1124572716531226,2.5,0,,,
Fix,GPS,22.5667028400,88.3621293100,-58.75421142578125,0.0,9.935046,,1731489362000,0.086023256,,1124573716531226,2.5,0,,,
Fix,GPS,22.5667012400,88.3621292400,-58.95306396484375,0.0,9.935046,,1731489363000,0.086023256,,1124574716531226,2.5,0,,,
Fix,GPS,22.5666997400,88.3621266500,-59.287811279296875,0.0,9.935046,,1731489364000,0.086023256,,1124575716531226,2.5,0,,,
Fix,GPS,22.5666998900,88.3621221500,-59.3402099609375,0.0,9.935046,,1731489365000,0.086023256,,1124576716531226,2.5,0,,,
Fix,GPS,22.5666999800,88.3621231600,-59.385498046875,0.0,9.935046,,1731489366000,0.086023256,,1124577716531226,2.5,0,,,
Fix,GPS,22.5667012800,88.3621212200,-59.19482421875,0.0,9.935046,,1731489367000,0.086023256,,1124578716531226,2.5,0,,,
Fix,GPS,22.5667023300,88.3621216400,-59.3292236328125,0.0,9.935046,,1731489368000,0.086023256,,1124579716531226,2.5,0,,,
Fix,GPS,22.5667027900,88.3621193400,-59.36859130859375,0.0,9.935046,,1731489369000,0.086023256,,1124580716531226,2.5,0,,,
Fix,GPS,22.5667034200,88.3621188000,-59.435272216796875,0.0,9.935046,,1731489370000,0.086023256,,1124581716531226,2.5,0,,,
Fix,GPS,22.5667045000,88.3621191500,-59.113372802734375,0.0,9.935046,,1731489371000,0.086023256,,1124582716531226,2.5,0,,,
Fix,GPS,22.5667039900,88.3621178900,-59.102325439453125,0.0,9.935046,,1731489372000,0.086023256,,1124583716531226,2.5,0,,,
Fix,GPS,22.5667031700,88.3621169200,-59.165557861328125,0.0,9.935046,,1731489373000,0.086023256,,1124584716531226,2.5,0,,,
Fix,GPS,22.5667018800,88.3621160400,-59.385162353515625,0.0,9.935046,,1731489374000,0.086023256,,1124585716531226,2.5,0,,,
Fix,GPS,22.5667005400,88.3621154600,-59.402740478515625,0.0,9.935046,,1731489375000,0.086023256,,1124586716531226,2.5,0,,,
Fix,GPS,22.5667019500,88.3621179900,-59.37933349609375,0.0,9.935046,,1731489376000,0.086023256,,1124587716531226,2.5,0,,,
Fix,GPS,22.5667018300,88.3621216500,-59.349151611328125,0.0,9.935046,,1731489377000,0.086023256,,1124588716531226,2.5,0,,,
Fix,GPS,22.5667003800,88.3621191200,-59.30230712890625,0.0,9.935046,,1731489378000,0.086023256,,1124589716531226,2.5,0,,,
Fix,GPS,22.5667007000,88.3621227900,-59.15484619140625,0.0,9.935046,,1731489379000,0.086023256,,1124590716531226,2.5,0,,,
Fix,GPS,22.5667015600,88.3621223500,-59.2589111328125,0.0,9.935046,,1731489380000,0.086023256,,1124591716531226,2.5,0,,,
Fix,GPS,22.5667003300,88.3621199400,-59.394195556640625,0.0,9.935046,,1731489381000,0.086023256,,1124592716531226,2.5,0,,,
Fix,GPS,22.5666982900,88.3621217400,-58.990386962890625,0.0,9.935046,,1731489382000,0.086023256,,1124593716531226,2.5,0,,,
Fix,GPS,22.5666968000,88.3621209300,-59.15863037109375,0.0,9.935046,,1731489383000,0.086023256,,1124594716531226,2.5,0,,,
Fix,GPS,22.5666968100,88.3621208400,-59.15496826171875,0.0,9.935046,,1731489384000,0.086023256,,1124595716531226,2.5,0,,,
Fix,GPS,22.5666967900,88.3621208200,-59.150909423828125,0.0,9.935046,,1731489385000,0.086023256,,1124596716531226,2.5,0,,,
Fix,GPS,22.5666967900,88.3621210700,-59.171478271484375,0.0,9.935046,,1731489386000,0.086023256,,1124597716531226,2.5,0,,,
Fix,GPS,22.5666967800,88.3621210800,-59.17047119140625,0.0,9.935046,,1731489387000,0.086023256,,1124598716531226,2.5,0,,,
Fix,GPS,22.5666968000,88.3621210900,-59.169189453125,0.0,9.935046,,1731489388000,0.086023256,,1124599716531226,2.5,0,,,
Fix,GPS,22.5666967300,88.3621210100,-59.163848876953125,0.0,9.935046,,1731489389000,0.086023256,,1124600716531226,2.5,0,,,
Fix,GPS,22.5666967200,88.3621210600,-59.16229248046875,0.0,9.935046,,1731489390000,0.086023256,,1124601716531226,2.5,0,,,
Fix,GPS,22.5666967300,88.3621210900,-59.162811279296875,0.0,9.935046,,1731489391000,0.086023256,,1124602716531226,2.5,0,,,
Fix,GPS,22.5666966700,88.3621208600,-59.15142822265625,0.0,9.935046,,1731489392000,0.086023256,,1124603716531226,2.5,0,,,
Fix,GPS,22.5666966600,88.3621208500,-59.150146484375,0.0,9.935046,,1731489393000,0.086023256,,1124604716531226,2.5,0,,,
Fix,GPS,22.5666966300,88.3621207600,-59.1328125,0.0,9.935046,,1731489394000,0.086023256,,1124605716531226,2.5,0,,,
Fix,GPS,22.5666965900,88.3621207700,-59.13763427734375,0.0,9.935046,,1731489395000,0.086023256,,1124606716531226,2.5,0,,,
Fix,GPS,22.5666964900,88.3621206300,-59.1275634765625,0.0,9.935046,,1731489396000,0.086023256,,1124607716531226,2.5,0,,,
Fix,GPS,22.5666965200,88.3621206500,-59.1287841796875,0.0,9.935046,,1731489397000,0.086023256,,1124608716531226,2.5,0,,,
Fix,GPS,22.5666965400,88.3621207300,-59.1302490234375,0.0,9.935046,,1731489398000,0.086023256,,1124609716531226,2.5,0,,,
Fix,GPS,22.5666965200,88.3621207800,-59.12762451171875,0.0,9.935046,,1731489399000,0.086023256,,1124610716531226,2.5,0,,,
Fix,GPS,22.5666964900,88.3621208100,-59.12286376953125,0.0,9.935046,,1731489400000,0.086023256,,1124611716531226,2.5,0,,,
Fix,GPS,22.5666964800,88.3621208000,-59.121124267578125,0.0,9.935046,,1731489401000,0.086023256,,1124612716531226,2.5,0,,,
Fix,GPS,22.5666964100,88.3621207900,-59.118682861328125,0.0,9.935046,,1731489402000,0.086023256,,1124613716531226,2.5,0,,,
Fix,GPS,22.5666963900,88.3621208000,-59.115509033203125,0.0,9.935046,,1731489403000,0.086023256,,1124614716531226,2.5,0,,,
Fix,GPS,22.5666963400,88.3621207600,-59.108917236328125,0.0,9.935046,,1731489404000,0.086023256,,1124615716531226,2.5,0,,,
Fix,GPS,22.5666963600,88.3621207700,-59.105194091796875,0.0,9.935046,,1731489405000,0.086023256,,1124616716531226,2.5,0,,,
Fix,GPS,22.5666963200,88.3621208000,-59.10394287109375,0.0,9.935046,,1731489406000,0.092195444,,1124617716531226,2.5,0,,,
Fix,GPS,22.5666963100,88.3621207900,-59.1025390625,0.0,9.935046,,1731489407000,0.092195444,,1124618716531226,2.5,0,,,
Fix,GPS,22.5666963100,88.3621207900,-59.102752685546875,0.0,9.935046,,1731489408000,0.086023256,,1124619716531226,2.5,0,,,
Fix,GPS,22.5666963000,88.3621207900,-59.10302734375,0.0,9.935046,,1731489409000,0.086023256,,1124620716531226,2.5,0,,,
Fix,GPS,22.5666962900,88.3621207800,-59.102996826171875,0.0,9.935046,,1731489410000,0.1,,1124621716531226,2.5,0,,,
Fix,GPS,22.5666962900,88.3621207900,-59.10211181640625,0.0,9.935046,,1731489411000,0.12041595,,1124622716531226,2.5,0,,,
Fix,GPS,22.5666952700,88.3621213100,-59.098297119140625,0.0,9.935046,,1731489412000,0.27586228,,1124623716531226,2.5,0,,,
Fix,GPS,22.5666952700,88.3621213100,-59.097259521484375,0.0,9.935046,,1731489413000,0.114017546,,1124624716531226,2.5,0,,,
Fix,GPS,22.5666952900,88.3621213300,-59.0955810546875,0.0,9.935046,,1731489414000,0.10630146,,1124625716531226,2.5,0,,,
Fix,GPS,22.5666952700,88.3621213400,-59.093719482421875,0.0,9.935046,,1731489415000,0.10630146,,1124626716531226,2.5,0,,,
Fix,GPS,22.5666952200,88.3621212400,-59.094512939453125,0.0,9.935046,,1731489416000,0.10630146,,1124627716531226,2.5,0,,,
Fix,GPS,22.5666952900,88.3621214200,-59.08612060546875,0.0,9.935046,,1731489417000,0.086023256,,1124628716531226,2.5,0,,,
Fix,GPS,22.5666952100,88.3621213200,-59.07745361328125,0.0,9.935046,,1731489418000,0.086023256,,1124629716531226,2.5,0,,,
Fix,GPS,22.5666951200,88.3621213000,-59.07672119140625,0.0,9.935046,,1731489419000,0.092195444,,1124630716531226,2.5,0,,,
Fix,GPS,22.5666951500,88.3621213500,-59.067230224609375,0.0,9.935046,,1731489420000,0.092195444,,1124631716531226,2.5,0,,,
Fix,GPS,22.5666951500,88.3621213500,-59.06512451171875,0.0,9.935046,,1731489421000,0.086023256,,1124632716531226,2.5,0,,,
Fix,GPS,22.5666951200,88.3621213800,-59.062591552734375,0.0,9.935046,,1731489422000,0.092195444,,1124633716531226,2.5,0,,,
Fix,GPS,22.5666951100,88.3621214000,-59.0611572265625,0.0,9.935046,,1731489423000,0.092195444,,1124634716531226,2.5,0,,,
Fix,GPS,22.5666950900,88.3621213500,-59.062774658203125,0.0,9.935046,,1731489424000,0.086023256,,1124635716531226,2.5,0,,,
Fix,GPS,22.5666951100,88.3621213200,-59.05902099609375,0.0,9.935046,,1731489425000,0.086023256,,1124636716531226,2.5,0,,,
Fix,GPS,22.5666951000,88.3621213000,-59.056793212890625,0.0,9.935046,,1731489426000,0.086023256,,1124637716531226,2.5,0,,,
Fix,GPS,22.5666951000,88.3621213200,-59.05242919921875,0.0,9.935046,,1731489427000,0.086023256,,1124638716531226,2.5,0,,,
Fix,GPS,22.5666951000,88.3621213400,-59.05291748046875,0.0,9.935046,,1731489428000,0.092195444,,1124639716531226,2.5,0,,,
Fix,GPS,22.5666950600,88.3621213000,-59.045074462890625,0.0,9.935046,,1731489429000,0.09899495,,1124640716531226,2.5,0,,,
Fix,GPS,22.5666952500,88.3621212200,-59.014923095703125,0.0,9.935046,,1731489430000,0.086023256,,1124641716531226,2.5,0,,,
Fix,GPS,22.5666953000,88.3621212700,-59.020172119140625,0.0,9.935046,,1731489431000,0.086023256,,1124642716531226,2.5,0,,,
Fix,GPS,22.5666953000,88.3621212800,-59.0186767578125,0.0,9.935046,,1731489432000,0.086023256,,1124643716531226,2.5,0,,,
Fix,GPS,22.5666953000,88.3621212400,-59.013946533203125,0.0,9.935046,,1731489433000,0.086023256,,1124644716531226,2.5,0,,,
Fix,GPS,22.5666952700,88.3621212000,-59.012115478515625,0.0,9.935046,,1731489434000,0.086023256,,1124645716531226,2.5,0,,,
Fix,GPS,22.5666952500,88.3621212100,-59.00732421875,0.0,9.935046,,1731489435000,0.086023256,,1124646716531226,2.5,0,,,
Fix,GPS,22.5666952400,88.3621211600,-58.99859619140625,0.0,9.935046,,1731489436000,0.086023256,,1124647716531226,2.5,0,,,
Fix,GPS,22.5666952100,88.3621211100,-58.98876953125,0.0,9.935046,,1731489437000,0.086023256,,1124648716531226,2.5,0,,,
Fix,GPS,22.5666952300,88.3621210800,-58.983856201171875,0.0,9.935046,,1731489438000,0.086023256,,1124649716531226,2.5,0,,,
Fix,GPS,22.5666952300,88.3621210700,-58.9775390625,0.0,9.935046,,1731489439000,0.086023256,,1124650716531226,2.5,0,,,
Fix,GPS,22.5666952200,88.3621210800,-58.969757080078125,0.0,9.935046,,1731489440000,0.086023256,,1124651716531226,2.5,0,,,
Fix,GPS,22.5666951200,88.3621209100,-58.949615478515625,0.0,9.935046,,1731489441000,0.092195444,,1124652716531226,2.5,0,,,
Fix,GPS,22.5666951100,88.3621208400,-58.94580078125,0.0,9.935046,,1731489442000,0.086023256,,1124653716531226,2.5,0,,,
Fix,GPS,22.5666951100,88.3621208000,-58.937957763671875,0.0,9.935046,,1731489443000,0.092195444,,1124654716531226,2.5,0,,,
Fix,GPS,22.5666951100,88.3621207900,-58.93157958984375,0.0,9.935046,,1731489444000,0.092195444,,1124655716531226,2.5,0,,,
Fix,GPS,22.5666950700,88.3621207800,-58.930816650390625,0.0,9.935046,,1731489445000,0.086023256,,1124656716531226,2.5,0,,,
Fix,GPS,22.5666950700,88.3621207800,-58.924163818359375,0.0,9.935046,,1731489446000,0.086023256,,1124657716531226,2.5,0,,,
Fix,GPS,22.5666949700,88.3621206000,-58.908966064453125,0.0,9.935046,,1731489447000,0.086023256,,1124658716531226,2.5,0,,,
Fix,GPS,22.5666949500,88.3621206200,-58.9044189453125,0.0,9.935046,,1731489448000,0.086023256,,1124659716531226,2.5,0,,,
Fix,GPS,22.5666949500,88.3621206100,-58.89971923828125,0.0,9.935046,,1731489449000,0.086023256,,1124660716531226,2.5,0,,,
Fix,GPS,22.5666948800,88.3621205200,-58.887847900390625,0.0,9.935046,,1731489450000,0.086023256,,1124661716531226,2.5,0,,,
Fix,GPS,22.5666949000,88.3621204900,-58.881378173828125,0.0,9.935046,,1731489451000,0.086023256,,1124662716531226,2.5,0,,,
Fix,GPS,22.5666948900,88.3621204500,-58.876678466796875,0.0,9.935046,,1731489452000,0.086023256,,1124663716531226,2.5,0,,,
Fix,GPS,22.5666949100,88.3621204600,-58.87005615234375,0.0,9.935046,,1731489453000,0.086023256,,1124664716531226,2.5,0,,,
Fix,GPS,22.5666948900,88.3621204400,-58.863250732421875,0.0,9.935046,,1731489454000,0.086023256,,1124665716531226,2.5,0,,,
Fix,GPS,22.5666948700,88.3621204500,-58.86053466796875,0.0,9.935046,,1731489455000,0.32649654,,1124666716531226,2.5,0,,,
Fix,GPS,22.5666948700,88.3621204300,-58.856414794921875,0.0,9.935046,,1731489456000,0.086023256,,1124667716531226,2.5,0,,,
Fix,GPS,22.5666948800,88.3621204100,-58.84857177734375,0.0,9.935046,,1731489457000,0.092195444,,1124668716531226,2.5,0,,,
Fix,GPS,22.5666948700,88.3621203900,-58.842529296875,0.0,9.935046,,1731489458000,0.086023256,,1124669716531226,2.5,0,,,
Fix,GPS,22.5666948700,88.3621204300,-58.83673095703125,0.0,9.935046,,1731489459000,0.13453624,,1124670716531226,2.5,0,,,
Fix,GPS,22.5666948700,88.3621204500,-58.8350830078125,0.0,9.935046,,1731489460000,0.086023256,,1124671716531226,2.5,0,,,
Fix,GPS,22.5666948800,88.3621204400,-58.829132080078125,0.0,9.935046,,1731489461000,0.092195444,,1124672716531226,2.5,0,,,
Fix,GPS,22.5666948800,88.3621204100,-58.82269287109375,0.0,9.935046,,1731489462000,0.086023256,,1124673716531226,2.5,0,,,
Fix,GPS,22.5666948700,88.3621203700,-58.8153076171875,0.0,9.935046,,1731489463000,0.092195444,,1124674716531226,2.5,0,,,
Fix,GPS,22.5666948600,88.3621203200,-58.813018798828125,0.0,9.935046,,1731489464000,0.092195444,,1124675716531226,2.5,0,,,
Fix,GPS,22.5666948800,88.3621203100,-58.808807373046875,0.0,9.935046,,1731489465000,0.092195444,,1124676716531226,2.5,0,,,
Fix,GPS,22.5666948800,88.3621203200,-58.80810546875,0.0,9.935046,,1731489466000,0.092195444,,1124677716531226,2.5,0,,,
Fix,GPS,22.5666948600,88.3621203000,-58.80401611328125,0.0,9.935046,,1731489467000,0.092195444,,1124678716531226,2.5,0,,,
Fix,GPS,22.5666948500,88.3621202700,-58.798309326171875,0.0,9.935046,,1731489468000,0.092195444,,1124679716531226,2.5,0,,,
Fix,GPS,22.5666948500,88.3621203100,-58.79522705078125,0.0,9.935046,,1731489469000,0.092195444,,1124680716531226,2.5,0,,,
Fix,GPS,22.5666948600,88.3621203200,-58.790679931640625,0.0,9.935046,,1731489470000,0.086023256,,1124681716531226,2.5,0,,,
Fix,GPS,22.5666948900,88.3621203300,-58.789825439453125,0.0,9.935046,,1731489471000,0.13453624,,1124682716531226,2.5,0,,,
Fix,GPS,22.5666949000,88.3621203400,-58.786163330078125,0.0,9.935046,,1731489472000,0.116619036,,1124683716531226,2.5,0,,,
Fix,GPS,22.5666948900,88.3621202900,-58.78265380859375,0.0,9.935046,,1731489473000,0.14422205,,1124684716531226,2.5,0,,,
Fix,GPS,22.5666949200,88.3621202600,-58.7757568359375,0.0,9.935046,,1731489474000,0.1,,1124685716531226,2.5,0,,,
Fix,GPS,22.5666949500,88.3621202700,-58.772186279296875,0.0,9.935046,,1731489475000,0.10816654,,1124686716531226,2.5,0,,,
Fix,GPS,22.5666949800,88.3621202800,-58.770751953125,0.0,9.935046,,1731489476000,0.1640122,,1124687716531226,2.5,0,,,
Fix,GPS,22.5666949900,88.3621202900,-58.76715087890625,0.0,9.935046,,1731489477000,0.114017546,,1124688716531226,2.5,0,,,
Fix,GPS,22.5666950200,88.3621203000,-58.76324462890625,0.0,9.935046,,1731489478000,0.092195444,,1124689716531226,2.5,0,,,
Fix,GPS,22.5666950600,88.3621203200,-58.760589599609375,0.0,9.935046,,1731489479000,0.1,,1124690716531226,2.5,0,,,
Fix,GPS,22.5666950500,88.3621203200,-58.75994873046875,0.0,9.935046,,1731489480000,0.092195444,,1124691716531226,2.5,0,,,
Fix,GPS,22.5666950900,88.3621203500,-58.75177001953125,0.0,9.935046,,1731489481000,0.092195444,,1124692716531226,2.5,0,,,
Fix,GPS,22.5666950900,88.3621203600,-58.747833251953125,0.0,9.935046,,1731489482000,0.086023256,,1124693716531226,2.5,0,,,
Fix,GPS,22.5666951100,88.3621203400,-58.74383544921875,0.0,9.935046,,1731489483000,0.086023256,,1124694716531226,2.5,0,,,
Fix,GPS,22.5666951400,88.3621203400,-58.735321044921875,0.0,9.935046,,1731489484000,0.086023256,,1124695716531226,2.5,0,,,
Fix,GPS,22.5666951400,88.3621203200,-58.732696533203125,0.0,9.935046,,1731489485000,0.086023256,,1124696716531226,2.5,0,,,
Fix,GPS,22.5666951700,88.3621203100,-58.722686767578125,0.0,9.935046,,1731489486000,0.1,,1124697716531226,2.5,0,,,
Fix,GPS,22.5666952000,88.3621203000,-58.715118408203125,0.0,9.935046,,1731489487000,0.086023256,,1124698716531226,2.5,0,,,
Fix,GPS,22.5666952100,88.3621203200,-58.70977783203125,0.0,9.935046,,1731489488000,0.1,,1124699716531226,2.5,0,,,
Fix,GPS,22.5666952300,88.3621203200,-58.70208740234375,0.0,9.935046,,1731489489000,0.086023256,,1124700716531226,2.5,0,,,
Fix,GPS,22.5666952400,88.3621203000,-58.695037841796875,0.0,9.935046,,1731489490000,0.086023256,,1124701716531226,2.5,0,,,
Fix,GPS,22.5666952600,88.3621202900,-58.689300537109375,0.0,9.935046,,1731489491000,0.086023256,,1124702716531226,2.5,0,,,
Fix,GPS,22.5666952700,88.3621203100,-58.685943603515625,0.0,9.935046,,1731489492000,0.086023256,,1124703716531226,2.5,0,,,
Fix,GPS,22.5666953000,88.3621202700,-58.67987060546875,0.0,9.935046,,1731489493000,0.086023256,,1124704716531226,2.5,0,,,
Fix,GPS,22.5666953100,88.3621202500,-58.674041748046875,0.0,9.935046,,1731489494000,0.086023256,,1124705716531226,2.5,0,,,
Fix,GPS,22.5666950200,88.3621214600,-58.600738525390625,0.0,9.935046,,1731489495000,0.086023256,,1124706716531226,2.5,0,,,
Fix,GPS,22.5666950500,88.3621215000,-58.592254638671875,0.0,9.935046,,1731489496000,0.086023256,,1124707716531226,2.5,0,,,
Fix,GPS,22.5666950700,88.3621215200,-58.58575439453125,0.0,9.935046,,1731489497000,0.086023256,,1124708716531226,2.5,0,,,
Fix,GPS,22.5666950700,88.3621215300,-58.579681396484375,0.0,9.935046,,1731489498000,0.086023256,,1124709716531226,2.5,0,,,
Fix,GPS,22.5666950900,88.3621215300,-58.573272705078125,0.0,9.935046,,1731489499000,0.086023256,,1124710716531226,2.5,0,,,
Fix,GPS,22.5666951200,88.3621215500,-58.56719970703125,0.0,9.935046,,1731489500000,0.086023256,,1124711716531226,2.5,0,,,
Fix,GPS,22.5666951300,88.3621216000,-58.5614013671875,0.0,9.935046,,1731489501000,0.086023256,,1124712716531226,2.5,0,,,
Fix,GPS,22.5666951600,88.3621216000,-58.55804443359375,0.0,9.935046,,1731489502000,0.086023256,,1124713716531226,2.5,0,,,
Fix,GPS,22.5666953100,88.3621218800,-58.5765380859375,0.0,9.935046,,1731489503000,0.086023256,,1124714716531226,2.5,0,,,
Fix,GPS,22.5666953300,88.3621218600,-58.571319580078125,0.0,9.935046,,1731489504000,0.086023256,,1124715716531226,2.5,0,,,
Fix,GPS,22.5666953600,88.3621218500,-58.56597900390625,0.0,9.935046,,1731489505000,0.086023256,,1124716716531226,2.5,0,,,
Fix,GPS,22.5666954000,88.3621218300,-58.561126708984375,0.0,9.935046,,1731489506000,0.086023256,,1124717716531226,2.5,0,,,
Fix,GPS,22.5666954400,88.3621218100,-58.5556640625,0.0,9.935046,,1731489507000,0.086023256,,1124718716531226,2.5,0,,,
Fix,GPS,22.5666958500,88.3621224900,-58.61322021484375,0.0,9.935046,,1731489508000,0.086023256,,1124719716531226,2.5,0,,,
Fix,GPS,22.5666958900,88.3621224900,-58.6094970703125,0.0,9.935046,,1731489509000,0.086023256,,1124720716531226,2.5,0,,,
Fix,GPS,22.5666959300,88.3621225200,-58.61114501953125,0.0,9.935046,,1731489510000,0.086023256,,1124721716531226,2.5,0,,,
Fix,GPS,22.5666959800,88.3621225100,-58.607147216796875,0.0,9.935046,,1731489511000,0.086023256,,1124722716531226,2.5,0,,,
Fix,GPS,22.5666957900,88.3621220600,-58.568572998046875,0.0,9.935046,,1731489512000,0.086023256,,1124723716531226,2.5,0,,,
Fix,GPS,22.5666958200,88.3621220000,-58.5643310546875,0.0,9.935046,,1731489513000,0.086023256,,1124724716531226,2.5,0,,,
Fix,GPS,22.5666958100,88.3621219400,-58.55926513671875,0.0,9.935046,,1731489514000,0.086023256,,1124725716531226,2.5,0,,,
Fix,GPS,22.5666958100,88.3621219300,-58.5555419921875,0.0,9.935046,,1731489515000,0.086023256,,1124726716531226,2.5,0,,,
Fix,GPS,22.5666959100,88.3621219700,-58.5596923828125,0.0,9.935046,,1731489516000,0.086023256,,1124727716531226,2.5,0,,,
Fix,GPS,22.5666959400,88.3621219600,-58.554443359375,0.0,9.935046,,1731489517000,0.086023256,,1124728716531226,2.5,0,,,
Fix,GPS,22.5666959300,88.3621219400,-58.55413818359375,0.0,9.935046,,1731489518000,0.086023256,,1124729716531226,2.5,0,,,
Fix,GPS,22.5666959400,88.3621219100,-58.549102783203125,0.0,9.935046,,1731489519000,0.086023256,,1124730716531226,2.5,0,,,
Fix,GPS,22.5666959700,88.3621219300,-58.545806884765625,0.0,9.935046,,1731489520000,0.086023256,,1124731716531226,2.5,0,,,
Fix,GPS,22.5666959900,88.3621219100,-58.54180908203125,0.0,9.935046,,1731489521000,0.086023256,,1124732716531226,2.5,0,,,
Fix,GPS,22.5666960100,88.3621218900,-58.53619384765625,0.0,9.935046,,1731489522000,0.086023256,,1124733716531226,2.5,0,,,
Fix,GPS,22.5666960400,88.3621218800,-58.53436279296875,0.0,9.935046,,1731489523000,0.086023256,,1124734716531226,2.5,0,,,
Fix,GPS,22.5666960800,88.3621218400,-58.531158447265625,0.0,9.935046,,1731489524000,0.086023256,,1124735716531226,2.5,0,,,
Fix,GPS,22.5666961000,88.3621218200,-58.52978515625,0.0,9.935046,,1731489525000,0.086023256,,1124736716531226,2.5,0,,,
Fix,GPS,22.5666961200,88.3621218300,-58.5277099609375,0.0,9.935046,,1731489526000,0.086023256,,1124737716531226,2.5,0,,,
Fix,GPS,22.5666961200,88.3621217800,-58.52337646484375,0.0,9.935046,,1731489527000,0.086023256,,1124738716531226,2.5,0,,,
Fix,GPS,22.5666961300,88.3621217700,-58.520263671875,0.0,9.935046,,1731489528000,0.086023256,,1124739716531226,2.5,0,,,
Fix,GPS,22.5666961200,88.3621217400,-58.518218994140625,0.0,9.935046,,1731489529000,0.086023256,,1124740716531226,2.5,0,,,
Fix,GPS,22.5666961300,88.3621217000,-58.518646240234375,0.0,9.935046,,1731489530000,0.086023256,,1124741716531226,2.5,0,,,
Fix,GPS,22.5666961400,88.3621216900,-58.51708984375,0.0,9.935046,,1731489531000,0.086023256,,1124742716531226,2.5,0,,,
Fix,GPS,22.5666961400,88.3621216400,-58.5194091796875,0.0,9.935046,,1731489532000,0.086023256,,1124743716531226,2.5,0,,,
Fix,GPS,22.5666961400,88.3621216100,-58.515411376953125,0.0,9.935046,,1731489533000,0.086023256,,1124744716531226,2.5,0,,,
Fix,GPS,22.5666961500,88.3621216000,-58.513427734375,0.0,9.935046,,1731489534000,0.086023256,,1124745716531226,2.5,0,,,
Fix,GPS,22.5666961700,88.3621215700,-58.50994873046875,0.0,9.935046,,1731489535000,0.086023256,,1124746716531226,2.5,0,,,
Fix,GPS,22.5666961900,88.3621215500,-58.508514404296875,0.0,9.935046,,1731489536000,0.086023256,,1124747716531226,2.5,0,,,
Fix,GPS,22.5666962000,88.3621215100,-58.5064697265625,0.0,9.935046,,1731489537000,0.086023256,,1124748716531226,2.5,0,,,
Fix,GPS,22.5666962200,88.3621214700,-58.5054931640625,0.0,9.935046,,1731489538000,0.086023256,,1124749716531226,2.5,0,,,
Fix,GPS,22.5666962300,88.3621214400,-58.50311279296875,0.0,9.935046,,1731489539000,0.086023256,,1124750716531226,2.5,0,,,
Fix,GPS,22.5666962500,88.3621214200,-58.5001220703125,0.0,9.935046,,1731489540000,0.086023256,,1124751716531226,2.5,0,,,
Fix,GPS,22.5666962700,88.3621214000,-58.495513916015625,0.0,9.935046,,1731489541000,0.086023256,,1124752716531226,2.5,0,,,
Fix,GPS,22.5666962700,88.3621214200,-58.491180419921875,0.0,9.935046,,1731489542000,0.086023256,,1124753716531226,2.5,0,,,
Fix,GPS,22.5666962800,88.3621213600,-58.49066162109375,0.0,9.935046,,1731489543000,0.086023256,,1124754716531226,2.5,0,,,
Fix,GPS,22.5666962800,88.3621213300,-58.488739013671875,0.0,9.935046,,1731489544000,0.086023256,,1124755716531226,2.5,0,,,
Fix,GPS,22.5666962900,88.3621213100,-58.485504150390625,0.0,9.935046,,1731489545000,0.086023256,,1124756716531226,2.5,0,,,
Fix,GPS,22.5666963000,88.3621213300,-58.48284912109375,0.0,9.935046,,1731489546000,0.086023256,,1124757716531226,2.5,0,,,
Fix,GPS,22.5666963200,88.3621212800,-58.47821044921875,0.0,9.935046,,1731489547000,0.086023256,,1124758716531226,2.5,0,,,
Fix,GPS,22.5666963200,88.3621212800,-58.476165771484375,0.0,9.935046,,1731489548000,0.086023256,,1124759716531226,2.5,0,,,
Fix,GPS,22.5666963400,88.3621212500,-58.47210693359375,0.0,9.935046,,1731489549000,0.086023256,,1124760716531226,2.5,0,,,
Fix,GPS,22.5666963500,88.3621212400,-58.470458984375,0.0,9.935046,,1731489550000,0.086023256,,1124761716531226,2.5,0,,,
Fix,GPS,22.5666963600,88.3621211900,-58.468536376953125,0.0,9.935046,,1731489551000,0.086023256,,1124762716531226,2.5,0,,,
Fix,GPS,22.5666963600,88.3621212000,-58.46551513671875,0.0,9.935046,,1731489552000,0.086023256,,1124763716531226,2.5,0,,,
Fix,GPS,22.5666963500,88.3621211700,-58.465240478515625,0.0,9.935046,,1731489553000,0.086023256,,1124764716531226,2.5,0,,,
Fix,GPS,22.5666963600,88.3621211700,-58.46368408203125,0.0,9.935046,,1731489554000,0.086023256,,1124765716531226,2.5,0,,,
Fix,GPS,22.5666963500,88.3621211700,-58.460235595703125,0.0,9.935046,,1731489555000,0.086023256,,1124766716531226,2.5,0,,,
Fix,GPS,22.5666963700,88.3621211600,-58.45904541015625,0.0,9.935046,,1731489556000,0.086023256,,1124767716531226,2.5,0,,,
Fix,GPS,22.5666963600,88.3621211500,-58.45880126953125,0.0,9.935046,,1731489557000,0.086023256,,1124768716531226,2.5,0,,,
Fix,GPS,22.5666963900,88.3621211600,-58.4564208984375,0.0,9.935046,,1731489558000,0.086023256,,1124769716531226,2.5,0,,,
Fix,GPS,22.5666964000,88.3621211600,-58.452545166015625,0.0,9.935046,,1731489559000,0.086023256,,1124770716531226,2.5,0,,,
Fix,GPS,22.5666964000,88.3621211300,-58.45074462890625,0.0,9.935046,,1731489560000,0.086023256,,1124771716531226,2.5,0,,,
Fix,GPS,22.5666964000,88.3621211000,-58.44744873046875,0.0,9.935046,,1731489561000,0.086023256,,1124772716531226,2.5,0,,,
Fix,GPS,22.5666964000,88.3621210700,-58.44757080078125,0.0,9.935046,,1731489562000,0.086023256,,1124773716531226,2.5,0,,,
Fix,GPS,22.5666963700,88.3621210200,-58.442596435546875,0.0,9.935046,,1731489563000,0.086023256,,1124774716531226,2.5,0,,,
Fix,GPS,22.5666963900,88.3621210100,-58.4393310546875,0.0,9.935046,,1731489564000,0.086023256,,1124775716531226,2.5,0,,,
Fix,GPS,22.5666964100,88.3621209600,-58.436553955078125,0.0,9.935046,,1731489565000,0.086023256,,1124776716531226,2.5,0,,,
Fix,GPS,22.5666964000,88.3621209500,-58.43536376953125,0.0,9.935046,,1731489566000,0.086023256,,1124777716531226,2.5,0,,,
