Fix,GPS,22.5666145700,88.3621148500,-55.9815673828125,0.0,3.7900925,,1731487948000,0.080622576,,1123159729345538,2.5,0,,,
Fix,GPS,22.5666133000,88.3621140600,-56.167236328125,0.0,3.7900925,,1731487949000,0.080622576,,1123160729345538,2.5,0,,,
Fix,GPS,22.5666114200,88.3621126800,-56.358062744140625,0.0,3.7900925,,1731487950000,0.080622576,,1123161729345538,2.5,0,,,
Fix,GPS,22.5666092300,88.3621124500,-56.63092041015625,0.0,3.7900925,,1731487951000,0.080622576,,1123162729345538,2.5,0,,,
Fix,GPS,22.5666094300,88.3621123900,-56.5992431640625,0.0,3.7900925,,1731487952000,0.080622576,,1123163729345538,2.5,0,,,
Fix,GPS,22.5666080900,88.3621118200,-56.710418701171875,0.0,3.7900925,,1731487953000,0.080622576,,1123164729345538,2.5,0,,,
Fix,GPS,22.5666077800,88.3621106800,-56.93115234375,0.0,3.7900925,,1731487954000,0.080622576,,1123165729345538,2.5,0,,,
Fix,GPS,22.5666074500,88.3621095000,-56.7808837890625,0.0,3.7900925,,1731487955000,0.080622576,,1123166729345538,2.5,0,,,
Fix,GPS,22.5666066200,88.3621085100,-56.85797119140625,0.0,3.7900925,,1731487956000,0.080622576,,1123167729345538,2.5,0,,,
Fix,GPS,22.5666058100,88.3621073700,-56.70074462890625,0.0,3.7900925,,1731487957000,0.080622576,,1123168729345538,2.5,0,,,
Fix,GPS,22.5666054600,88.3621075100,-56.826171875,0.0,3.7900925,,1731487958000,0.080622576,,1123169729345538,2.5,0,,,
Fix,GPS,22.5666036200,88.3621094100,-56.74310302734375,0.0,3.7900925,,1731487959000,0.080622576,,1123170729345538,2.5,0,,,
Fix,GPS,22.5666022300,88.3621126400,-56.881927490234375,0.0,3.7900925,,1731487960000,0.080622576,,1123171729345538,2.5,0,,,
Fix,GPS,22.5666014200,88.3621159400,-56.95654296875,0.0,3.7900925,,1731487961000,0.080622576,,1123172729345538,2.5,0,,,
Fix,GPS,22.5666004100,88.3621192300,-56.9722900390625,0.0,3.7900925,,1731487962000,0.080622576,,1123173729345538,2.5,0,,,
Fix,GPS,22.5666004100,88.3621211000,-56.917388916015625,0.0,3.7900925,,1731487963000,0.080622576,,1123174729345538,2.5,0,,,
Fix,GPS,22.5666013800,88.3621212500,-56.59442138671875,0.0,3.7900925,,1731487964000,0.080622576,,1123175729345538,2.5,0,,,
Fix,GPS,22.5666025400,88.3621188200,-56.379302978515625,0.0,3.7900925,,1731487965000,0.080622576,,1123176729345538,2.5,0,,,
Fix,GPS,22.5666037000,88.3621163800,-56.333648681640625,0.0,3.7900925,,1731487966000,0.080622576,,1123177729345538,2.5,0,,,
Fix,GPS,22.5666056100,88.3621141300,-56.1065673828125,0.0,3.7900925,,1731487967000,0.080622576,,1123178729345538,2.5,0,,,
Fix,GPS,22.5666075100,88.3621141300,-55.783477783203125,0.0,3.7900925,,1731487968000,0.080622576,,1123179729345538,2.5,0,,,
Fix,GPS,22.5666093700,88.3621118900,-56.143341064453125,0.0,3.7900925,,1731487969000,0.080622576,,1123180729345538,2.5,0,,,
Fix,GPS,22.5666098100,88.3621102600,-56.16705322265625,0.0,3.7900925,,1731487970000,0.080622576,,1123181729345538,2.5,0,,,
Fix,GPS,22.5666099500,88.3621095000,-56.19256591796875,0.0,3.7900925,,1731487971000,0.080622576,,1123182729345538,2.5,0,,,
Fix,GPS,22.5666107200,88.3621087600,-56.314727783203125,0.0,3.7900925,,1731487972000,0.080622576,,1123183729345538,2.5,0,,,
Fix,GPS,22.5666116500,88.3621073100,-56.55377197265625,0.0,3.7900925,,1731487973000,0.080622576,,1123184729345538,2.5,0,,,
Fix,GPS,22.5666122600,88.3621070900,-55.993499755859375,0.0,3.7900925,,1731487974000,0.080622576,,1123185729345538,2.5,0,,,
Fix,GPS,22.5666140300,88.3621071200,-55.838470458984375,0.0,3.7900925,,1731487975000,0.82680106,,1123186729345538,2.5,0,,,
Fix,GPS,22.5666149800,88.3621083700,-55.924530029296875,0.0,3.7900925,,1731487976000,0.080622576,,1123187729345538,2.5,0,,,
Fix,GPS,22.5666154300,88.3621093900,-55.627105712890625,0.0,3.7900925,,1731487977000,0.080622576,,1123188729345538,2.5,0,,,
Fix,GPS,22.5666167300,88.3621094600,-55.3946533203125,0.0,3.7900925,,1731487978000,0.080622576,,1123189729345538,2.5,0,,,
Fix,GPS,22.5666189800,88.3621080100,-55.491790771484375,0.0,3.7900925,,1731487979000,0.080622576,,1123190729345538,2.5,0,,,
Fix,GPS,22.5666189400,88.3621061700,-55.571380615234375,0.0,3.7900925,,1731487980000,0.080622576,,1123191729345538,2.5,0,,,
Fix,GPS,22.5666186800,88.3621056900,-55.40496826171875,0.0,3.7900925,,1731487981000,0.080622576,,1123192729345538,2.5,0,,,
Fix,GPS,22.5666181900,88.3621055600,-55.084869384765625,0.0,3.7900925,,1731487982000,0.080622576,,1123193729345538,2.5,0,,,
Fix,GPS,22.5666185800,88.3621046900,-55.11474609375,0.0,3.7900925,,1731487983000,0.080622576,,1123194729345538,2.5,0,,,
Fix,GPS,22.5666202500,88.3621037200,-55.066314697265625,0.0,3.7900925,,1731487984000,0.086023256,,1123195729345538,2.5,0,,,
Fix,GPS,22.5666225200,88.3621025800,-55.544281005859375,0.0,3.7900925,,1731487985000,0.080622576,,1123196729345538,2.5,0,,,
Fix,GPS,22.5666252600,88.3621047200,-55.604766845703125,0.0,3.7900925,,1731487986000,0.080622576,,1123197729345538,2.5,0,,,
Fix,GPS,22.5666263600,88.3621074000,-55.384613037109375,0.0,3.7900925,,1731487987000,0.080622576,,1123198729345538,2.5,0,,,
Fix,GPS,22.5666270300,88.3621069200,-55.649444580078125,0.0,3.7900925,,1731487988000,0.080622576,,1123199729345538,2.5,0,,,
Fix,GPS,22.5666275200,88.3621055000,-55.71026611328125,0.0,3.7900925,,1731487989000,0.080622576,,1123200729345538,2.5,0,,,
Fix,GPS,22.5666266200,88.3621043400,-55.682403564453125,0.0,3.7900925,,1731487990000,0.080622576,,1123201729345538,2.5,0,,,
Fix,GPS,22.5666269600,88.3621043700,-55.808380126953125,0.0,3.7900925,,1731487991000,0.080622576,,1123202729345538,2.5,0,,,
Fix,GPS,22.5666255200,88.3621046400,-55.9681396484375,0.0,3.7900925,,1731487992000,0.080622576,,1123203729345538,2.5,0,,,
Fix,GPS,22.5666221000,88.3621049800,-56.149993896484375,0.0,3.7900925,,1731487993000,0.080622576,,1123204729345538,2.5,0,,,
Fix,GPS,22.5666222000,88.3621070400,-56.0560302734375,0.0,3.7900925,,1731487994000,0.080622576,,1123205729345538,2.5,0,,,
Fix,GPS,22.5666234600,88.3621077200,-55.845062255859375,0.0,3.7900925,,1731487995000,0.080622576,,1123206729345538,2.5,0,,,
Fix,GPS,22.5666260200,88.3621077200,-56.12847900390625,0.0,3.7900925,,1731487996000,0.82680106,,1123207729345538,2.5,0,,,
Fix,GPS,22.5666286100,88.3621069100,-55.992401123046875,0.0,3.7900925,,1731487997000,0.086023256,,1123208729345538,2.5,0,,,
Fix,GPS,22.5666295300,88.3621056900,-55.6788330078125,0.0,3.7900925,,1731487998000,0.080622576,,1123209729345538,2.5,0,,,
Fix,GPS,22.5666287700,88.3621051300,-56.041046142578125,0.0,3.7900925,,1731487999000,0.080622576,,1123210729345538,2.5,0,,,
Fix,GPS,22.5666272900,88.3621048500,-56.53851318359375,0.0,3.7900925,,1731488000000,0.080622576,,1123211729345538,2.5,0,,,
Fix,GPS,22.5666267300,88.3621038600,-56.31982421875,0.0,3.7900925,,1731488001000,0.080622576,,1123212729345538,2.5,0,,,
Fix,GPS,22.5666252600,88.3621036100,-56.39776611328125,0.0,3.7900925,,1731488002000,0.080622576,,1123213729345538,2.5,0,,,
Fix,GPS,22.5666244600,88.3621034300,-56.402099609375,0.0,3.7900925,,1731488003000,0.080622576,,1123214729345538,2.5,0,,,
Fix,GPS,22.5666246900,88.3621032600,-56.63665771484375,0.0,3.7900925,,1731488004000,0.080622576,,1123215729345538,2.5,0,,,
Fix,GPS,22.5666251700,88.3621036600,-56.720611572265625,0.0,3.7900925,,1731488005000,0.080622576,,1123216729345538,2.5,0,,,
Fix,GPS,22.5666258900,88.3621037000,-56.550384521484375,0.0,3.7900925,,1731488006000,0.080622576,,1123217729345538,2.5,0,,,
Fix,GPS,22.5666258500,88.3621043500,-56.45831298828125,0.0,3.7900925,,1731488007000,0.080622576,,1123218729345538,2.5,0,,,
Fix,GPS,22.5666253700,88.3621037600,-56.119384765625,0.0,3.7900925,,1731488008000,0.080622576,,1123219729345538,2.5,0,,,
Fix,GPS,22.5666234900,88.3621052700,-55.90631103515625,0.0,3.7900925,,1731488009000,0.080622576,,1123220729345538,2.5,0,,,
Fix,GPS,22.5666230800,88.3621082700,-55.8262939453125,0.0,3.7900925,,1731488010000,0.080622576,,1123221729345538,2.5,0,,,
Fix,GPS,22.5666231900,88.3621099100,-55.611328125,0.0,3.7900925,,1731488011000,0.080622576,,1123222729345538,2.5,0,,,
Fix,GPS,22.5666236600,88.3621103800,-55.316680908203125,0.0,3.7900925,,1731488012000,0.080622576,,1123223729345538,2.5,0,,,
Fix,GPS,22.5666233700,88.3621105500,-55.439056396484375,0.0,3.7900925,,1731488013000,0.080622576,,1123224729345538,2.5,0,,,
Fix,GPS,22.5666214300,88.3621117900,-55.18951416015625,0.0,3.7900925,,1731488014000,0.080622576,,1123225729345538,2.5,0,,,
Fix,GPS,22.5666207300,88.3621127100,-55.10430908203125,0.0,3.7900925,,1731488015000,0.080622576,,1123226729345538,2.5,0,,,
Fix,GPS,22.5666204900,88.3621139800,-54.676422119140625,0.0,3.7900925,,1731488016000,0.080622576,,1123227729345538,2.5,0,,,
Fix,GPS,22.5666227100,88.3621134400,-54.888427734375,0.0,3.7900925,,1731488017000,0.080622576,,1123228729345538,2.5,0,,,
Fix,GPS,22.5666247000,88.3621131800,-54.951141357421875,0.0,3.7900925,,1731488018000,0.82680106,,1123229729345538,2.5,0,,,
Fix,GPS,22.5666252200,88.3621137900,-55.210479736328125,0.0,3.7900925,,1731488019000,0.080622576,,1123230729345538,2.5,0,,,
Fix,GPS,22.5666254400,88.3621148400,-55.364837646484375,0.0,3.7900925,,1731488020000,0.080622576,,1123231729345538,2.5,0,,,
Fix,GPS,22.5666246300,88.3621158400,-55.85699462890625,0.0,3.7900925,,1731488021000,0.080622576,,1123232729345538,2.5,0,,,
Fix,GPS,22.5666234700,88.3621171900,-55.96087646484375,0.0,3.7900925,,1731488022000,0.080622576,,1123233729345538,2.5,0,,,
Fix,GPS,22.5666233400,88.3621172100,-55.8721923828125,0.0,3.7900925,,1731488023000,0.82680106,,1123234729345538,2.5,0,,,
Fix,GPS,22.5666214300,88.3621151500,-56.026580810546875,0.0,3.7900925,,1731488024000,0.080622576,,1123235729345538,2.5,0,,,
Fix,GPS,22.5666191900,88.3621141600,-55.85797119140625,0.0,3.7900925,,1731488025000,0.080622576,,1123236729345538,2.5,0,,,
Fix,GPS,22.5666185600,88.3621126900,-55.779327392578125,0.0,3.7900925,,1731488026000,0.080622576,,1123237729345538,2.5,0,,,
Fix,GPS,22.5666178500,88.3621113300,-55.764923095703125,0.0,3.7900925,,1731488027000,0.080622576,,1123238729345538,2.5,0,,,
Fix,GPS,22.5666168200,88.3621103500,-55.532958984375,0.0,3.7900925,,1731488028000,0.080622576,,1123239729345538,2.5,0,,,
Fix,GPS,22.5666162300,88.3621089900,-55.6143798828125,0.0,3.7900925,,1731488029000,0.080622576,,1123240729345538,2.5,0,,,
Fix,GPS,22.5666175300,88.3621096000,-55.70318603515625,0.0,3.7900925,,1731488030000,0.080622576,,1123241729345538,2.5,0,,,
Fix,GPS,22.5666170700,88.3621103200,-55.421051025390625,0.0,3.7900925,,1731488031000,0.080622576,,1123242729345538,2.5,0,,,
Fix,GPS,22.5666166100,88.3621120000,-55.2974853515625,0.0,3.7900925,,1731488032000,0.080622576,,1123243729345538,2.5,0,,,
Fix,GPS,22.5666175600,88.3621128100,-55.186798095703125,0.0,3.7900925,,1731488033000,0.080622576,,1123244729345538,2.5,0,,,
Fix,GPS,22.5666193200,88.3621127600,-55.514923095703125,0.0,3.7900925,,1731488034000,0.080622576,,1123245729345538,2.5,0,,,
Fix,GPS,22.5666204700,88.3621148100,-55.600372314453125,0.0,3.7900925,,1731488035000,0.080622576,,1123246729345538,2.5,0,,,
Fix,GPS,22.5666218800,88.3621153000,-55.6534423828125,0.0,3.7900925,,1731488036000,0.080622576,,1123247729345538,2.5,0,,,
Fix,GPS,22.5666240600,88.3621155400,-55.782012939453125,0.0,3.7900925,,1731488037000,0.080622576,,1123248729345538,2.5,0,,,
Fix,GPS,22.5666261100,88.3621138500,-55.616363525390625,0.0,3.7900925,,1731488038000,0.080622576,,1123249729345538,2.5,0,,,
Fix,GPS,22.5666273300,88.3621121000,-55.57318115234375,0.0,3.7900925,,1731488039000,0.080622576,,1123250729345538,2.5,0,,,
Fix,GPS,22.5666292300,88.3621108800,-55.562652587890625,0.0,3.7900925,,1731488040000,0.080622576,,1123251729345538,2.5,0,,,
Fix,GPS,22.5666313700,88.3621096900,-55.562835693359375,0.0,3.7900925,,1731488041000,0.080622576,,1123252729345538,2.5,0,,,
Fix,GPS,22.5666316600,88.3621098700,-55.298492431640625,0.0,3.7900925,,1731488042000,0.080622576,,1123253729345538,2.5,0,,,
Fix,GPS,22.5666303700,88.3621096900,-55.519927978515625,0.0,3.7900925,,1731488043000,0.080622576,,1123254729345538,2.5,0,,,
Fix,GPS,22.5666297200,88.3621095400,-55.511199951171875,0.0,3.7900925,,1731488044000,0.080622576,,1123255729345538,2.5,0,,,
Fix,GPS,22.5666294100,88.3621094000,-55.503631591796875,0.0,3.7900925,,1731488045000,0.080622576,,1123256729345538,2.5,0,,,
Fix,GPS,22.5666292800,88.3621091600,-55.478118896484375,0.0,3.7900925,,1731488046000,0.080622576,,1123257729345538,2.5,0,,,
Fix,GPS,22.5666292300,88.3621089900,-55.46685791015625,0.0,3.7900925,,1731488047000,0.080622576,,1123258729345538,2.5,0,,,
Fix,GPS,22.5666294800,88.3621085800,-55.39117431640625,0.0,3.7900925,,1731488048000,0.080622576,,1123259729345538,2.5,0,,,
Fix,GPS,22.5666296300,88.3621083400,-55.380523681640625,0.0,3.7900925,,1731488049000,0.080622576,,1123260729345538,2.5,0,,,
Fix,GPS,22.5666297100,88.3621081700,-55.371826171875,0.0,3.7900925,,1731488050000,0.080622576,,1123261729345538,2.5,0,,,
Fix,GPS,22.5666297800,88.3621080400,-55.36773681640625,0.0,3.7900925,,1731488051000,0.080622576,,1123262729345538,2.5,0,,,
Fix,GPS,22.5666297900,88.3621079700,-55.360595703125,0.0,3.7900925,,1731488052000,0.080622576,,1123263729345538,2.5,0,,,
Fix,GPS,22.5666277700,88.3621078600,-55.22283935546875,0.0,3.7900925,,1731488053000,0.82680106,,1123264729345538,2.5,0,,,
Fix,GPS,22.5666250200,88.3621083800,-55.138885498046875,0.0,3.7900925,,1731488054000,0.080622576,,1123265729345538,2.5,0,,,
Fix,GPS,22.5666234500,88.3621096200,-55.037078857421875,0.0,3.7900925,,1731488055000,0.080622576,,1123266729345538,2.5,0,,,
Fix,GPS,22.5666226000,88.3621101700,-55.070709228515625,0.0,3.7900925,,1731488056000,0.080622576,,1123267729345538,2.5,0,,,
Fix,GPS,22.5666223500,88.3621104000,-55.12481689453125,0.0,3.7900925,,1731488057000,0.080622576,,1123268729345538,2.5,0,,,
Fix,GPS,22.5666221400,88.3621104300,-55.345947265625,0.0,3.7900925,,1731488058000,0.080622576,,1123269729345538,2.5,0,,,
Fix,GPS,22.5666225700,88.3621107800,-55.5115966796875,0.0,3.7900925,,1731488059000,0.080622576,,1123270729345538,2.5,0,,,
Fix,GPS,22.5666225800,88.3621111300,-55.577362060546875,0.0,3.7900925,,1731488060000,0.080622576,,1123271729345538,2.5,0,,,
Fix,GPS,22.5666220200,88.3621111400,-55.5084228515625,0.0,3.7900925,,1731488061000,0.080622576,,1123272729345538,2.5,0,,,
Fix,GPS,22.5666211200,88.3621111900,-55.58734130859375,0.0,3.7900925,,1731488062000,0.080622576,,1123273729345538,2.5,0,,,
Fix,GPS,22.5666212300,88.3621112500,-55.49676513671875,0.0,3.7900925,,1731488063000,0.080622576,,1123274729345538,2.5,0,,,
Fix,GPS,22.5666215800,88.3621112000,-55.3482666015625,0.0,3.7900925,,1731488064000,0.080622576,,1123275729345538,2.5,0,,,
Fix,GPS,22.5666216200,88.3621110200,-55.337005615234375,0.0,3.7900925,,1731488065000,0.080622576,,1123276729345538,2.5,0,,,
Fix,GPS,22.5666212900,88.3621108900,-55.39935302734375,0.0,3.7900925,,1731488066000,0.080622576,,1123277729345538,2.5,0,,,
Fix,GPS,22.5666211200,88.3621108100,-55.386505126953125,0.0,3.7900925,,1731488067000,0.080622576,,1123278729345538,2.5,0,,,
Fix,GPS,22.5666210400,88.3621107700,-55.37896728515625,0.0,3.7900925,,1731488068000,0.080622576,,1123279729345538,2.5,0,,,
Fix,GPS,22.5666208900,88.3621107400,-55.39715576171875,0.0,3.7900925,,1731488069000,0.080622576,,1123280729345538,2.5,0,,,
Fix,GPS,22.5666207900,88.3621107100,-55.398193359375,0.0,3.7900925,,1731488070000,0.080622576,,1123281729345538,2.5,0,,,
Fix,GPS,22.5666207100,88.3621106900,-55.399139404296875,0.0,3.7900925,,1731488071000,0.086023256,,1123282729345538,2.5,0,,,
Fix,GPS,22.5666206700,88.3621106700,-55.39385986328125,0.0,3.7900925,,1731488072000,0.086023256,,1123283729345538,2.5,0,,,
Fix,GPS,22.5666206500,88.3621106500,-55.386260986328125,0.0,3.7900925,,1731488073000,0.080622576,,1123284729345538,2.5,0,,,
Fix,GPS,22.5666206400,88.3621106400,-55.381378173828125,0.0,3.7900925,,1731488074000,0.080622576,,1123285729345538,2.5,0,,,
Fix,GPS,22.5666206300,88.3621106400,-55.37774658203125,0.0,3.7900925,,1731488075000,0.080622576,,1123286729345538,2.5,0,,,
Fix,GPS,22.5666206200,88.3621106200,-55.3741455078125,0.0,3.7900925,,1731488076000,0.080622576,,1123287729345538,2.5,0,,,
Fix,GPS,22.5666197500,88.3621105900,-55.4620361328125,0.0,3.7900925,,1731488077000,0.82680106,,1123288729345538,2.5,0,,,
Fix,GPS,22.5666163800,88.3621115900,-55.6851806640625,0.0,3.7900925,,1731488078000,0.080622576,,1123289729345538,2.5,0,,,
Fix,GPS,22.5666156400,88.3621121700,-55.7567138671875,0.15,3.7900925,16.8,1731488079000,0.82680106,10.895702,1123290729345538,2.5,0,,,
Fix,GPS,22.5666139800,88.3621138500,-56.090484619140625,0.0,3.7900925,,1731488080000,0.080622576,,1123291729345538,2.5,0,,,
Fix,GPS,22.5666139500,88.3621149800,-56.229095458984375,0.0,3.7900925,,1731488081000,0.080622576,,1123292729345538,2.5,0,,,
Fix,GPS,22.5666143800,88.3621150400,-56.21649169921875,0.0,3.7900925,,1731488082000,0.080622576,,1123293729345538,2.5,0,,,
Fix,GPS,22.5666148400,88.3621151500,-56.34552001953125,0.0,3.7900925,,1731488083000,0.080622576,,1123294729345538,2.5,0,,,
Fix,GPS,22.5666157800,88.3621155800,-56.333831787109375,0.0,3.7900925,,1731488084000,0.080622576,,1123295729345538,2.5,0,,,
Fix,GPS,22.5666165000,88.3621161400,-56.2886962890625,0.0,3.7900925,,1731488085000,0.080622576,,1123296729345538,2.5,0,,,
Fix,GPS,22.5666164800,88.3621161700,-56.299468994140625,0.0,3.7900925,,1731488086000,0.080622576,,1123297729345538,2.5,0,,,
Fix,GPS,22.5666162600,88.3621162600,-56.367889404296875,0.0,3.7900925,,1731488087000,0.080622576,,1123298729345538,2.5,0,,,
Fix,GPS,22.5666159200,88.3621162300,-56.30328369140625,0.0,3.7900925,,1731488088000,0.080622576,,1123299729345538,2.5,0,,,
Fix,GPS,22.5666158300,88.3621161000,-56.265655517578125,0.0,3.7900925,,1731488089000,0.080622576,,1123300729345538,2.5,0,,,
Fix,GPS,22.5666159300,88.3621159800,-56.27130126953125,0.0,3.7900925,,1731488090000,0.080622576,,1123301729345538,2.5,0,,,
Fix,GPS,22.5666160100,88.3621158500,-56.262847900390625,0.0,3.7900925,,1731488091000,0.080622576,,1123302729345538,2.5,0,,,
Fix,GPS,22.5666170900,88.3621156400,-56.39306640625,0.0,3.7900925,,1731488092000,0.82680106,,1123303729345538,2.5,0,,,
Fix,GPS,22.5666179500,88.3621149100,-56.695526123046875,0.0,3.7900925,,1731488093000,0.080622576,,1123304729345538,2.5,0,,,
Fix,GPS,22.5666173700,88.3621150100,-56.69915771484375,0.0,3.7900925,,1731488094000,0.080622576,,1123305729345538,2.5,0,,,
Fix,GPS,22.5666168900,88.3621149700,-56.590789794921875,0.0,3.7900925,,1731488095000,0.080622576,,1123306729345538,2.5,0,,,
Fix,GPS,22.5666165900,88.3621150300,-56.582183837890625,0.0,3.7900925,,1731488096000,0.080622576,,1123307729345538,2.5,0,,,
Fix,GPS,22.5666163800,88.3621149700,-56.243682861328125,0.0,3.7900925,,1731488097000,0.82680106,,1123308729345538,2.5,0,,,
Fix,GPS,22.5666163100,88.3621147900,-56.076171875,0.0,3.7900925,,1731488098000,0.080622576,,1123309729345538,2.5,0,,,
Fix,GPS,22.5666168300,88.3621149400,-56.07672119140625,0.0,3.7900925,,1731488099000,0.82680106,,1123310729345538,2.5,0,,,
Fix,GPS,22.5666172400,88.3621161000,-56.01519775390625,0.0,3.7900925,,1731488100000,0.080622576,,1123311729345538,2.5,0,,,
Fix,GPS,22.5666179100,88.3621163900,-56.054473876953125,0.0,3.7900925,,1731488101000,0.080622576,,1123312729345538,2.5,0,,,
Fix,GPS,22.5666185000,88.3621169000,-56.11907958984375,0.0,3.7900925,,1731488102000,0.080622576,,1123313729345538,2.5,0,,,
Fix,GPS,22.5666189800,88.3621175100,-56.170501708984375,0.0,3.7900925,,1731488103000,0.080622576,,1123314729345538,2.5,0,,,
Fix,GPS,22.5666194200,88.3621178900,-56.05523681640625,0.0,3.7900925,,1731488104000,0.080622576,,1123315729345538,2.5,0,,,
Fix,GPS,22.5666187000,88.3621175200,-55.910400390625,0.0,3.7900925,,1731488105000,0.82680106,,1123316729345538,2.5,0,,,
Fix,GPS,22.5666195100,88.3621175400,-55.6099853515625,0.0,3.7900925,,1731488106000,0.080622576,,1123317729345538,2.5,0,,,
Fix,GPS,22.5666201100,88.3621178400,-55.6641845703125,0.0,3.7900925,,1731488107000,0.080622576,,1123318729345538,2.5,0,,,
Fix,GPS,22.5666215100,88.3621181100,-55.677825927734375,0.0,3.7900925,,1731488108000,0.080622576,,1123319729345538,2.5,0,,,
Fix,GPS,22.5666224200,88.3621185300,-55.6885986328125,0.0,3.7900925,,1731488109000,0.080622576,,1123320729345538,2.5,0,,,
Fix,GPS,22.5666236700,88.3621186400,-55.641204833984375,0.0,3.7900925,,1731488110000,0.080622576,,1123321729345538,2.5,0,,,
Fix,GPS,22.5666246800,88.3621183900,-55.723297119140625,0.0,3.7900925,,1731488111000,0.080622576,,1123322729345538,2.5,0,,,
Fix,GPS,22.5666252800,88.3621179400,-55.725128173828125,0.0,3.7900925,,1731488112000,0.080622576,,1123323729345538,2.5,0,,,
Fix,GPS,22.5666259600,88.3621178400,-55.82379150390625,0.0,3.7900925,,1731488113000,0.080622576,,1123324729345538,2.5,0,,,
Fix,GPS,22.5666266600,88.3621177500,-55.714996337890625,0.0,3.7900925,,1731488114000,0.080622576,,1123325729345538,2.5,0,,,
Fix,GPS,22.5666268600,88.3621179700,-55.684173583984375,0.0,3.7900925,,1731488115000,0.080622576,,1123326729345538,2.5,0,,,
Fix,GPS,22.5666268100,88.3621180000,-55.650238037109375,0.0,3.7900925,,1731488116000,0.15811388,,1123327729345538,2.5,0,,,
Fix,GPS,22.5666267600,88.3621179500,-55.63116455078125,0.0,3.7900925,,1731488117000,0.080622576,,1123328729345538,2.5,0,,,
Fix,GPS,22.5666267400,88.3621178700,-55.62359619140625,0.0,3.7900925,,1731488118000,0.072111025,,1123329729345538,2.5,0,,,
Fix,GPS,22.5666275800,88.3621177400,-55.5704345703125,0.17,3.7900925,16.8,1731488119000,0.82680106,18.699392,1123330729345538,2.5,0,,,
Fix,GPS,22.5666294800,88.3621167600,-55.8411865234375,0.0,3.7900925,,1731488120000,0.82680106,,1123331729345538,2.5,0,,,
Fix,GPS,22.5666315400,88.3621150400,-55.74188232421875,0.0,3.7900925,,1731488121000,0.080622576,,1123332729345538,2.5,0,,,
Fix,GPS,22.5666317100,88.3621150300,-55.611602783203125,0.0,3.7900925,,1731488122000,0.080622576,,1123333729345538,2.5,0,,,
Fix,GPS,22.5666315000,88.3621159500,-55.367767333984375,0.0,3.7900925,,1731488123000,0.080622576,,1123334729345538,2.5,0,,,
Fix,GPS,22.5666311800,88.3621166100,-55.20843505859375,0.0,3.7900925,,1731488124000,0.080622576,,1123335729345538,2.5,0,,,
Fix,GPS,22.5666310200,88.3621171100,-55.115631103515625,0.0,3.7900925,,1731488125000,0.080622576,,1123336729345538,2.5,0,,,
Fix,GPS,22.5666308500,88.3621172500,-55.11083984375,0.17,3.7900925,16.8,1731488126000,0.82680106,18.840147,1123337729345538,2.5,0,,,
Fix,GPS,22.5666304100,88.3621174500,-55.071502685546875,0.0,3.7900925,,1731488127000,0.82680106,,1123338729345538,2.5,0,,,
Fix,GPS,22.5666288600,88.3621175100,-55.111572265625,0.0,3.7900925,,1731488128000,0.080622576,,1123339729345538,2.5,0,,,
Fix,GPS,22.5666290300,88.3621177800,-54.955718994140625,0.0,3.7900925,,1731488129000,0.080622576,,1123340729345538,2.5,0,,,
Fix,GPS,22.5666290700,88.3621181200,-54.87078857421875,0.0,3.7900925,,1731488130000,0.080622576,,1123341729345538,2.5,0,,,
Fix,GPS,22.5666299000,88.3621188600,-54.70928955078125,0.0,3.7900925,,1731488131000,0.080622576,,1123342729345538,2.5,0,,,
Fix,GPS,22.5666302100,88.3621194300,-54.685577392578125,0.0,3.7900925,,1731488132000,0.080622576,,1123343729345538,2.5,0,,,
Fix,GPS,22.5666302600,88.3621197800,-54.7457275390625,0.0,3.7900925,,1731488133000,0.080622576,,1123344729345538,2.5,0,,,
Fix,GPS,22.5666304200,88.3621199700,-54.777984619140625,0.0,3.7900925,,1731488134000,0.080622576,,1123345729345538,2.5,0,,,
Fix,GPS,22.5666298100,88.3621211200,-54.613983154296875,0.23,3.7900925,16.8,1731488135000,0.82680106,19.05754,1123346729345538,2.5,0,,,
Fix,GPS,22.5666288900,88.3621230100,-54.59515380859375,0.0,3.7900925,,1731488136000,0.080622576,,1123347729345538,2.5,0,,,
Fix,GPS,22.5666293400,88.3621238800,-54.76324462890625,0.0,3.7900925,,1731488137000,0.080622576,,1123348729345538,2.5,0,,,
Fix,GPS,22.5666297400,88.3621238400,-54.925567626953125,0.0,3.7900925,,1731488138000,0.82680106,,1123349729345538,2.5,0,,,
Fix,GPS,22.5666292700,88.3621239900,-54.794464111328125,0.0,3.7900925,,1731488139000,0.080622576,,1123350729345538,2.5,0,,,
Fix,GPS,22.5666285700,88.3621242500,-54.7984619140625,0.0,3.7900925,,1731488140000,0.080622576,,1123351729345538,2.5,0,,,
Fix,GPS,22.5666281700,88.3621245500,-54.55780029296875,0.0,3.7900925,,1731488141000,0.080622576,,1123352729345538,2.5,0,,,
Fix,GPS,22.5666272700,88.3621241900,-54.510711669921875,0.0,3.7900925,,1731488142000,0.080622576,,1123353729345538,2.5,0,,,
Fix,GPS,22.5666262300,88.3621234700,-54.41143798828125,0.0,3.7900925,,1731488143000,0.080622576,,1123354729345538,2.5,0,,,
Fix,GPS,22.5666255400,88.3621227800,-54.536895751953125,0.0,3.7900925,,1731488144000,0.080622576,,1123355729345538,2.5,0,,,
Fix,GPS,22.5666252600,88.3621227600,-54.546051025390625,0.0,3.7900925,,1731488145000,0.080622576,,1123356729345538,2.5,0,,,
Fix,GPS,22.5666245800,88.3621230300,-54.379058837890625,0.0,3.7900925,,1731488146000,0.080622576,,1123357729345538,2.5,0,,,
Fix,GPS,22.5666245700,88.3621233200,-54.44854736328125,0.0,3.7900925,,1731488147000,0.080622576,,1123358729345538,2.5,0,,,
Fix,GPS,22.5666246400,88.3621233900,-54.481292724609375,0.0,3.7900925,,1731488148000,0.05656854,,1123359729345538,2.5,0,,,
Fix,GPS,22.5666248000,88.3621233600,-54.47088623046875,0.0,3.7900925,,1731488149000,0.080622576,,1123360729345538,2.5,0,,,
Fix,GPS,22.5666249500,88.3621233000,-54.458892822265625,0.0,3.7900925,,1731488150000,0.080622576,,1123361729345538,2.5,0,,,
Fix,GPS,22.5666250300,88.3621232400,-54.446075439453125,0.0,3.7900925,,1731488151000,0.080622576,,1123362729345538,2.5,0,,,
Fix,GPS,22.5666250500,88.3621231900,-54.418701171875,0.0,3.7900925,,1731488152000,0.080622576,,1123363729345538,2.5,0,,,
Fix,GPS,22.5666250700,88.3621231200,-54.40142822265625,0.0,3.7900925,,1731488153000,0.080622576,,1123364729345538,2.5,0,,,
Fix,GPS,22.5666250900,88.3621230700,-54.391845703125,0.0,3.7900925,,1731488154000,0.080622576,,1123365729345538,2.5,0,,,
Fix,GPS,22.5666251100,88.3621230200,-54.387115478515625,0.0,3.7900925,,1731488155000,0.080622576,,1123366729345538,2.5,0,,,
Fix,GPS,22.5666251400,88.3621229800,-54.384552001953125,0.0,3.7900925,,1731488156000,0.080622576,,1123367729345538,2.5,0,,,
Fix,GPS,22.5666251600,88.3621229400,-54.3787841796875,0.0,3.7900925,,1731488157000,0.080622576,,1123368729345538,2.5,0,,,
Fix,GPS,22.5666251800,88.3621229100,-54.377227783203125,0.0,3.7900925,,1731488158000,0.080622576,,1123369729345538,2.5,0,,,
Fix,GPS,22.5666251900,88.3621228900,-54.374053955078125,0.0,3.7900925,,1731488159000,0.080622576,,1123370729345538,2.5,0,,,
Fix,GPS,22.5666251900,88.3621228800,-54.37310791015625,0.0,3.7900925,,1731488160000,0.080622576,,1123371729345538,2.5,0,,,
Fix,GPS,22.5666252000,88.3621228500,-54.371978759765625,0.0,3.7900925,,1731488161000,0.080622576,,1123372729345538,2.5,0,,,
Fix,GPS,22.5666252000,88.3621228200,-54.36883544921875,0.0,3.7900925,,1731488162000,0.080622576,,1123373729345538,2.5,0,,,
Fix,GPS,22.5666252100,88.3621227900,-54.364288330078125,0.0,3.7900925,,1731488163000,0.080622576,,1123374729345538,2.5,0,,,
Fix,GPS,22.5666252200,88.3621227700,-54.361236572265625,0.0,3.7900925,,1731488164000,0.080622576,,1123375729345538,2.5,0,,,
Fix,GPS,22.5666244300,88.3621232900,-54.2752685546875,0.0,3.7900925,,1731488165000,0.82680106,,1123376729345538,2.5,0,,,
Fix,GPS,22.5666239900,88.3621233600,-54.3924560546875,0.0,3.7900925,,1731488166000,0.82680106,,1123377729345538,2.5,0,,,
Fix,GPS,22.5666220100,88.3621232200,-54.753631591796875,0.0,3.7900925,,1731488167000,0.080622576,,1123378729345538,2.5,0,,,
Fix,GPS,22.5666217000,88.3621238100,-54.872314453125,0.0,3.7900925,,1731488168000,0.080622576,,1123379729345538,2.5,0,,,
Fix,GPS,22.5666222200,88.3621237800,-54.937957763671875,0.0,3.7900925,,1731488169000,0.080622576,,1123380729345538,2.5,0,,,
Fix,GPS,22.5666229700,88.3621237600,-55.01715087890625,0.0,3.7900925,,1731488170000,0.080622576,,1123381729345538,2.5,0,,,
Fix,GPS,22.5666235000,88.3621232800,-55.19232177734375,0.0,3.7900925,,1731488171000,0.072111025,,1123382729345538,2.5,0,,,
Fix,GPS,22.5666249200,88.3621221100,-54.837371826171875,0.15,3.7900925,16.8,1731488172000,0.82680106,19.695929,1123383729345538,2.5,0,,,
Fix,GPS,22.5666258900,88.3621210700,-54.96063232421875,0.0,3.7900925,,1731488173000,0.82680106,,1123384729345538,2.5,0,,,
Fix,GPS,22.5666278500,88.3621204600,-54.793792724609375,0.0,3.7900925,,1731488174000,0.080622576,,1123385729345538,2.5,0,,,
Fix,GPS,22.5666289800,88.3621208800,-54.691192626953125,0.0,3.7900925,,1731488175000,0.080622576,,1123386729345538,2.5,0,,,
Fix,GPS,22.5666297200,88.3621212500,-54.77874755859375,0.0,3.7900925,,1731488176000,0.080622576,,1123387729345538,2.5,0,,,
Fix,GPS,22.5666303100,88.3621218500,-54.666351318359375,0.0,3.7900925,,1731488177000,0.080622576,,1123388729345538,2.5,0,,,
Fix,GPS,22.5666309100,88.3621221300,-54.54925537109375,0.0,3.7900925,,1731488178000,0.080622576,,1123389729345538,2.5,0,,,
Fix,GPS,22.5666314900,88.3621221600,-54.6773681640625,0.0,3.7900925,,1731488179000,0.080622576,,1123390729345538,2.5,0,,,
Fix,GPS,22.5666309600,88.3621213800,-54.600830078125,0.15,3.7900925,16.8,1731488180000,0.82680106,19.835432,1123391729345538,2.5,0,,,
Fix,GPS,22.5666308400,88.3621205400,-54.491119384765625,0.0,3.7900925,,1731488181000,0.82680106,,1123392729345538,2.5,0,,,
Fix,GPS,22.5666313100,88.3621208600,-54.549896240234375,0.0,3.7900925,,1731488182000,0.080622576,,1123393729345538,2.5,0,,,
Fix,GPS,22.5666328200,88.3621205000,-54.337554931640625,0.0,3.7900925,,1731488183000,0.080622576,,1123394729345538,2.5,0,,,
Fix,GPS,22.5666346900,88.3621193100,-54.261199951171875,0.0,3.7900925,,1731488184000,0.080622576,,1123395729345538,2.5,0,,,
Fix,GPS,22.5666355100,88.3621190400,-54.158538818359375,0.0,3.7900925,,1731488185000,0.080622576,,1123396729345538,2.5,0,,,
Fix,GPS,22.5666354900,88.3621196100,-54.010162353515625,0.0,3.7900925,,1731488186000,0.080622576,,1123397729345538,2.5,0,,,
Fix,GPS,22.5666354700,88.3621197000,-53.771148681640625,0.0,3.7900925,,1731488187000,0.080622576,,1123398729345538,2.5,0,,,
Fix,GPS,22.5666357500,88.3621199900,-53.760955810546875,0.0,3.7900925,,1731488188000,0.080622576,,1123399729345538,2.5,0,,,
Fix,GPS,22.5666356300,88.3621204000,-53.81488037109375,0.0,3.7900925,,1731488189000,0.080622576,,1123400729345538,2.5,0,,,
Fix,GPS,22.5666359900,88.3621204200,-53.905975341796875,0.0,3.7900925,,1731488190000,0.080622576,,1123401729345538,2.5,0,,,
Fix,GPS,22.5666361400,88.3621203800,-53.9134521484375,0.0,3.7900925,,1731488191000,0.080622576,,1123402729345538,2.5,0,,,
Fix,GPS,22.5666363100,88.3621202500,-53.873291015625,0.0,3.7900925,,1731488192000,0.080622576,,1123403729345538,2.5,0,,,
Fix,GPS,22.5666363400,88.3621200200,-53.853729248046875,0.0,3.7900925,,1731488193000,0.080622576,,1123404729345538,2.5,0,,,
Fix,GPS,22.5666364500,88.3621197100,-53.816497802734375,0.0,3.7900925,,1731488194000,0.080622576,,1123405729345538,2.5,0,,,
Fix,GPS,22.5666356300,88.3621195900,-53.6434326171875,0.16,3.7900925,16.8,1731488195000,0.82680106,20.075314,1123406729345538,2.5,0,,,
Fix,GPS,22.5666361400,88.3621185700,-53.660919189453125,0.19,3.7900925,16.8,1731488196000,0.82680106,20.146322,1123407729345538,2.5,0,,,
Fix,GPS,22.5666367300,88.3621173800,-53.6396484375,0.0,3.7900925,,1731488197000,0.82680106,,1123408729345538,2.5,0,,,
Fix,GPS,22.5666360400,88.3621175600,-53.6619873046875,0.0,3.7900925,,1731488198000,0.080622576,,1123409729345538,2.5,0,,,
Fix,GPS,22.5666357000,88.3621175200,-53.83294677734375,0.0,3.7900925,,1731488199000,0.080622576,,1123410729345538,2.5,0,,,
Fix,GPS,22.5666359200,88.3621172400,-53.90740966796875,0.0,3.7900925,,1731488200000,0.080622576,,1123411729345538,2.5,0,,,
Fix,GPS,22.5666355600,88.3621170800,-53.711151123046875,0.0,3.7900925,,1731488201000,0.080622576,,1123412729345538,2.5,0,,,
Fix,GPS,22.5666349200,88.3621168000,-53.64385986328125,0.0,3.7900925,,1731488202000,0.080622576,,1123413729345538,2.5,0,,,
Fix,GPS,22.5666351400,88.3621162000,-53.4896240234375,0.0,3.7900925,,1731488203000,0.080622576,,1123414729345538,2.5,0,,,
Fix,GPS,22.5666353200,88.3621159500,-53.466644287109375,0.0,3.7900925,,1731488204000,0.080622576,,1123415729345538,2.5,0,,,
Fix,GPS,22.5666354100,88.3621152100,-53.50634765625,0.0,3.7900925,,1731488205000,0.82680106,,1123416729345538,2.5,0,,,
Fix,GPS,22.5666352300,88.3621159200,-53.73382568359375,0.0,3.7900925,,1731488206000,0.080622576,,1123417729345538,2.5,0,,,
Fix,GPS,22.5666345200,88.3621173500,-53.74951171875,0.0,3.7900925,,1731488207000,0.080622576,,1123418729345538,2.5,0,,,
Fix,GPS,22.5666349800,88.3621180500,-53.91845703125,0.0,3.7900925,,1731488208000,0.080622576,,1123419729345538,2.5,0,,,
Fix,GPS,22.5666353800,88.3621186800,-54.058135986328125,0.0,3.7900925,,1731488209000,0.080622576,,1123420729345538,2.5,0,,,
Fix,GPS,22.5666354400,88.3621190500,-53.972808837890625,0.0,3.7900925,,1731488210000,0.080622576,,1123421729345538,2.5,0,,,
Fix,GPS,22.5666349600,88.3621188700,-54.134613037109375,0.0,3.7900925,,1731488211000,0.080622576,,1123422729345538,2.5,0,,,
Fix,GPS,22.5666355200,88.3621183300,-54.218719482421875,0.16,3.7900925,16.8,1731488212000,0.82680106,20.422895,1123423729345538,2.5,0,,,
Fix,GPS,22.5666360300,88.3621172800,-54.217864990234375,0.0,3.7900925,,1731488213000,0.82680106,,1123424729345538,2.5,0,,,
Fix,GPS,22.5666344600,88.3621173800,-54.05035400390625,0.0,3.7900925,,1731488214000,0.080622576,,1123425729345538,2.5,0,,,
Fix,GPS,22.5666336000,88.3621178600,-53.987060546875,0.0,3.7900925,,1731488215000,0.080622576,,1123426729345538,2.5,0,,,
Fix,GPS,22.5666331000,88.3621187300,-54.34375,0.0,3.7900925,,1731488216000,0.080622576,,1123427729345538,2.5,0,,,
Fix,GPS,22.5666326500,88.3621195300,-54.295928955078125,0.0,3.7900925,,1731488217000,0.080622576,,1123428729345538,2.5,0,,,
Fix,GPS,22.5666324300,88.3621205300,-54.273834228515625,0.0,3.7900925,,1731488218000,0.080622576,,1123429729345538,2.5,0,,,
Fix,GPS,22.5666324600,88.3621212000,-54.270599365234375,0.0,3.7900925,,1731488219000,0.080622576,,1123430729345538,2.5,0,,,
Fix,GPS,22.5666326400,88.3621210400,-54.388031005859375,0.0,3.7900925,,1731488220000,0.080622576,,1123431729345538,2.5,0,,,
Fix,GPS,22.5666329800,88.3621204500,-54.2841796875,0.0,3.7900925,,1731488221000,0.82680106,,1123432729345538,2.5,0,,,
Fix,GPS,22.5666328600,88.3621210100,-54.317718505859375,0.0,3.7900925,,1731488222000,0.080622576,,1123433729345538,2.5,0,,,
Fix,GPS,22.5666322300,88.3621215300,-54.28369140625,0.0,3.7900925,,1731488223000,0.06403124,,1123434729345538,2.5,0,,,
Fix,GPS,22.5666313500,88.3621214900,-54.25616455078125,0.0,3.7900925,,1731488224000,0.080622576,,1123435729345538,2.5,0,,,
Fix,GPS,22.5666314000,88.3621212800,-54.123291015625,0.0,3.7900925,,1731488225000,0.080622576,,1123436729345538,2.5,0,,,
Fix,GPS,22.5666312300,88.3621204500,-54.192718505859375,0.0,3.7900925,,1731488226000,0.080622576,,1123437729345538,2.5,0,,,
Fix,GPS,22.5666307500,88.3621199600,-54.22027587890625,0.0,3.7900925,,1731488227000,0.080622576,,1123438729345538,2.5,0,,,
Fix,GPS,22.5666308600,88.3621200300,-54.23284912109375,0.0,3.7900925,,1731488228000,0.080622576,,1123439729345538,2.5,0,,,
Fix,GPS,22.5666298500,88.3621193300,-54.079986572265625,0.19,3.7900925,16.8,1731488229000,0.82680106,20.808657,1123440729345538,2.5,0,,,
Fix,GPS,22.5666289800,88.3621193300,-54.14715576171875,0.0,3.7900925,,1731488230000,0.080622576,,1123441729345538,2.5,0,,,
Fix,GPS,22.5666294100,88.3621201600,-54.019287109375,0.0,3.7900925,,1731488231000,0.080622576,,1123442729345538,2.5,0,,,
Fix,GPS,22.5666299800,88.3621207500,-53.969573974609375,0.0,3.7900925,,1731488232000,0.080622576,,1123443729345538,2.5,0,,,
Fix,GPS,22.5666309700,88.3621210700,-54.011199951171875,0.0,3.7900925,,1731488233000,0.080622576,,1123444729345538,2.5,0,,,
Fix,GPS,22.5666301300,88.3621209700,-54.100067138671875,0.22,3.7900925,16.8,1731488234000,0.82680106,20.952768,1123445729345538,2.5,0,,,
Fix,GPS,22.5666289200,88.3621197400,-53.87518310546875,0.0,3.7900925,,1731488235000,0.080622576,,1123446729345538,2.5,0,,,
Fix,GPS,22.5666275300,88.3621184500,-53.7066650390625,0.0,3.7900925,,1731488236000,0.080622576,,1123447729345538,2.5,0,,,
Fix,GPS,22.5666263600,88.3621162300,-53.68438720703125,0.0,3.7900925,,1731488237000,0.080622576,,1123448729345538,2.5,0,,,
Fix,GPS,22.5666249900,88.3621142800,-53.748931884765625,0.15,3.7900925,16.8,1731488238000,0.82680106,21.001837,1123449729345538,2.5,0,,,
Fix,GPS,22.5666234400,88.3621119700,-53.7872314453125,0.0,3.7900925,,1731488239000,0.080622576,,1123450729345538,2.5,0,,,
Fix,GPS,22.5666225300,88.3621115000,-53.986724853515625,0.0,3.7900925,,1731488240000,0.080622576,,1123451729345538,2.5,0,,,
Fix,GPS,22.5666221200,88.3621112500,-53.986236572265625,0.0,3.7900925,,1731488241000,0.080622576,,1123452729345538,2.5,0,,,
Fix,GPS,22.5666219900,88.3621113500,-54.007171630859375,0.0,3.7900925,,1731488242000,0.080622576,,1123453729345538,2.5,0,,,
Fix,GPS,22.5666219700,88.3621113800,-54.004730224609375,0.0,3.7900925,,1731488243000,0.080622576,,1123454729345538,2.5,0,,,
Fix,GPS,22.5666216100,88.3621118600,-53.739654541015625,0.0,3.7900925,,1731488244000,0.82680106,,1123455729345538,2.5,0,,,
Fix,GPS,22.5666222700,88.3621123400,-53.79638671875,0.0,3.7900925,,1731488245000,0.080622576,,1123456729345538,2.5,0,,,
Fix,GPS,22.5666230500,88.3621127100,-53.78759765625,0.0,3.7900925,,1731488246000,0.080622576,,1123457729345538,2.5,0,,,
Fix,GPS,22.5666244000,88.3621129800,-53.76513671875,0.0,3.7900925,,1731488247000,0.080622576,,1123458729345538,2.5,0,,,
