NMEA,$GPGSV,4,1,13,03,21,204,26,04,88,348,33,07,26,311,23,08,57,143,40,1*63,1732608754693
NMEA,$GPGSV,4,2,13,09,55,318,27,16,31,034,38,27,50,080,44,02,00,000,,1*65,1732608754693
NMEA,$GPGSV,4,3,13,21,04,161,,26,05,049,,31,10,087,,40,00,000,36,1*61,1732608754693
NMEA,$GPGSV,4,4,13,41,00,000,38,1*58,1732608754693
NMEA,$GPGSV,2,1,05,03,21,204,23,04,88,348,31,08,57,143,38,09,55,318,19,8*69,1732608754693
NMEA,$GPGSV,2,2,05,27,50,080,37,8*54,1732608754693
NMEA,$GLGSV,3,1,09,78,21,273,32,66,61,194,35,86,12,070,18,77,42,341,16,1*71,1732608754693
NMEA,$GLGSV,3,2,09,76,21,031,37,65,14,167,23,87,15,117,25,67,49,314,24,1*74,1732608754693
NMEA,$GLGSV,3,3,09,68,04,333,16,1*4F,1732608754693
NMEA,$GAGSV,2,1,07,04,45,323,23,06,19,321,27,19,71,131,36,21,35,032,35,7*70,1732608754693
NMEA,$GAGSV,2,2,07,29,24,138,25,31,29,243,24,26,01,129,,7*41,1732608754693
NMEA,$GAGSV,2,1,06,04,45,323,14,06,19,321,19,19,71,131,31,21,35,032,31,1*7D,1732608754693
NMEA,$GAGSV,2,2,06,29,24,138,18,31,29,243,17,1*77,1732608754693
NMEA,$GQGSV,1,1,01,02,38,056,41,1*5B,1732608754693
NMEA,$GQGSV,1,1,03,02,38,056,31,03,12,111,16,04,20,143,24,8*57,1732608754693
NMEA,$GBGSV,7,1,28,60,59,199,39,59,26,108,26,45,38,298,29,40,65,107,36,1*78,1732608754693
NMEA,$GBGSV,7,2,28,39,45,068,41,36,48,012,29,30,28,092,25,29,24,154,40,1*74,1732608754693
NMEA,$GBGSV,7,3,28,22,57,261,37,21,20,314,29,19,35,180,36,16,47,057,37,1*77,1732608754693
NMEA,$GBGSV,7,4,28,10,67,166,25,09,54,026,32,07,71,133,38,06,51,049,39,1*7A,1732608754693
NMEA,$GBGSV,7,5,28,05,47,236,32,03,52,135,37,02,62,191,35,01,22,106,31,1*74,1732608754693
NMEA,$GBGSV,7,6,28,04,07,099,,08,02,178,,13,08,186,,27,04,050,,1*7B,1732608754693
NMEA,$GBGSV,7,7,28,46,14,058,,50,00,000,,61,52,134,,62,08,095,,1*75,1732608754693
NMEA,$GBGSV,3,1,09,19,35,180,39,21,20,314,28,22,57,261,34,29,24,154,39,3*78,1732608754693
NMEA,$GBGSV,3,2,09,30,28,092,30,36,48,012,30,39,45,068,34,40,65,107,34,3*70,1732608754693
NMEA,$GBGSV,3,3,09,45,38,298,22,3*44,1732608754693
NMEA,$GBGSV,3,1,09,19,35,180,36,21,20,314,17,22,57,261,32,29,24,154,13,5*73,1732608754693
NMEA,$GBGSV,3,2,09,30,28,092,30,36,48,012,16,39,45,068,36,40,65,107,36,5*72,1732608754693
NMEA,$GBGSV,3,3,09,45,38,298,23,5*43,1732608754693
NMEA,$GNGSA,A,3,03,04,07,08,09,16,27,,,,,,0.6,0.3,0.5,1*32,1732608754725
NMEA,$GNGSA,A,3,65,66,67,76,78,87,,,,,,,0.6,0.3,0.5,2*31,1732608754725
NMEA,$GNGSA,A,3,04,06,19,21,29,31,,,,,,,0.6,0.3,0.5,3*33,1732608754725
NMEA,$GNGSA,A,3,02,03,06,07,09,10,13,16,19,21,22,29,0.6,0.3,0.5,4*39,1732608754725
NMEA,$GNGSA,A,3,02,03,04,,,,,,,,,,0.6,0.3,0.5,5*30,1732608754725
NMEA,$GNVTG,,T,,M,0.0,N,0.0,K,A*3D,1732608754725
NMEA,$GNDTM,W84,,0000.000000,N,00000.000000,E,0.000,W84*41,1732608754725
NMEA,$GNRMC,081235.00,A,2235.669800,N,08821.673222,E,0.0,,261124,0.5,W,A,V*63,1732608754725
NMEA,$GNGNS,081235.00,2235.669800,N,08821.673222,E,AAAAAN,40,0.3,-2.3,-57.0,,,V*20,1732608754725
NMEA,$GNGGA,081235.00,2235.669800,N,08821.673222,E,1,12,0.3,-2.3,M,-57.0,M,,*78,1732608754725
NMEA,$GPGSV,4,1,13,03,21,204,27,04,88,348,35,07,26,311,25,08,57,143,41,1*63,1732608755692
NMEA,$GPGSV,4,2,13,09,55,318,30,16,31,034,36,27,50,080,44,02,00,000,,1*6D,1732608755692
NMEA,$GPGSV,4,3,13,21,04,161,,26,05,049,,31,10,087,,40,00,000,38,1*6F,1732608755692
NMEA,$GPGSV,4,4,13,41,00,000,35,1*55,1732608755692
NMEA,$GPGSV,2,1,05,03,21,204,24,04,88,348,30,08,57,143,35,09,55,318,19,8*62,1732608755692
NMEA,$GPGSV,2,2,05,27,50,080,36,8*55,1732608755692
NMEA,$GLGSV,3,1,09,78,21,273,31,66,61,194,32,86,12,070,16,77,42,341,13,1*7E,1732608755692
NMEA,$GLGSV,3,2,09,76,21,031,35,65,14,167,24,87,15,117,25,67,49,314,23,1*76,1732608755692
NMEA,$GLGSV,3,3,09,68,04,333,19,1*40,1732608755692
NMEA,$GAGSV,2,1,07,04,45,323,22,06,19,321,27,19,71,131,36,21,35,032,36,7*72,1732608755692
NMEA,$GAGSV,2,2,07,29,24,138,24,31,29,243,25,26,01,129,,7*41,1732608755692
NMEA,$GAGSV,2,1,06,04,45,323,14,06,19,321,18,19,71,131,30,21,35,032,31,1*7D,1732608755692
NMEA,$GAGSV,2,2,06,29,24,138,20,31,29,243,20,1*78,1732608755692
NMEA,$GQGSV,1,1,01,02,38,056,40,1*5A,1732608755692
NMEA,$GQGSV,1,1,03,02,38,056,31,03,12,111,12,04,20,143,21,8*56,1732608755692
NMEA,$GBGSV,7,1,28,60,59,199,38,59,26,108,26,45,38,298,30,40,65,107,37,1*70,1732608755692
NMEA,$GBGSV,7,2,28,39,45,068,38,36,48,012,30,30,28,092,27,29,24,154,41,1*71,1732608755692
NMEA,$GBGSV,7,3,28,22,57,261,38,21,20,314,29,19,35,180,37,16,47,057,37,1*79,1732608755692
NMEA,$GBGSV,7,4,28,10,67,166,30,09,54,026,31,07,71,133,38,06,51,049,39,1*7D,1732608755692
NMEA,$GBGSV,7,5,28,05,47,236,32,03,52,135,37,02,62,191,32,01,22,106,31,1*73,1732608755692
NMEA,$GBGSV,7,6,28,04,07,099,,08,02,178,,13,08,186,,27,04,050,,1*7B,1732608755692
NMEA,$GBGSV,7,7,28,46,14,058,,50,00,000,,61,52,134,,62,08,095,,1*75,1732608755692
NMEA,$GBGSV,3,1,09,19,35,180,40,21,20,314,27,22,57,261,37,29,24,154,40,3*74,1732608755692
NMEA,$GBGSV,3,2,09,30,28,092,32,36,48,012,30,39,45,068,30,40,65,107,36,3*74,1732608755692
NMEA,$GBGSV,3,3,09,45,38,298,21,3*47,1732608755692
NMEA,$GBGSV,3,1,09,19,35,180,35,21,20,314,17,22,57,261,31,29,24,154,18,5*78,1732608755692
NMEA,$GBGSV,3,2,09,30,28,092,30,36,48,012,22,39,45,068,34,40,65,107,36,5*77,1732608755692
NMEA,$GBGSV,3,3,09,45,38,298,21,5*41,1732608755692
NMEA,$GNGSA,A,3,03,04,07,08,09,16,27,,,,,,0.6,0.3,0.5,1*32,1732608755724
NMEA,$GNGSA,A,3,65,66,67,76,78,87,,,,,,,0.6,0.3,0.5,2*31,1732608755724
NMEA,$GNGSA,A,3,04,06,19,21,29,31,,,,,,,0.6,0.3,0.5,3*33,1732608755724
NMEA,$GNGSA,A,3,02,03,06,07,09,10,13,16,19,21,22,29,0.6,0.3,0.5,4*39,1732608755724
NMEA,$GNGSA,A,3,02,03,04,,,,,,,,,,0.6,0.3,0.5,5*30,1732608755724
NMEA,$GNVTG,,T,,M,0.0,N,0.0,K,A*3D,1732608755724
NMEA,$GNDTM,W84,,0000.000000,N,00000.000000,E,0.000,W84*41,1732608755724
NMEA,$GNRMC,081236.00,A,2235.669791,N,08821.673235,E,0.0,,261124,0.5,W,A,V*61,1732608755724
NMEA,$GNGNS,081236.00,2235.669791,N,08821.673235,E,AAAAAN,40,0.3,-2.3,-57.0,,,V*22,1732608755724
NMEA,$GNGGA,081236.00,2235.669791,N,08821.673235,E,1,12,0.3,-2.3,M,-57.0,M,,*7A,1732608755724
NMEA,$GPGSV,4,1,13,03,21,204,30,04,88,348,36,08,57,143,41,09,55,318,30,1*61,1732608756691
NMEA,$GPGSV,4,2,13,16,31,034,31,27,50,080,44,02,00,000,,07,26,311,,1*6A,1732608756691
NMEA,$GPGSV,4,3,13,21,04,161,,26,05,049,,31,10,087,,40,00,000,39,1*6E,1732608756691
NMEA,$GPGSV,4,4,13,41,00,000,29,1*58,1732608756691
NMEA,$GPGSV,2,1,05,03,21,204,23,04,88,348,31,08,57,143,36,09,55,318,19,8*67,1732608756691
NMEA,$GPGSV,2,2,05,27,50,080,35,8*56,1732608756691
NMEA,$GLGSV,3,1,09,78,21,273,32,66,61,194,33,86,12,070,16,77,42,341,17,1*78,1732608756691
NMEA,$GLGSV,3,2,09,76,21,031,35,65,14,167,25,87,15,117,26,67,49,314,17,1*73,1732608756691
NMEA,$GLGSV,3,3,09,68,04,333,18,1*41,1732608756691
NMEA,$GAGSV,2,1,07,04,45,323,16,06,19,321,26,19,71,131,36,21,35,032,32,7*70,1732608756691
NMEA,$GAGSV,2,2,07,29,24,138,23,31,29,243,21,26,01,129,,7*42,1732608756691
NMEA,$GAGSV,2,1,06,04,45,323,14,06,19,321,18,19,71,131,30,21,35,032,27,1*7A,1732608756691
NMEA,$GAGSV,2,2,06,29,24,138,24,31,29,243,20,1*7C,1732608756691
NMEA,$GQGSV,1,1,02,02,38,056,41,04,20,143,26,1*6C,1732608756691
NMEA,$GQGSV,1,1,03,02,38,056,31,03,12,111,12,04,20,143,20,8*57,1732608756691
NMEA,$GBGSV,7,1,28,62,08,095,21,60,59,199,38,59,26,108,26,45,38,298,24,1*73,1732608756691
NMEA,$GBGSV,7,2,28,40,65,107,37,39,45,068,34,36,48,012,29,30,28,092,27,1*78,1732608756691
NMEA,$GBGSV,7,3,28,29,24,154,42,22,57,261,36,21,20,314,23,19,35,180,39,1*7A,1732608756691
NMEA,$GBGSV,7,4,28,16,47,057,39,13,08,186,28,10,67,166,33,09,54,026,31,1*73,1732608756691
NMEA,$GBGSV,7,5,28,07,71,133,39,06,51,049,39,05,47,236,34,03,52,135,37,1*70,1732608756691
NMEA,$GBGSV,7,6,28,02,62,191,32,01,22,106,32,04,07,099,,08,02,178,,1*73,1732608756691
NMEA,$GBGSV,7,7,28,27,04,050,,46,14,058,,50,00,000,,61,52,134,,1*71,1732608756691
NMEA,$GBGSV,3,1,09,19,35,180,40,21,20,314,29,22,57,261,36,29,24,154,41,3*7A,1732608756691
NMEA,$GBGSV,3,2,09,30,28,092,32,36,48,012,22,39,45,068,33,40,65,107,38,3*7A,1732608756691
NMEA,$GBGSV,3,3,09,45,38,298,20,3*46,1732608756691
NMEA,$GBGSV,3,1,09,19,35,180,34,21,20,314,19,22,57,261,32,29,24,154,21,5*7E,1732608756691
NMEA,$GBGSV,3,2,09,30,28,092,32,36,48,012,19,39,45,068,33,40,65,107,35,5*79,1732608756691
NMEA,$GBGSV,3,3,09,45,38,298,22,5*42,1732608756691
NMEA,$GNGSA,A,3,03,04,07,08,09,16,27,,,,,,0.6,0.3,0.5,1*32,1732608756721
NMEA,$GNGSA,A,3,65,66,67,76,78,87,,,,,,,0.6,0.3,0.5,2*31,1732608756721
NMEA,$GNGSA,A,3,04,06,19,21,29,31,,,,,,,0.6,0.3,0.5,3*33,1732608756721
NMEA,$GNGSA,A,3,02,03,06,07,09,10,13,16,19,21,22,29,0.6,0.3,0.5,4*39,1732608756721
NMEA,$GNGSA,A,3,02,03,04,,,,,,,,,,0.6,0.3,0.5,5*30,1732608756721
NMEA,$GNVTG,,T,,M,0.0,N,0.0,K,A*3D,1732608756721
NMEA,$GNDTM,W84,,0000.000000,N,00000.000000,E,0.000,W84*41,1732608756721
NMEA,$GNRMC,081237.00,A,2235.669788,N,08821.673240,E,0.0,,261124,0.5,W,A,V*6A,1732608756721
NMEA,$GNGNS,081237.00,2235.669788,N,08821.673240,E,AAAAAN,40,0.3,-2.2,-57.0,,,V*28,1732608756721
NMEA,$GNGGA,081237.00,2235.669788,N,08821.673240,E,1,12,0.3,-2.2,M,-57.0,M,,*70,1732608756721
NMEA,$GPGSV,4,1,13,03,21,204,28,04,88,348,35,08,57,143,41,09,55,318,29,1*63,1732608757691
NMEA,$GPGSV,4,2,13,16,31,034,35,27,50,080,43,31,10,087,20,02,00,000,,1*67,1732608757691
NMEA,$GPGSV,4,3,13,07,26,311,,21,04,161,,26,05,049,,40,00,000,38,1*63,1732608757691
NMEA,$GPGSV,4,4,13,41,00,000,37,1*57,1732608757691
NMEA,$GPGSV,2,1,05,03,21,204,28,04,88,348,32,08,57,143,31,09,55,318,16,8*67,1732608757691
NMEA,$GPGSV,2,2,05,27,50,080,36,8*55,1732608757691
NMEA,$GLGSV,3,1,09,78,21,273,30,66,61,194,38,86,12,070,16,77,42,341,17,1*71,1732608757691
NMEA,$GLGSV,3,2,09,76,21,031,34,65,14,167,23,87,15,117,26,67,49,314,25,1*75,1732608757691
NMEA,$GLGSV,3,3,09,68,04,333,19,1*40,1732608757691
NMEA,$GAGSV,2,1,07,04,45,323,18,06,19,321,22,19,71,131,33,21,35,032,37,7*7A,1732608757691
NMEA,$GAGSV,2,2,07,29,24,138,21,31,29,243,23,26,01,129,,7*42,1732608757691
NMEA,$GAGSV,2,1,06,04,45,323,18,06,19,321,18,19,71,131,26,21,35,032,30,1*77,1732608757691
NMEA,$GAGSV,2,2,06,29,24,138,20,31,29,243,23,1*7B,1732608757691
NMEA,$GQGSV,1,1,01,02,38,056,39,1*54,1732608757691
NMEA,$GQGSV,1,1,03,02,38,056,31,03,12,111,12,04,20,143,22,8*55,1732608757691
NMEA,$GBGSV,7,1,28,62,08,095,21,60,59,199,37,59,26,108,26,45,38,298,25,1*7D,1732608757691
NMEA,$GBGSV,7,2,28,40,65,107,40,39,45,068,32,36,48,012,33,30,28,092,31,1*72,1732608757691
NMEA,$GBGSV,7,3,28,29,24,154,41,22,57,261,36,21,20,314,28,19,35,180,38,1*73,1732608757691
NMEA,$GBGSV,7,4,28,16,47,057,40,13,08,186,24,10,67,166,34,09,54,026,30,1*77,1732608757691
NMEA,$GBGSV,7,5,28,07,71,133,38,06,51,049,38,05,47,236,29,03,52,135,34,1*7F,1732608757691
NMEA,$GBGSV,7,6,28,02,62,191,28,01,22,106,32,04,07,099,,08,02,178,,1*78,1732608757691
NMEA,$GBGSV,7,7,28,27,04,050,,46,14,058,,50,00,000,,61,52,134,,1*71,1732608757691
NMEA,$GBGSV,3,1,09,19,35,180,40,21,20,314,25,22,57,261,33,29,24,154,40,3*72,1732608757691
NMEA,$GBGSV,3,2,09,30,28,092,35,36,48,012,32,39,45,068,35,40,65,107,39,3*7B,1732608757691
NMEA,$GBGSV,3,3,09,45,38,298,27,3*41,1732608757691
NMEA,$GBGSV,3,1,09,19,35,180,34,21,20,314,21,22,57,261,33,29,24,154,26,5*73,1732608757691
NMEA,$GBGSV,3,2,09,30,28,092,31,36,48,012,26,39,45,068,31,40,65,107,37,5*76,1732608757691
NMEA,$GBGSV,3,3,09,45,38,298,19,5*4A,1732608757691
NMEA,$GNGSA,A,3,03,04,07,08,09,16,27,,,,,,0.6,0.3,0.5,1*32,1732608757702
NMEA,$GNGSA,A,3,65,66,67,76,78,87,,,,,,,0.6,0.3,0.5,2*31,1732608757702
NMEA,$GNGSA,A,3,04,06,19,21,29,31,,,,,,,0.6,0.3,0.5,3*33,1732608757702
NMEA,$GNGSA,A,3,02,03,06,07,09,10,13,16,19,21,22,29,0.6,0.3,0.5,4*39,1732608757702
NMEA,$GNGSA,A,3,02,04,,,,,,,,,,,0.6,0.3,0.5,5*33,1732608757702
NMEA,$GNVTG,,T,,M,0.0,N,0.0,K,A*3D,1732608757702
NMEA,$GNDTM,W84,,0000.000000,N,00000.000000,E,0.000,W84*41,1732608757702
NMEA,$GNRMC,081238.00,A,2235.669784,N,08821.673241,E,0.0,,261124,0.5,W,A,V*68,1732608757702
NMEA,$GNGNS,081238.00,2235.669784,N,08821.673241,E,AAAAAN,39,0.3,-2.2,-57.0,,,V*24,1732608757702
NMEA,$GNGGA,081238.00,2235.669784,N,08821.673241,E,1,12,0.3,-2.2,M,-57.0,M,,*72,1732608757702
NMEA,$GPGSV,4,1,13,03,21,204,25,04,88,348,32,07,26,311,26,08,57,143,40,1*64,1732608758689
NMEA,$GPGSV,4,2,13,09,55,318,26,16,31,034,35,27,50,080,44,31,10,087,20,1*65,1732608758689
NMEA,$GPGSV,4,3,13,02,00,000,,21,04,161,,26,05,049,,40,00,000,38,1*61,1732608758689
NMEA,$GPGSV,4,4,13,41,00,000,36,1*56,1732608758689
NMEA,$GPGSV,2,1,05,03,21,204,21,04,88,348,28,08,57,143,32,09,55,318,19,8*69,1732608758689
NMEA,$GPGSV,2,2,05,27,50,080,35,8*56,1732608758689
NMEA,$GLGSV,3,1,09,78,21,273,27,66,61,194,35,86,12,070,16,77,42,341,17,1*7A,1732608758689
NMEA,$GLGSV,3,2,09,76,21,031,37,65,14,167,18,87,15,117,23,67,49,314,25,1*7B,1732608758689
NMEA,$GLGSV,3,3,09,68,04,333,19,1*40,1732608758689
NMEA,$GAGSV,2,1,07,04,45,323,20,06,19,321,24,19,71,131,35,21,35,032,36,7*70,1732608758689
NMEA,$GAGSV,2,2,07,29,24,138,21,31,29,243,24,26,01,129,,7*45,1732608758689
NMEA,$GAGSV,2,1,06,04,45,323,18,06,19,321,18,19,71,131,27,21,35,032,30,1*76,1732608758689
NMEA,$GAGSV,2,2,06,29,24,138,17,31,29,243,17,1*78,1732608758689
NMEA,$GQGSV,1,1,01,02,38,056,42,1*58,1732608758689
NMEA,$GQGSV,1,1,03,02,38,056,31,03,12,111,14,04,20,143,19,8*5B,1732608758689
NMEA,$GBGSV,7,1,28,62,08,095,21,60,59,199,36,59,26,108,26,45,38,298,27,1*7E,1732608758689
NMEA,$GBGSV,7,2,28,40,65,107,39,39,45,068,37,36,48,012,31,30,28,092,31,1*7B,1732608758689
NMEA,$GBGSV,7,3,28,29,24,154,38,22,57,261,40,21,20,314,31,19,35,180,37,1*7B,1732608758689
NMEA,$GBGSV,7,4,28,16,47,057,38,10,67,166,31,09,54,026,28,07,71,133,39,1*7D,1732608758689
NMEA,$GBGSV,7,5,28,06,51,049,40,05,47,236,29,03,52,135,35,02,62,191,30,1*76,1732608758689
NMEA,$GBGSV,7,6,28,01,22,106,29,04,07,099,,08,02,178,,13,08,186,,1*72,1732608758689
NMEA,$GBGSV,7,7,28,27,04,050,,46,14,058,,50,00,000,,61,52,134,,1*71,1732608758689
NMEA,$GBGSV,3,1,09,19,35,180,38,21,20,314,25,22,57,261,36,29,24,154,36,3*79,1732608758689
NMEA,$GBGSV,3,2,09,30,28,092,31,36,48,012,33,39,45,068,32,40,65,107,38,3*78,1732608758689
NMEA,$GBGSV,3,3,09,45,38,298,24,3*42,1732608758689
NMEA,$GBGSV,3,1,09,19,35,180,30,21,20,314,18,22,57,261,28,29,24,154,23,5*72,1732608758689
NMEA,$GBGSV,3,2,09,30,28,092,24,36,48,012,23,39,45,068,32,40,65,107,33,5*70,1732608758689
NMEA,$GBGSV,3,3,09,45,38,298,19,5*4A,1732608758689
NMEA,$GNGSA,A,3,03,04,07,08,09,16,27,,,,,,0.6,0.3,0.5,1*32,1732608758723
NMEA,$GNGSA,A,3,65,66,67,76,78,87,,,,,,,0.6,0.3,0.5,2*31,1732608758723
NMEA,$GNGSA,A,3,04,06,19,21,29,31,,,,,,,0.6,0.3,0.5,3*33,1732608758723
NMEA,$GNGSA,A,3,02,03,06,07,09,10,13,16,19,21,22,29,0.6,0.3,0.5,4*39,1732608758723
NMEA,$GNGSA,A,3,02,04,,,,,,,,,,,0.6,0.3,0.5,5*33,1732608758723
NMEA,$GNVTG,,T,,M,0.0,N,0.0,K,A*3D,1732608758723
NMEA,$GNDTM,W84,,0000.000000,N,00000.000000,E,0.000,W84*41,1732608758723
NMEA,$GNRMC,081239.00,A,2235.669779,N,08821.673249,E,0.0,,261124,0.5,W,A,V*63,1732608758723
NMEA,$GNGNS,081239.00,2235.669779,N,08821.673249,E,AAAAAN,39,0.3,-2.2,-57.0,,,V*2F,1732608758723
NMEA,$GNGGA,081239.00,2235.669779,N,08821.673249,E,1,12,0.3,-2.2,M,-57.0,M,,*79,1732608758723
NMEA,$GPGSV,4,1,13,03,21,204,23,04,88,348,33,08,57,143,39,09,55,318,27,1*6F,1732608759691
NMEA,$GPGSV,4,2,13,16,31,034,37,27,50,080,45,02,00,000,,07,26,311,,1*6D,1732608759691
NMEA,$GPGSV,4,3,13,21,04,161,,26,05,049,,31,10,087,,40,00,000,40,1*60,1732608759691
NMEA,$GPGSV,4,4,13,41,00,000,34,1*54,1732608759691
NMEA,$GPGSV,2,1,05,03,21,204,20,04,88,348,31,08,57,143,35,09,55,318,19,8*67,1732608759691
NMEA,$GPGSV,2,2,05,27,50,080,35,8*56,1732608759691
NMEA,$GLGSV,3,1,09,78,21,273,21,66,61,194,34,86,12,070,14,77,42,341,14,1*7C,1732608759691
NMEA,$GLGSV,3,2,09,76,21,031,38,65,14,167,18,87,15,117,20,67,49,314,25,1*77,1732608759691
NMEA,$GLGSV,3,3,09,68,04,333,19,1*40,1732608759691
NMEA,$GAGSV,2,1,07,04,45,323,23,06,19,321,25,19,71,131,35,21,35,032,38,7*7C,1732608759691
NMEA,$GAGSV,2,2,07,29,24,138,19,31,29,243,29,26,01,129,,7*43,1732608759691
NMEA,$GAGSV,2,1,06,04,45,323,14,06,19,321,18,19,71,131,28,21,35,032,28,1*7C,1732608759691
NMEA,$GAGSV,2,2,06,29,24,138,17,31,29,243,19,1*76,1732608759691
NMEA,$GQGSV,1,1,01,02,38,056,41,1*5B,1732608759691
NMEA,$GQGSV,1,1,03,02,38,056,30,03,12,111,14,04,20,143,18,8*5B,1732608759691
NMEA,$GBGSV,7,1,28,62,08,095,21,60,59,199,35,59,26,108,25,45,38,298,27,1*7E,1732608759691
NMEA,$GBGSV,7,2,28,40,65,107,37,39,45,068,38,36,48,012,31,30,28,092,33,1*78,1732608759691
NMEA,$GBGSV,7,3,28,29,24,154,37,22,57,261,39,21,20,314,32,19,35,180,36,1*78,1732608759691
NMEA,$GBGSV,7,4,28,16,47,057,37,10,67,166,29,09,54,026,30,07,71,133,37,1*7C,1732608759691
NMEA,$GBGSV,7,5,28,06,51,049,40,05,47,236,30,03,52,135,35,02,62,191,31,1*7F,1732608759691
NMEA,$GBGSV,7,6,28,01,22,106,31,04,07,099,,08,02,178,,13,08,186,,1*7B,1732608759691
NMEA,$GBGSV,7,7,28,27,04,050,,46,14,058,,50,00,000,,61,52,134,,1*71,1732608759691
NMEA,$GBGSV,3,1,09,19,35,180,38,21,20,314,16,22,57,261,36,29,24,154,34,3*7B,1732608759691
NMEA,$GBGSV,3,2,09,30,28,092,31,36,48,012,33,39,45,068,29,40,65,107,35,3*7F,1732608759691
NMEA,$GBGSV,3,3,09,45,38,298,18,3*4D,1732608759691
NMEA,$GBGSV,3,1,09,19,35,180,28,21,20,314,16,22,57,261,31,29,24,154,20,5*7E,1732608759691
NMEA,$GBGSV,3,2,09,30,28,092,27,36,48,012,20,39,45,068,34,40,65,107,34,5*71,1732608759691
NMEA,$GBGSV,3,3,09,45,38,298,15,5*46,1732608759691
NMEA,$GNGSA,A,3,03,04,07,08,09,16,27,,,,,,0.6,0.3,0.5,1*32,1732608759734
NMEA,$GNGSA,A,3,65,66,67,76,78,87,,,,,,,0.6,0.3,0.5,2*31,1732608759734
NMEA,$GNGSA,A,3,04,06,19,21,29,31,,,,,,,0.6,0.3,0.5,3*33,1732608759734
NMEA,$GNGSA,A,3,02,03,06,07,09,10,13,16,19,21,22,29,0.6,0.3,0.5,4*39,1732608759734
NMEA,$GNGSA,A,3,02,04,,,,,,,,,,,0.6,0.3,0.5,5*33,1732608759734
NMEA,$GNVTG,,T,,M,0.0,N,0.0,K,A*3D,1732608759734
NMEA,$GNDTM,W84,,0000.000000,N,00000.000000,E,0.000,W84*41,1732608759734
NMEA,$GNRMC,081240.00,A,2235.669777,N,08821.673252,E,0.0,,261124,0.5,W,A,V*69,1732608759734
NMEA,$GNGNS,081240.00,2235.669777,N,08821.673252,E,AAAAAN,39,0.3,-2.2,-57.0,,,V*25,1732608759734
NMEA,$GNGGA,081240.00,2235.669777,N,08821.673252,E,1,12,0.3,-2.2,M,-57.0,M,,*73,1732608759734
NMEA,$GPGSV,4,1,13,03,21,204,23,04,88,348,34,08,57,143,39,09,55,318,28,1*67,1732608760689
NMEA,$GPGSV,4,2,13,16,31,034,37,27,50,080,44,31,10,087,21,02,00,000,,1*63,1732608760689
NMEA,$GPGSV,4,3,13,07,26,311,,21,04,161,,26,05,049,,40,00,000,38,1*63,1732608760689
NMEA,$GPGSV,4,4,13,41,00,000,32,1*52,1732608760689
NMEA,$GPGSV,2,1,05,03,21,204,22,04,88,348,30,08,57,143,32,09,55,318,21,8*68,1732608760689
NMEA,$GPGSV,2,2,05,27,50,080,36,8*55,1732608760689
NMEA,$GLGSV,3,1,09,78,21,273,26,66,61,194,33,86,12,070,14,77,42,341,14,1*7C,1732608760689
NMEA,$GLGSV,3,2,09,76,21,031,38,65,14,167,17,87,15,117,25,67,49,314,27,1*7F,1732608760689
NMEA,$GLGSV,3,3,09,68,04,333,20,1*4A,1732608760689
NMEA,$GAGSV,2,1,07,04,45,323,22,06,19,321,26,19,71,131,34,21,35,032,36,7*71,1732608760689
NMEA,$GAGSV,2,2,07,29,24,138,24,31,29,243,27,26,01,129,,7*43,1732608760689
NMEA,$GAGSV,2,1,06,04,45,323,14,06,19,321,21,19,71,131,27,21,35,032,30,1*70,1732608760689
NMEA,$GAGSV,2,2,06,29,24,138,15,31,29,243,20,1*7E,1732608760689
NMEA,$GQGSV,1,1,02,02,38,056,39,03,12,111,22,1*66,1732608760689
NMEA,$GQGSV,1,1,03,02,38,056,31,03,12,111,17,04,20,143,20,8*52,1732608760689
NMEA,$GBGSV,7,1,28,62,08,095,21,60,59,199,35,59,26,108,25,45,38,298,29,1*70,1732608760689
NMEA,$GBGSV,7,2,28,40,65,107,37,39,45,068,36,36,48,012,31,30,28,092,35,1*70,1732608760689
NMEA,$GBGSV,7,3,28,29,24,154,40,22,57,261,39,21,20,314,33,19,35,180,36,1*79,1732608760689
NMEA,$GBGSV,7,4,28,16,47,057,38,10,67,166,30,09,54,026,29,07,71,133,37,1*73,1732608760689
NMEA,$GBGSV,7,5,28,06,51,049,38,05,47,236,30,03,52,135,35,02,62,191,29,1*79,1732608760689
NMEA,$GBGSV,7,6,28,01,22,106,31,04,07,099,,08,02,178,,13,08,186,,1*7B,1732608760689
NMEA,$GBGSV,7,7,28,27,04,050,,46,14,058,,50,00,000,,61,52,134,,1*71,1732608760689
NMEA,$GBGSV,3,1,09,19,35,180,38,21,20,314,16,22,57,261,34,29,24,154,36,3*7B,1732608760689
NMEA,$GBGSV,3,2,09,30,28,092,32,36,48,012,33,39,45,068,29,40,65,107,37,3*7E,1732608760689
NMEA,$GBGSV,3,3,09,45,38,298,18,3*4D,1732608760689
NMEA,$GBGSV,3,1,09,19,35,180,33,21,20,314,19,22,57,261,29,29,24,154,19,5*78,1732608760689
NMEA,$GBGSV,3,2,09,30,28,092,25,36,48,012,18,39,45,068,33,40,65,107,33,5*78,1732608760689
NMEA,$GBGSV,3,3,09,45,38,298,18,5*4B,1732608760689
NMEA,$GNGSA,A,3,03,04,07,08,09,16,27,,,,,,0.6,0.3,0.5,1*32,1732608760724
NMEA,$GNGSA,A,3,65,66,67,76,78,87,,,,,,,0.6,0.3,0.5,2*31,1732608760724
NMEA,$GNGSA,A,3,04,06,19,21,29,31,,,,,,,0.6,0.3,0.5,3*33,1732608760724
NMEA,$GNGSA,A,3,02,03,06,07,09,10,13,16,19,21,22,29,0.6,0.3,0.5,4*39,1732608760724
NMEA,$GNGSA,A,3,02,03,04,,,,,,,,,,0.6,0.3,0.5,5*30,1732608760724
NMEA,$GNVTG,,T,,M,0.0,N,0.0,K,A*3D,1732608760724
NMEA,$GNDTM,W84,,0000.000000,N,00000.000000,E,0.000,W84*41,1732608760724
NMEA,$GNRMC,081241.00,A,2235.669775,N,08821.673255,E,0.0,,261124,0.5,W,A,V*6D,1732608760724
NMEA,$GNGNS,081241.00,2235.669775,N,08821.673255,E,AAAAAN,40,0.3,-2.2,-57.0,,,V*2F,1732608760724
NMEA,$GNGGA,081241.00,2235.669775,N,08821.673255,E,1,12,0.3,-2.2,M,-57.0,M,,*77,1732608760724
NMEA,$GPGSV,4,1,13,03,21,204,22,04,88,348,34,08,57,143,40,09,55,318,30,1*61,1732608761688
NMEA,$GPGSV,4,2,13,16,31,034,36,27,50,080,44,31,10,087,20,02,00,000,,1*63,1732608761688
NMEA,$GPGSV,4,3,13,07,26,311,,21,04,161,,26,05,049,,40,00,000,35,1*6E,1732608761688
NMEA,$GPGSV,4,4,13,41,00,000,33,1*53,1732608761688
NMEA,$GPGSV,2,1,05,03,21,204,21,04,88,348,32,08,57,143,35,09,55,318,21,8*6E,1732608761688
NMEA,$GPGSV,2,2,05,27,50,080,37,8*54,1732608761688
NMEA,$GLGSV,3,1,09,78,21,273,28,66,61,194,31,86,12,070,14,77,42,341,16,1*72,1732608761688
NMEA,$GLGSV,3,2,09,76,21,031,37,65,14,167,18,87,15,117,25,67,49,314,29,1*71,1732608761688
NMEA,$GLGSV,3,3,09,68,04,333,19,1*40,1732608761688
NMEA,$GAGSV,2,1,07,04,45,323,24,06,19,321,23,19,71,131,36,21,35,032,36,7*70,1732608761688
NMEA,$GAGSV,2,2,07,29,24,138,25,31,29,243,28,26,01,129,,7*4D,1732608761688
NMEA,$GAGSV,2,1,06,04,45,323,14,06,19,321,19,19,71,131,29,21,35,032,31,1*74,1732608761688
NMEA,$GAGSV,2,2,06,29,24,138,18,31,29,243,21,1*72,1732608761688
NMEA,$GQGSV,1,1,02,02,38,056,40,03,12,111,23,1*69,1732608761688
NMEA,$GQGSV,1,1,03,02,38,056,33,03,12,111,17,04,20,143,21,8*51,1732608761688
NMEA,$GBGSV,7,1,28,62,08,095,21,60,59,199,37,59,26,108,25,45,38,298,28,1*73,1732608761688
NMEA,$GBGSV,7,2,28,40,65,107,37,39,45,068,38,36,48,012,34,30,28,092,35,1*7B,1732608761688
NMEA,$GBGSV,7,3,28,29,24,154,40,22,57,261,40,21,20,314,33,19,35,180,37,1*76,1732608761688
NMEA,$GBGSV,7,4,28,16,47,057,38,10,67,166,28,09,54,026,31,07,71,133,38,1*7C,1732608761688
NMEA,$GBGSV,7,5,28,06,51,049,38,05,47,236,29,03,52,135,35,02,62,191,30,1*79,1732608761688
NMEA,$GBGSV,7,6,28,01,22,106,31,04,07,099,,08,02,178,,13,08,186,,1*7B,1732608761688
NMEA,$GBGSV,7,7,28,27,04,050,,46,14,058,,50,00,000,,61,52,134,,1*71,1732608761688
NMEA,$GBGSV,3,1,09,19,35,180,39,21,20,314,17,22,57,261,35,29,24,154,39,3*75,1732608761688
NMEA,$GBGSV,3,2,09,30,28,092,32,36,48,012,33,39,45,068,31,40,65,107,36,3*76,1732608761688
NMEA,$GBGSV,3,3,09,45,38,298,23,3*45,1732608761688
NMEA,$GBGSV,3,1,09,19,35,180,34,21,20,314,19,22,57,261,32,29,24,154,20,5*7F,1732608761688
NMEA,$GBGSV,3,2,09,30,28,092,28,36,48,012,20,39,45,068,35,40,65,107,35,5*7E,1732608761688
NMEA,$GBGSV,3,3,09,45,38,298,21,5*41,1732608761688
NMEA,$GNGSA,A,3,03,04,07,08,09,16,27,,,,,,0.6,0.3,0.5,1*32,1732608761710
NMEA,$GNGSA,A,3,65,66,67,76,78,87,,,,,,,0.6,0.3,0.5,2*31,1732608761710
NMEA,$GNGSA,A,3,04,06,19,21,29,31,,,,,,,0.6,0.3,0.5,3*33,1732608761710
NMEA,$GNGSA,A,3,02,03,06,07,09,10,13,16,19,21,22,29,0.6,0.3,0.5,4*39,1732608761710
NMEA,$GNGSA,A,3,02,03,04,,,,,,,,,,0.6,0.3,0.5,5*30,1732608761710
NMEA,$GNVTG,,T,,M,0.0,N,0.0,K,A*3D,1732608761710
NMEA,$GNDTM,W84,,0000.000000,N,00000.000000,E,0.000,W84*41,1732608761710
NMEA,$GNRMC,081242.00,A,2235.669773,N,08821.673259,E,0.0,,261124,0.5,W,A,V*64,1732608761710
NMEA,$GNGNS,081242.00,2235.669773,N,08821.673259,E,AAAAAN,40,0.3,-2.2,-57.0,,,V*26,1732608761710
NMEA,$GNGGA,081242.00,2235.669773,N,08821.673259,E,1,12,0.3,-2.2,M,-57.0,M,,*7E,1732608761710
NMEA,$GPGSV,4,1,13,03,21,204,22,04,88,348,32,07,26,311,25,08,57,143,39,1*6E,1732608762689
NMEA,$GPGSV,4,2,13,09,55,318,29,16,31,034,37,27,50,080,44,31,10,087,19,1*62,1732608762689
NMEA,$GPGSV,4,3,13,02,00,000,,21,04,161,,26,05,049,,40,00,000,36,1*6F,1732608762689
NMEA,$GPGSV,4,4,13,41,00,000,32,1*52,1732608762689
NMEA,$GPGSV,2,1,05,03,21,204,19,04,88,348,29,08,57,143,34,09,55,318,20,8*6F,1732608762689
NMEA,$GPGSV,2,2,05,27,50,080,35,8*56,1732608762689
NMEA,$GLGSV,3,1,09,78,21,273,28,66,61,194,29,86,12,070,16,77,42,341,16,1*79,1732608762689
NMEA,$GLGSV,3,2,09,76,21,031,35,65,14,167,21,87,15,117,24,67,49,314,24,1*75,1732608762689
NMEA,$GLGSV,3,3,09,68,04,333,21,1*4B,1732608762689
NMEA,$GAGSV,2,1,07,04,45,323,23,06,19,321,17,19,71,131,34,21,35,032,35,7*71,1732608762689
NMEA,$GAGSV,2,2,07,29,24,138,26,31,29,243,26,26,01,129,,7*40,1732608762689
NMEA,$GAGSV,2,1,06,04,45,323,14,06,19,321,17,19,71,131,29,21,35,032,28,1*72,1732608762689
NMEA,$GAGSV,2,2,06,29,24,138,18,31,29,243,18,1*78,1732608762689
NMEA,$GQGSV,1,1,02,02,38,056,41,03,12,111,23,1*68,1732608762689
NMEA,$GQGSV,1,1,03,02,38,056,32,03,12,111,17,04,20,143,20,8*51,1732608762689
NMEA,$GBGSV,7,1,28,62,08,095,21,60,59,199,36,59,26,108,25,45,38,298,25,1*7F,1732608762689
NMEA,$GBGSV,7,2,28,40,65,107,36,39,45,068,38,36,48,012,31,30,28,092,32,1*78,1732608762689
NMEA,$GBGSV,7,3,28,29,24,154,37,22,57,261,38,21,20,314,32,19,35,180,34,1*7B,1732608762689
NMEA,$GBGSV,7,4,28,16,47,057,36,10,67,166,27,09,54,026,30,07,71,133,37,1*73,1732608762689
NMEA,$GBGSV,7,5,28,06,51,049,38,05,47,236,29,03,52,135,35,02,62,191,29,1*71,1732608762689
NMEA,$GBGSV,7,6,28,01,22,106,31,04,07,099,,08,02,178,,13,08,186,,1*7B,1732608762689
NMEA,$GBGSV,7,7,28,27,04,050,,46,14,058,,50,00,000,,61,52,134,,1*71,1732608762689
NMEA,$GBGSV,3,1,09,19,35,180,37,21,20,314,19,22,57,261,34,29,24,154,36,3*7B,1732608762689
NMEA,$GBGSV,3,2,09,30,28,092,32,36,48,012,32,39,45,068,32,40,65,107,37,3*75,1732608762689
NMEA,$GBGSV,3,3,09,45,38,298,21,3*47,1732608762689
NMEA,$GBGSV,3,1,09,19,35,180,31,21,20,314,17,22,57,261,28,29,24,154,25,5*7A,1732608762689
NMEA,$GBGSV,3,2,09,30,28,092,26,36,48,012,18,39,45,068,33,40,65,107,34,5*7C,1732608762689
NMEA,$GBGSV,3,3,09,45,38,298,21,5*41,1732608762689
NMEA,$GNGSA,A,3,03,04,07,08,09,16,27,,,,,,0.6,0.3,0.5,1*32,1732608762711
NMEA,$GNGSA,A,3,65,66,67,76,78,87,,,,,,,0.6,0.3,0.5,2*31,1732608762711
NMEA,$GNGSA,A,3,04,06,19,21,29,31,,,,,,,0.6,0.3,0.5,3*33,1732608762711
NMEA,$GNGSA,A,3,02,03,06,07,09,10,13,16,19,21,22,29,0.6,0.3,0.5,4*39,1732608762711
NMEA,$GNGSA,A,3,02,03,04,,,,,,,,,,0.6,0.3,0.5,5*30,1732608762711
NMEA,$GNVTG,,T,,M,0.0,N,0.0,K,A*3D,1732608762711
NMEA,$GNDTM,W84,,0000.000000,N,00000.000000,E,0.000,W84*41,1732608762711
NMEA,$GNRMC,081243.00,A,2235.669770,N,08821.673265,E,0.0,,261124,0.5,W,A,V*69,1732608762711
NMEA,$GNGNS,081243.00,2235.669770,N,08821.673265,E,AAAAAN,40,0.3,-2.2,-57.0,,,V*2B,1732608762711
NMEA,$GNGGA,081243.00,2235.669770,N,08821.673265,E,1,12,0.3,-2.2,M,-57.0,M,,*73,1732608762711
NMEA,$GPGSV,4,1,13,03,21,204,26,04,88,348,34,07,26,311,25,08,57,143,40,1*62,1732608763696
NMEA,$GPGSV,4,2,13,09,55,318,28,16,31,034,38,27,50,080,44,31,10,087,19,1*6C,1732608763696
NMEA,$GPGSV,4,3,13,02,00,000,,21,04,161,,26,05,049,,40,00,000,39,1*60,1732608763696
NMEA,$GPGSV,4,4,13,41,00,000,34,1*54,1732608763696
NMEA,$GPGSV,2,1,05,03,21,204,23,04,88,348,29,08,57,143,35,09,55,318,18,8*6C,1732608763696
NMEA,$GPGSV,2,2,05,27,50,080,36,8*55,1732608763696
NMEA,$GLGSV,3,1,09,78,21,273,24,66,61,194,30,86,12,070,16,77,42,341,16,1*7D,1732608763696
NMEA,$GLGSV,3,2,09,76,21,031,36,65,14,167,20,87,15,117,25,67,49,314,25,1*77,1732608763696
NMEA,$GLGSV,3,3,09,68,04,333,21,1*4B,1732608763696
NMEA,$GAGSV,2,1,07,04,45,323,22,06,19,321,24,19,71,131,36,21,35,032,36,7*71,1732608763696
NMEA,$GAGSV,2,2,07,29,24,138,26,31,29,243,27,26,01,129,,7*41,1732608763696
NMEA,$GAGSV,2,1,06,04,45,323,11,06,19,321,18,19,71,131,29,21,35,032,29,1*79,1732608763696
NMEA,$GAGSV,2,2,06,29,24,138,17,31,29,243,21,1*7D,1732608763696
NMEA,$GQGSV,1,1,02,02,38,056,40,03,12,111,23,1*69,1732608763696
NMEA,$GQGSV,1,1,03,02,38,056,32,03,12,111,16,04,20,143,18,8*5B,1732608763696
NMEA,$GBGSV,7,1,28,62,08,095,21,60,59,199,37,59,26,108,25,45,38,298,26,1*7D,1732608763696
NMEA,$GBGSV,7,2,28,40,65,107,37,39,45,068,39,36,48,012,30,30,28,092,31,1*7A,1732608763696
NMEA,$GBGSV,7,3,28,29,24,154,41,22,57,261,39,21,20,314,31,19,35,180,38,1*74,1732608763696
NMEA,$GBGSV,7,4,28,16,47,057,38,13,08,186,23,10,67,166,28,09,54,026,32,1*70,1732608763696
NMEA,$GBGSV,7,5,28,07,71,133,37,06,51,049,38,05,47,236,30,03,52,135,37,1*7B,1732608763696
NMEA,$GBGSV,7,6,28,02,62,191,33,01,22,106,30,04,07,099,,08,02,178,,1*70,1732608763696
NMEA,$GBGSV,7,7,28,27,04,050,,46,14,058,,50,00,000,,61,52,134,,1*71,1732608763696
NMEA,$GBGSV,3,1,09,19,35,180,39,21,20,314,21,22,57,261,36,29,24,154,39,3*73,1732608763696
NMEA,$GBGSV,3,2,09,30,28,092,32,36,48,012,33,39,45,068,31,40,65,107,35,3*75,1732608763696
NMEA,$GBGSV,3,3,09,45,38,298,18,3*4D,1732608763696
NMEA,$GBGSV,3,1,09,19,35,180,34,21,20,314,20,22,57,261,30,29,24,154,23,5*74,1732608763696
NMEA,$GBGSV,3,2,09,30,28,092,28,36,48,012,16,39,45,068,33,40,65,107,35,5*7D,1732608763696
NMEA,$GBGSV,3,3,09,45,38,298,17,5*44,1732608763696
NMEA,$GNGSA,A,3,03,04,07,08,09,16,27,,,,,,0.6,0.3,0.5,1*32,1732608763707
NMEA,$GNGSA,A,3,65,66,67,76,78,87,,,,,,,0.6,0.3,0.5,2*31,1732608763707
NMEA,$GNGSA,A,3,04,06,19,21,29,31,,,,,,,0.6,0.3,0.5,3*33,1732608763707
NMEA,$GNGSA,A,3,02,03,06,07,09,10,13,16,19,21,22,29,0.6,0.3,0.5,4*39,1732608763707
NMEA,$GNGSA,A,3,02,03,04,,,,,,,,,,0.6,0.3,0.5,5*30,1732608763707
NMEA,$GNVTG,,T,,M,0.0,N,0.0,K,A*3D,1732608763707
NMEA,$GNDTM,W84,,0000.000000,N,00000.000000,E,0.000,W84*41,1732608763707
NMEA,$GNRMC,081244.00,A,2235.669765,N,08821.673271,E,0.0,,261124,0.5,W,A,V*6F,1732608763707
NMEA,$GNGNS,081244.00,2235.669765,N,08821.673271,E,AAAAAN,40,0.3,-2.2,-57.0,,,V*2D,1732608763707
NMEA,$GNGGA,081244.00,2235.669765,N,08821.673271,E,1,12,0.3,-2.2,M,-57.0,M,,*75,1732608763707
NMEA,$GPGSV,4,1,13,03,21,204,27,04,88,348,33,07,26,311,26,08,57,143,40,1*67,1732608764690
NMEA,$GPGSV,4,2,13,09,55,318,31,16,31,034,36,27,50,080,44,31,10,087,19,1*6A,1732608764690
NMEA,$GPGSV,4,3,13,02,00,000,,21,04,161,,26,05,049,,40,00,000,40,1*6E,1732608764690
NMEA,$GPGSV,4,4,13,41,00,000,36,1*56,1732608764690
NMEA,$GPGSV,2,1,05,03,21,204,16,04,88,348,29,08,57,143,37,09,55,318,18,8*68,1732608764690
NMEA,$GPGSV,2,2,05,27,50,080,36,8*55,1732608764690
NMEA,$GLGSV,3,1,09,78,21,273,30,66,61,194,31,86,12,070,16,77,42,341,21,1*7D,1732608764690
NMEA,$GLGSV,3,2,09,76,21,031,36,65,14,167,22,87,15,117,26,67,49,314,26,1*75,1732608764690
NMEA,$GLGSV,3,3,09,68,04,333,19,1*40,1732608764690
NMEA,$GAGSV,2,1,07,04,45,323,22,06,19,321,24,19,71,131,37,21,35,032,37,7*71,1732608764690
NMEA,$GAGSV,2,2,07,29,24,138,29,31,29,243,26,26,01,129,,7*4F,1732608764690
NMEA,$GAGSV,2,1,06,04,45,323,16,06,19,321,19,19,71,131,30,21,35,032,26,1*78,1732608764690
NMEA,$GAGSV,2,2,06,29,24,138,17,31,29,243,20,1*7C,1732608764690
NMEA,$GQGSV,1,1,02,02,38,056,42,04,20,143,24,1*6D,1732608764690
NMEA,$GQGSV,1,1,03,02,38,056,31,03,12,111,16,04,20,143,22,8*51,1732608764690
NMEA,$GBGSV,7,1,28,62,08,095,21,60,59,199,40,59,26,108,25,45,38,298,25,1*7E,1732608764690
NMEA,$GBGSV,7,2,28,40,65,107,37,39,45,068,41,36,48,012,29,30,28,092,27,1*7A,1732608764690
NMEA,$GBGSV,7,3,28,29,24,154,42,22,57,261,36,21,20,314,30,19,35,180,38,1*79,1732608764690
NMEA,$GBGSV,7,4,28,16,47,057,35,10,67,166,24,09,54,026,32,07,71,133,37,1*71,1732608764690
NMEA,$GBGSV,7,5,28,06,51,049,39,05,47,236,35,03,52,135,39,02,62,191,36,1*7F,1732608764690
NMEA,$GBGSV,7,6,28,01,22,106,31,04,07,099,,08,02,178,,13,08,186,,1*7B,1732608764690
NMEA,$GBGSV,7,7,28,27,04,050,,46,14,058,,50,00,000,,61,52,134,,1*71,1732608764690
NMEA,$GBGSV,3,1,09,19,35,180,40,21,20,314,24,22,57,261,35,29,24,154,41,3*74,1732608764690
NMEA,$GBGSV,3,2,09,30,28,092,22,36,48,012,27,39,45,068,35,40,65,107,33,3*73,1732608764690
NMEA,$GBGSV,3,3,09,45,38,298,20,3*46,1732608764690
NMEA,$GBGSV,3,1,09,19,35,180,33,21,20,314,21,22,57,261,31,29,24,154,17,5*74,1732608764690
NMEA,$GBGSV,3,2,09,30,28,092,29,36,48,012,18,39,45,068,34,40,65,107,33,5*73,1732608764690
NMEA,$GBGSV,3,3,09,45,38,298,21,5*41,1732608764690
NMEA,$GNGSA,A,3,03,04,07,08,09,16,27,,,,,,0.6,0.3,0.5,1*32,1732608764718
NMEA,$GNGSA,A,3,65,66,67,76,78,87,,,,,,,0.6,0.3,0.5,2*31,1732608764718
NMEA,$GNGSA,A,3,04,06,19,21,29,31,,,,,,,0.6,0.3,0.5,3*33,1732608764718
NMEA,$GNGSA,A,3,02,03,06,07,09,10,13,16,19,21,22,29,0.6,0.3,0.5,4*39,1732608764718
NMEA,$GNGSA,A,3,02,03,04,,,,,,,,,,0.6,0.3,0.5,5*30,1732608764718
NMEA,$GNVTG,,T,,M,0.0,N,0.0,K,A*3D,1732608764718
NMEA,$GNDTM,W84,,0000.000000,N,00000.000000,E,0.000,W84*41,1732608764718
NMEA,$GNRMC,081245.00,A,2235.669762,N,08821.673276,E,0.0,,261124,0.5,W,A,V*6E,1732608764718
NMEA,$GNGNS,081245.00,2235.669762,N,08821.673276,E,AAAAAN,40,0.3,-2.2,-57.0,,,V*2C,1732608764718
NMEA,$GNGGA,081245.00,2235.669762,N,08821.673276,E,1,12,0.3,-2.2,M,-57.0,M,,*74,1732608764718
NMEA,$GPGSV,4,1,13,03,21,204,28,04,88,348,35,07,26,311,29,08,57,143,35,1*63,1732608765689
NMEA,$GPGSV,4,2,13,09,55,318,33,16,31,034,35,27,50,080,43,02,00,000,,1*6A,1732608765689
NMEA,$GPGSV,4,3,13,21,04,161,,26,05,049,,31,10,087,,40,00,000,41,1*61,1732608765689
NMEA,$GPGSV,4,4,13,41,00,000,40,1*57,1732608765689
NMEA,$GPGSV,2,1,05,03,21,204,22,04,88,348,30,08,57,143,38,09,55,318,16,8*66,1732608765689
NMEA,$GPGSV,2,2,05,27,50,080,35,8*56,1732608765689
NMEA,$GLGSV,3,1,09,78,21,273,34,66,61,194,37,86,12,070,16,77,42,341,20,1*7E,1732608765689
NMEA,$GLGSV,3,2,09,76,21,031,38,65,14,167,22,87,15,117,26,67,49,314,20,1*7D,1732608765689
NMEA,$GLGSV,3,3,09,68,04,333,18,1*41,1732608765689
NMEA,$GAGSV,2,1,07,04,45,323,25,06,19,321,27,19,71,131,36,21,35,032,36,7*75,1732608765689
NMEA,$GAGSV,2,2,07,29,24,138,28,31,29,243,24,26,01,129,,7*4C,1732608765689
NMEA,$GAGSV,2,1,06,04,45,323,16,06,19,321,18,19,71,131,30,21,35,032,27,1*78,1732608765689
NMEA,$GAGSV,2,2,06,29,24,138,19,31,29,243,18,1*79,1732608765689
NMEA,$GQGSV,1,1,02,02,38,056,43,04,20,143,25,1*6D,1732608765689
NMEA,$GQGSV,1,1,03,02,38,056,32,03,12,111,15,04,20,143,17,8*57,1732608765689
NMEA,$GBGSV,7,1,28,62,08,095,21,60,59,199,37,59,26,108,25,45,38,298,24,1*7F,1732608765689
NMEA,$GBGSV,7,2,28,40,65,107,39,39,45,068,40,36,48,012,26,30,28,092,22,1*7F,1732608765689
NMEA,$GBGSV,7,3,28,29,24,154,40,22,57,261,33,21,20,314,25,19,35,180,38,1*7A,1732608765689
NMEA,$GBGSV,7,4,28,16,47,057,37,13,08,186,25,10,67,166,28,09,54,026,32,1*79,1732608765689
NMEA,$GBGSV,7,5,28,07,71,133,35,06,51,049,40,05,47,236,37,03,52,135,39,1*7F,1732608765689
NMEA,$GBGSV,7,6,28,02,62,191,37,01,22,106,34,04,07,099,,08,02,178,,1*70,1732608765689
NMEA,$GBGSV,7,7,28,27,04,050,,46,14,058,,50,00,000,,61,52,134,,1*71,1732608765689
NMEA,$GBGSV,3,1,09,19,35,180,38,21,20,314,30,22,57,261,33,29,24,154,40,3*79,1732608765689
NMEA,$GBGSV,3,2,09,30,28,092,29,36,48,012,17,39,45,068,37,40,65,107,34,3*7E,1732608765689
NMEA,$GBGSV,3,3,09,45,38,298,21,3*47,1732608765689
NMEA,$GBGSV,3,1,09,19,35,180,33,21,20,314,20,22,57,261,31,29,24,154,17,5*75,1732608765689
NMEA,$GBGSV,3,2,09,30,28,092,30,36,48,012,25,39,45,068,35,40,65,107,32,5*75,1732608765689
NMEA,$GBGSV,3,3,09,45,38,298,24,5*44,1732608765689
NMEA,$GNGSA,A,3,03,04,07,08,09,16,27,,,,,,0.6,0.3,0.5,1*32,1732608765703
NMEA,$GNGSA,A,3,65,66,67,76,78,87,,,,,,,0.6,0.3,0.5,2*31,1732608765703
NMEA,$GNGSA,A,3,04,06,19,21,29,31,,,,,,,0.6,0.3,0.5,3*33,1732608765703
NMEA,$GNGSA,A,3,02,03,06,07,09,10,13,16,19,21,22,29,0.6,0.3,0.5,4*39,1732608765703
NMEA,$GNGSA,A,3,02,03,04,,,,,,,,,,0.6,0.3,0.5,5*30,1732608765703
NMEA,$GNVTG,,T,,M,0.0,N,0.0,K,A*3D,1732608765703
NMEA,$GNDTM,W84,,0000.000000,N,00000.000000,E,0.000,W84*41,1732608765703
NMEA,$GNRMC,081246.00,A,2235.669758,N,08821.673280,E,0.0,,261124,0.5,W,A,V*6D,1732608765703
NMEA,$GNGNS,081246.00,2235.669758,N,08821.673280,E,AAAAAN,40,0.3,-2.2,-57.0,,,V*2F,1732608765703
NMEA,$GNGGA,081246.00,2235.669758,N,08821.673280,E,1,12,0.3,-2.2,M,-57.0,M,,*77,1732608765703
NMEA,$GPGSV,4,1,13,03,21,204,29,04,88,348,36,07,26,311,32,08,57,143,37,1*69,1732608766689
NMEA,$GPGSV,4,2,13,09,55,318,31,16,31,034,36,27,50,080,44,02,00,000,,1*6C,1732608766689
NMEA,$GPGSV,4,3,13,21,04,161,,26,05,049,,31,10,087,,40,00,000,38,1*6F,1732608766689
NMEA,$GPGSV,4,4,13,41,00,000,39,1*59,1732608766689
NMEA,$GPGSV,2,1,05,03,21,204,23,04,88,348,31,08,57,143,38,09,55,318,16,8*66,1732608766689
NMEA,$GPGSV,2,2,05,27,50,080,36,8*55,1732608766689
NMEA,$GLGSV,3,1,09,78,21,273,31,66,61,194,34,86,12,070,16,77,42,341,21,1*79,1732608766689
NMEA,$GLGSV,3,2,09,76,21,031,36,65,14,167,24,87,15,117,28,67,49,314,20,1*7B,1732608766689
NMEA,$GLGSV,3,3,09,68,04,333,20,1*4A,1732608766689
NMEA,$GAGSV,2,1,07,04,45,323,23,06,19,321,27,19,71,131,36,21,35,032,35,7*70,1732608766689
NMEA,$GAGSV,2,2,07,29,24,138,29,31,29,243,24,26,01,129,,7*4D,1732608766689
NMEA,$GAGSV,2,1,06,04,45,323,16,06,19,321,18,19,71,131,32,21,35,032,27,1*7A,1732608766689
NMEA,$GAGSV,2,2,06,29,24,138,20,31,29,243,18,1*73,1732608766689
NMEA,$GQGSV,1,1,02,02,38,056,42,04,20,143,25,1*6C,1732608766689
NMEA,$GQGSV,1,1,03,02,38,056,32,03,12,111,15,04,20,143,19,8*59,1732608766689
NMEA,$GBGSV,7,1,28,62,08,095,22,60,59,199,38,59,26,108,25,45,38,298,21,1*76,1732608766689
NMEA,$GBGSV,7,2,28,40,65,107,39,39,45,068,42,36,48,012,27,30,28,092,22,1*7C,1732608766689
NMEA,$GBGSV,7,3,28,29,24,154,41,22,57,261,37,21,20,314,28,19,35,180,38,1*72,1732608766689
NMEA,$GBGSV,7,4,28,16,47,057,37,13,08,186,23,10,67,166,22,09,54,026,32,1*75,1732608766689
NMEA,$GBGSV,7,5,28,07,71,133,35,06,51,049,39,05,47,236,36,03,52,135,39,1*70,1732608766689
NMEA,$GBGSV,7,6,28,02,62,191,36,01,22,106,33,04,07,099,,08,02,178,,1*76,1732608766689
NMEA,$GBGSV,7,7,28,27,04,050,,46,14,058,,50,00,000,,61,52,134,,1*71,1732608766689
NMEA,$GBGSV,3,1,09,19,35,180,39,21,20,314,29,22,57,261,35,29,24,154,41,3*77,1732608766689
NMEA,$GBGSV,3,2,09,30,28,092,30,36,48,012,24,39,45,068,35,40,65,107,35,3*75,1732608766689
NMEA,$GBGSV,3,3,09,45,38,298,21,3*47,1732608766689
NMEA,$GBGSV,3,1,09,19,35,180,35,21,20,314,20,22,57,261,33,29,24,154,20,5*75,1732608766689
NMEA,$GBGSV,3,2,09,30,28,092,31,36,48,012,25,39,45,068,35,40,65,107,34,5*72,1732608766689
NMEA,$GBGSV,3,3,09,45,38,298,25,5*45,1732608766689
NMEA,$GNGSA,A,3,03,04,07,08,09,16,27,,,,,,0.6,0.3,0.5,1*32,1732608766718
NMEA,$GNGSA,A,3,65,66,67,76,78,87,,,,,,,0.6,0.3,0.5,2*31,1732608766718
NMEA,$GNGSA,A,3,04,06,19,21,29,31,,,,,,,0.6,0.3,0.5,3*33,1732608766718
NMEA,$GNGSA,A,3,02,03,06,07,09,10,13,16,19,21,22,29,0.6,0.3,0.5,4*39,1732608766718
NMEA,$GNGSA,A,3,02,03,04,,,,,,,,,,0.6,0.3,0.5,5*30,1732608766718
NMEA,$GNVTG,,T,,M,0.0,N,0.0,K,A*3D,1732608766718
NMEA,$GNDTM,W84,,0000.000000,N,00000.000000,E,0.000,W84*41,1732608766718
NMEA,$GNRMC,081247.00,A,2235.669756,N,08821.673280,E,0.0,,261124,0.5,W,A,V*62,1732608766718
NMEA,$GNGNS,081247.00,2235.669756,N,08821.673280,E,AAAAAN,40,0.3,-2.2,-57.0,,,V*20,1732608766718
NMEA,$GNGGA,081247.00,2235.669756,N,08821.673280,E,1,12,0.3,-2.2,M,-57.0,M,,*78,1732608766718
NMEA,$GPGSV,4,1,13,03,21,204,26,04,88,348,36,07,26,311,30,08,57,143,35,1*66,1732608767689
NMEA,$GPGSV,4,2,13,09,55,318,31,16,31,034,35,27,50,080,44,02,00,000,,1*6F,1732608767689
NMEA,$GPGSV,4,3,13,21,04,161,,26,05,049,,31,10,087,,40,00,000,38,1*6F,1732608767689
NMEA,$GPGSV,4,4,13,41,00,000,40,1*57,1732608767689
NMEA,$GPGSV,2,1,05,03,21,204,21,04,88,348,33,08,57,143,39,09,55,318,15,8*64,1732608767689
NMEA,$GPGSV,2,2,05,27,50,080,36,8*55,1732608767689
NMEA,$GLGSV,3,1,09,78,21,273,27,66,61,194,36,86,12,070,16,77,42,341,18,1*76,1732608767689
NMEA,$GLGSV,3,2,09,76,21,031,34,65,14,167,23,87,15,117,24,67,49,314,23,1*71,1732608767689
NMEA,$GLGSV,3,3,09,68,04,333,21,1*4B,1732608767689
NMEA,$GAGSV,2,1,07,04,45,323,27,06,19,321,26,19,71,131,34,21,35,032,33,7*71,1732608767689
NMEA,$GAGSV,2,2,07,29,24,138,31,31,29,243,26,26,01,129,,7*46,1732608767689
NMEA,$GAGSV,2,1,06,04,45,323,16,06,19,321,17,19,71,131,31,21,35,032,26,1*77,1732608767689
NMEA,$GAGSV,2,2,06,29,24,138,19,31,29,243,20,1*72,1732608767689
NMEA,$GQGSV,1,1,02,02,38,056,41,04,20,143,24,1*6E,1732608767689
NMEA,$GQGSV,1,1,03,02,38,056,31,03,12,111,14,04,20,143,22,8*53,1732608767689
NMEA,$GBGSV,7,1,28,62,08,095,22,60,59,199,36,59,26,108,25,45,38,298,22,1*7B,1732608767689
NMEA,$GBGSV,7,2,28,40,65,107,40,39,45,068,43,36,48,012,23,30,28,092,31,1*75,1732608767689
NMEA,$GBGSV,7,3,28,29,24,154,41,22,57,261,35,21,20,314,32,19,35,180,38,1*7B,1732608767689
NMEA,$GBGSV,7,4,28,16,47,057,38,13,08,186,21,10,67,166,26,09,54,026,32,1*7C,1732608767689
NMEA,$GBGSV,7,5,28,07,71,133,32,06,51,049,37,05,47,236,36,03,52,135,38,1*78,1732608767689
NMEA,$GBGSV,7,6,28,02,62,191,35,01,22,106,31,04,07,099,,08,02,178,,1*77,1732608767689
NMEA,$GBGSV,7,7,28,27,04,050,,46,14,058,,50,00,000,,61,52,134,,1*71,1732608767689
NMEA,$GBGSV,3,1,09,19,35,180,39,21,20,314,24,22,57,261,35,29,24,154,40,3*7B,1732608767689
NMEA,$GBGSV,3,2,09,30,28,092,24,36,48,012,23,39,45,068,36,40,65,107,36,3*77,1732608767689
NMEA,$GBGSV,3,3,09,45,38,298,20,3*46,1732608767689
NMEA,$GBGSV,3,1,09,19,35,180,34,21,20,314,21,22,57,261,33,29,24,154,19,5*7F,1732608767689
NMEA,$GBGSV,3,2,09,30,28,092,30,36,48,012,26,39,45,068,36,40,65,107,32,5*75,1732608767689
NMEA,$GBGSV,3,3,09,45,38,298,25,5*45,1732608767689
NMEA,$GNGSA,A,3,03,04,07,08,09,16,27,,,,,,0.6,0.3,0.5,1*32,1732608767722
NMEA,$GNGSA,A,3,65,66,67,76,78,87,,,,,,,0.6,0.3,0.5,2*31,1732608767722
NMEA,$GNGSA,A,3,04,06,19,21,29,31,,,,,,,0.6,0.3,0.5,3*33,1732608767722
NMEA,$GNGSA,A,3,02,03,06,07,09,10,13,16,19,21,22,29,0.6,0.3,0.5,4*39,1732608767722
NMEA,$GNGSA,A,3,02,03,04,,,,,,,,,,0.6,0.3,0.5,5*30,1732608767722
NMEA,$GNVTG,,T,,M,0.0,N,0.0,K,A*3D,1732608767722
NMEA,$GNDTM,W84,,0000.000000,N,00000.000000,E,0.000,W84*41,1732608767722
NMEA,$GNRMC,081248.00,A,2235.669755,N,08821.673281,E,0.0,,261124,0.5,W,A,V*6F,1732608767722
NMEA,$GNGNS,081248.00,2235.669755,N,08821.673281,E,AAAAAN,40,0.3,-2.1,-57.0,,,V*2E,1732608767722
NMEA,$GNGGA,081248.00,2235.669755,N,08821.673281,E,1,12,0.3,-2.1,M,-57.0,M,,*76,1732608767722
NMEA,$GPGSV,4,1,13,03,21,204,28,04,88,348,35,07,26,311,31,08,57,143,36,1*69,1732608768689
NMEA,$GPGSV,4,2,13,09,55,318,32,16,31,034,35,27,50,080,44,02,00,000,,1*6C,1732608768689
NMEA,$GPGSV,4,3,13,21,04,161,,26,05,049,,31,10,087,,40,00,000,38,1*6F,1732608768689
NMEA,$GPGSV,4,4,13,41,00,000,39,1*59,1732608768689
NMEA,$GPGSV,2,1,05,03,21,204,21,04,88,348,32,08,57,143,38,09,55,318,16,8*67,1732608768689
NMEA,$GPGSV,2,2,05,27,50,080,36,8*55,1732608768689
NMEA,$GLGSV,3,1,09,78,21,273,30,66,61,194,34,86,12,070,16,77,42,341,18,1*72,1732608768689
NMEA,$GLGSV,3,2,09,76,21,031,35,65,14,167,22,87,15,117,28,67,49,314,20,1*7E,1732608768689
NMEA,$GLGSV,3,3,09,68,04,333,19,1*40,1732608768689
NMEA,$GAGSV,2,1,07,04,45,323,23,06,19,321,26,19,71,131,36,21,35,032,35,7*71,1732608768689
NMEA,$GAGSV,2,2,07,29,24,138,30,31,29,243,25,26,01,129,,7*44,1732608768689
NMEA,$GAGSV,2,1,06,04,45,323,16,06,19,321,17,19,71,131,31,21,35,032,27,1*76,1732608768689
NMEA,$GAGSV,2,2,06,29,24,138,19,31,29,243,18,1*79,1732608768689
NMEA,$GQGSV,1,1,02,02,38,056,41,04,20,143,24,1*6E,1732608768689
NMEA,$GQGSV,1,1,03,02,38,056,31,03,12,111,16,04,20,143,20,8*53,1732608768689
NMEA,$GBGSV,7,1,28,62,08,095,22,60,59,199,38,59,26,108,25,45,38,298,22,1*75,1732608768689
NMEA,$GBGSV,7,2,28,40,65,107,40,39,45,068,42,36,48,012,27,30,28,092,28,1*78,1732608768689
NMEA,$GBGSV,7,3,28,29,24,154,41,22,57,261,36,21,20,314,29,19,35,180,38,1*72,1732608768689
NMEA,$GBGSV,7,4,28,16,47,057,37,13,08,186,23,10,67,166,21,09,54,026,33,1*77,1732608768689
NMEA,$GBGSV,7,5,28,07,71,133,34,06,51,049,38,05,47,236,36,03,52,135,39,1*70,1732608768689
NMEA,$GBGSV,7,6,28,02,62,191,36,01,22,106,33,04,07,099,,08,02,178,,1*76,1732608768689
NMEA,$GBGSV,7,7,28,27,04,050,,46,14,058,,50,00,000,,61,52,134,,1*71,1732608768689
NMEA,$GBGSV,3,1,09,19,35,180,39,21,20,314,28,22,57,261,35,29,24,154,40,3*77,1732608768689
NMEA,$GBGSV,3,2,09,30,28,092,31,36,48,012,24,39,45,068,36,40,65,107,35,3*77,1732608768689
NMEA,$GBGSV,3,3,09,45,38,298,20,3*46,1732608768689
NMEA,$GBGSV,3,1,09,19,35,180,35,21,20,314,19,22,57,261,33,29,24,154,17,5*7B,1732608768689
NMEA,$GBGSV,3,2,09,30,28,092,30,36,48,012,25,39,45,068,35,40,65,107,33,5*74,1732608768689
NMEA,$GBGSV,3,3,09,45,38,298,25,5*45,1732608768689
NMEA,$GNGSA,A,3,03,04,07,08,09,16,27,,,,,,0.6,0.3,0.5,1*32,1732608768730
NMEA,$GNGSA,A,3,65,66,67,76,78,87,,,,,,,0.6,0.3,0.5,2*31,1732608768730
NMEA,$GNGSA,A,3,04,06,19,21,29,31,,,,,,,0.6,0.3,0.5,3*33,1732608768730
NMEA,$GNGSA,A,3,02,03,06,07,09,10,13,16,19,21,22,29,0.6,0.3,0.5,4*39,1732608768730
NMEA,$GNGSA,A,3,02,03,04,,,,,,,,,,0.6,0.3,0.5,5*30,1732608768730
NMEA,$GNVTG,,T,,M,0.0,N,0.0,K,A*3D,1732608768730
NMEA,$GNDTM,W84,,0000.000000,N,00000.000000,E,0.000,W84*41,1732608768730
NMEA,$GNRMC,081249.00,A,2235.669752,N,08821.673282,E,0.0,,261124,0.5,W,A,V*6A,1732608768730
NMEA,$GNGNS,081249.00,2235.669752,N,08821.673282,E,AAAAAN,40,0.3,-2.1,-57.0,,,V*2B,1732608768730
NMEA,$GNGGA,081249.00,2235.669752,N,08821.673282,E,1,12,0.3,-2.1,M,-57.0,M,,*73,1732608768730
NMEA,$GPGSV,4,1,13,03,21,204,28,04,88,348,35,07,26,311,30,08,57,143,37,1*69,1732608769690
NMEA,$GPGSV,4,2,13,09,55,318,31,16,31,034,35,27,50,080,43,02,00,000,,1*68,1732608769690
NMEA,$GPGSV,4,3,13,21,04,161,,26,05,049,,31,10,087,,40,00,000,38,1*6F,1732608769690
NMEA,$GPGSV,4,4,13,41,00,000,39,1*59,1732608769690
NMEA,$GPGSV,2,1,05,03,21,204,18,04,88,348,32,08,57,143,38,09,55,318,16,8*6D,1732608769690
NMEA,$GPGSV,2,2,05,27,50,080,35,8*56,1732608769690
NMEA,$GLGSV,3,1,09,78,21,273,27,66,61,194,34,86,12,070,16,77,42,341,18,1*74,1732608769690
NMEA,$GLGSV,3,2,09,76,21,031,35,65,14,167,22,87,15,117,26,67,49,314,19,1*7A,1732608769690
NMEA,$GLGSV,3,3,09,68,04,333,20,1*4A,1732608769690
NMEA,$GAGSV,2,1,07,04,45,323,23,06,19,321,26,19,71,131,35,21,35,032,34,7*73,1732608769690
NMEA,$GAGSV,2,2,07,29,24,138,30,31,29,243,27,26,01,129,,7*46,1732608769690
NMEA,$GAGSV,2,1,06,04,45,323,16,06,19,321,17,19,71,131,31,21,35,032,28,1*79,1732608769690
NMEA,$GAGSV,2,2,06,29,24,138,18,31,29,243,18,1*78,1732608769690
NMEA,$GQGSV,1,1,01,02,38,056,42,1*58,1732608769690
NMEA,$GQGSV,1,1,03,02,38,056,31,03,12,111,16,04,20,143,21,8*52,1732608769690
NMEA,$GBGSV,7,1,28,62,08,095,22,60,59,199,37,59,26,108,25,45,38,298,21,1*79,1732608769690
NMEA,$GBGSV,7,2,28,40,65,107,39,39,45,068,42,36,48,012,26,30,28,092,24,1*7B,1732608769690
NMEA,$GBGSV,7,3,28,29,24,154,41,22,57,261,35,21,20,314,30,19,35,180,38,1*79,1732608769690
NMEA,$GBGSV,7,4,28,16,47,057,37,13,08,186,25,10,67,166,24,09,54,026,33,1*74,1732608769690
NMEA,$GBGSV,7,5,28,07,71,133,33,06,51,049,38,05,47,236,35,03,52,135,39,1*74,1732608769690
NMEA,$GBGSV,7,6,28,02,62,191,35,01,22,106,32,04,07,099,,08,02,178,,1*74,1732608769690
NMEA,$GBGSV,7,7,28,27,04,050,,46,14,058,,50,00,000,,61,52,134,,1*71,1732608769690
NMEA,$GBGSV,3,1,09,19,35,180,38,21,20,314,28,22,57,261,35,29,24,154,40,3*76,1732608769690
NMEA,$GBGSV,3,2,09,30,28,092,30,36,48,012,20,39,45,068,36,40,65,107,34,3*73,1732608769690
NMEA,$GBGSV,3,3,09,45,38,298,19,3*4C,1732608769690
NMEA,$GBGSV,3,1,09,19,35,180,34,21,20,314,19,22,57,261,33,29,24,154,17,5*7A,1732608769690
NMEA,$GBGSV,3,2,09,30,28,092,30,36,48,012,26,39,45,068,35,40,65,107,33,5*77,1732608769690
NMEA,$GBGSV,3,3,09,45,38,298,24,5*44,1732608769690
NMEA,$GNGSA,A,3,03,04,07,08,09,16,27,,,,,,0.6,0.3,0.5,1*32,1732608769722
NMEA,$GNGSA,A,3,65,66,67,76,78,87,,,,,,,0.6,0.3,0.5,2*31,1732608769722
NMEA,$GNGSA,A,3,04,06,19,21,29,31,,,,,,,0.6,0.3,0.5,3*33,1732608769722
NMEA,$GNGSA,A,3,02,03,06,07,09,10,13,16,19,21,22,29,0.6,0.3,0.5,4*39,1732608769722
NMEA,$GNGSA,A,3,02,03,04,,,,,,,,,,0.6,0.3,0.5,5*30,1732608769722
NMEA,$GNVTG,,T,,M,0.0,N,0.0,K,A*3D,1732608769722
NMEA,$GNDTM,W84,,0000.000000,N,00000.000000,E,0.000,W84*41,1732608769722
NMEA,$GNRMC,081250.00,A,2235.669750,N,08821.673282,E,0.0,,261124,0.5,W,A,V*60,1732608769722
NMEA,$GNGNS,081250.00,2235.669750,N,08821.673282,E,AAAAAN,40,0.3,-2.1,-57.0,,,V*21,1732608769722
NMEA,$GNGGA,081250.00,2235.669750,N,08821.673282,E,1,12,0.3,-2.1,M,-57.0,M,,*79,1732608769722
NMEA,$GPGSV,4,1,13,03,21,204,31,04,88,348,35,07,26,311,30,08,57,143,37,1*61,1732608770689
NMEA,$GPGSV,4,2,13,09,55,318,31,16,31,034,36,27,50,080,44,02,00,000,,1*6C,1732608770689
NMEA,$GPGSV,4,3,13,21,04,161,,26,05,049,,31,10,087,,40,00,000,38,1*6F,1732608770689
NMEA,$GPGSV,4,4,13,41,00,000,40,1*57,1732608770689
NMEA,$GPGSV,2,1,05,03,21,204,23,04,88,348,33,08,57,143,38,09,55,318,16,8*64,1732608770689
NMEA,$GPGSV,2,2,05,27,50,080,35,8*56,1732608770689
NMEA,$GLGSV,3,1,09,78,21,273,28,66,61,194,35,86,12,070,16,77,42,341,15,1*77,1732608770689
NMEA,$GLGSV,3,2,09,76,21,031,36,65,14,167,23,87,15,117,24,67,49,314,22,1*72,1732608770689
NMEA,$GLGSV,3,3,09,68,04,333,20,1*4A,1732608770689
NMEA,$GAGSV,2,1,07,04,45,323,24,06,19,321,27,19,71,131,34,21,35,032,35,7*75,1732608770689
NMEA,$GAGSV,2,2,07,29,24,138,31,31,29,243,28,26,01,129,,7*48,1732608770689
NMEA,$GAGSV,2,1,06,04,45,323,14,06,19,321,19,19,71,131,31,21,35,032,26,1*7B,1732608770689
NMEA,$GAGSV,2,2,06,29,24,138,16,31,29,243,17,1*79,1732608770689
NMEA,$GQGSV,1,1,02,02,38,056,42,04,20,143,23,1*6A,1732608770689
NMEA,$GQGSV,1,1,03,02,38,056,31,03,12,111,16,04,20,143,22,8*51,1732608770689
NMEA,$GBGSV,7,1,28,62,08,095,22,60,59,199,36,59,26,108,25,45,38,298,21,1*78,1732608770689
NMEA,$GBGSV,7,2,28,40,65,107,39,39,45,068,42,36,48,012,27,30,28,092,28,1*76,1732608770689
NMEA,$GBGSV,7,3,28,29,24,154,40,22,57,261,35,21,20,314,31,19,35,180,38,1*79,1732608770689
NMEA,$GBGSV,7,4,28,16,47,057,37,13,08,186,24,10,67,166,24,09,54,026,33,1*75,1732608770689
NMEA,$GBGSV,7,5,28,07,71,133,33,06,51,049,38,05,47,236,35,03,52,135,39,1*74,1732608770689
NMEA,$GBGSV,7,6,28,02,62,191,36,01,22,106,31,04,07,099,,08,02,178,,1*74,1732608770689
NMEA,$GBGSV,7,7,28,27,04,050,,46,14,058,,50,00,000,,61,52,134,,1*71,1732608770689
NMEA,$GBGSV,3,1,09,19,35,180,38,21,20,314,26,22,57,261,34,29,24,154,40,3*79,1732608770689
NMEA,$GBGSV,3,2,09,30,28,092,29,36,48,012,23,39,45,068,36,40,65,107,35,3*79,1732608770689
NMEA,$GBGSV,3,3,09,45,38,298,18,3*4D,1732608770689
NMEA,$GBGSV,3,1,09,19,35,180,34,21,20,314,21,22,57,261,33,29,24,154,25,5*70,1732608770689
NMEA,$GBGSV,3,2,09,30,28,092,30,36,48,012,26,39,45,068,35,40,65,107,33,5*77,1732608770689
NMEA,$GBGSV,3,3,09,45,38,298,22,5*42,1732608770689
NMEA,$GNGSA,A,3,03,04,07,08,09,16,27,,,,,,0.6,0.3,0.5,1*32,1732608770723
NMEA,$GNGSA,A,3,65,66,67,76,78,87,,,,,,,0.6,0.3,0.5,2*31,1732608770723
NMEA,$GNGSA,A,3,04,06,19,21,29,31,,,,,,,0.6,0.3,0.5,3*33,1732608770723
NMEA,$GNGSA,A,3,02,03,06,07,09,10,13,16,19,21,22,29,0.6,0.3,0.5,4*39,1732608770723
NMEA,$GNGSA,A,3,02,03,04,,,,,,,,,,0.6,0.3,0.5,5*30,1732608770723
NMEA,$GNVTG,,T,,M,0.0,N,0.0,K,A*3D,1732608770723
NMEA,$GNDTM,W84,,0000.000000,N,00000.000000,E,0.000,W84*41,1732608770723
NMEA,$GNRMC,081251.00,A,2235.669749,N,08821.673281,E,0.0,,261124,0.5,W,A,V*6A,1732608770723
NMEA,$GNGNS,081251.00,2235.669749,N,08821.673281,E,AAAAAN,40,0.3,-2.1,-57.0,,,V*2B,1732608770723
NMEA,$GNGGA,081251.00,2235.669749,N,08821.673281,E,1,12,0.3,-2.1,M,-57.0,M,,*73,1732608770723
NMEA,$GPGSV,4,1,13,03,21,204,28,04,88,348,36,07,26,311,31,08,57,143,36,1*6A,1732608771688
NMEA,$GPGSV,4,2,13,09,55,318,30,16,31,034,36,27,50,080,44,02,00,000,,1*6D,1732608771688
NMEA,$GPGSV,4,3,13,21,04,161,,26,05,049,,31,10,087,,40,00,000,37,1*60,1732608771688
NMEA,$GPGSV,4,4,13,41,00,000,40,1*57,1732608771688
NMEA,$GPGSV,2,1,05,03,21,204,22,04,88,348,33,08,57,143,38,09,55,318,18,8*6B,1732608771688
NMEA,$GPGSV,2,2,05,27,50,080,36,8*55,1732608771688
NMEA,$GLGSV,3,1,09,78,21,273,31,66,61,194,35,86,12,070,16,77,42,341,19,1*73,1732608771688
NMEA,$GLGSV,3,2,09,76,21,031,34,65,14,167,22,87,15,117,26,67,49,314,18,1*7A,1732608771688
NMEA,$GLGSV,3,3,09,68,04,333,20,1*4A,1732608771688
NMEA,$GAGSV,2,1,07,04,45,323,25,06,19,321,25,19,71,131,34,21,35,032,35,7*76,1732608771688
NMEA,$GAGSV,2,2,07,29,24,138,31,31,29,243,28,26,01,129,,7*48,1732608771688
NMEA,$GAGSV,2,1,06,04,45,323,16,06,19,321,19,19,71,131,32,21,35,032,26,1*7A,1732608771688
NMEA,$GAGSV,2,2,06,29,24,138,18,31,29,243,18,1*78,1732608771688
NMEA,$GQGSV,1,1,02,02,38,056,42,04,20,143,24,1*6D,1732608771688
NMEA,$GQGSV,1,1,03,02,38,056,32,03,12,111,15,04,20,143,20,8*53,1732608771688
NMEA,$GBGSV,7,1,28,62,08,095,23,60,59,199,36,59,26,108,25,45,38,298,22,1*7A,1732608771688
NMEA,$GBGSV,7,2,28,40,65,107,40,39,45,068,42,36,48,012,25,30,28,092,28,1*7A,1732608771688
NMEA,$GBGSV,7,3,28,29,24,154,41,22,57,261,38,21,20,314,30,19,35,180,38,1*74,1732608771688
NMEA,$GBGSV,7,4,28,16,47,057,37,13,08,186,21,10,67,166,25,09,54,026,33,1*71,1732608771688
NMEA,$GBGSV,7,5,28,07,71,133,32,06,51,049,38,05,47,236,36,03,52,135,39,1*76,1732608771688
NMEA,$GBGSV,7,6,28,02,62,191,36,01,22,106,32,04,07,099,,08,02,178,,1*77,1732608771688
NMEA,$GBGSV,7,7,28,27,04,050,,46,14,058,,50,00,000,,61,52,134,,1*71,1732608771688
NMEA,$GBGSV,3,1,09,19,35,180,39,21,20,314,28,22,57,261,35,29,24,154,40,3*77,1732608771688
NMEA,$GBGSV,3,2,09,30,28,092,30,36,48,012,22,39,45,068,37,40,65,107,36,3*72,1732608771688
NMEA,$GBGSV,3,3,09,45,38,298,23,3*45,1732608771688
NMEA,$GBGSV,3,1,09,19,35,180,35,21,20,314,19,22,57,261,33,29,24,154,16,5*7A,1732608771688
NMEA,$GBGSV,3,2,09,30,28,092,29,36,48,012,25,39,45,068,35,40,65,107,33,5*7C,1732608771688
NMEA,$GBGSV,3,3,09,45,38,298,23,5*43,1732608771688
NMEA,$GNGSA,A,3,03,04,07,08,09,16,27,,,,,,0.6,0.3,0.5,1*32,1732608771723
NMEA,$GNGSA,A,3,65,66,67,76,78,87,,,,,,,0.6,0.3,0.5,2*31,1732608771723
NMEA,$GNGSA,A,3,04,06,19,21,29,31,,,,,,,0.6,0.3,0.5,3*33,1732608771723
NMEA,$GNGSA,A,3,02,03,06,07,09,10,13,16,19,21,22,29,0.6,0.3,0.5,4*39,1732608771723
NMEA,$GNGSA,A,3,02,03,04,,,,,,,,,,0.6,0.3,0.5,5*30,1732608771723
NMEA,$GNVTG,,T,,M,0.0,N,0.0,K,A*3D,1732608771723
NMEA,$GNDTM,W84,,0000.000000,N,00000.000000,E,0.000,W84*41,1732608771723
NMEA,$GNRMC,081252.00,A,2235.669746,N,08821.673282,E,0.0,,261124,0.5,W,A,V*65,1732608771723
NMEA,$GNGNS,081252.00,2235.669746,N,08821.673282,E,AAAAAN,40,0.3,-2.1,-57.0,,,V*24,1732608771723
NMEA,$GNGGA,081252.00,2235.669746,N,08821.673282,E,1,12,0.3,-2.1,M,-57.0,M,,*7C,1732608771723
NMEA,$GPGSV,4,1,13,03,21,204,29,04,88,348,36,07,26,311,29,08,57,143,35,1*61,1732608772691
NMEA,$GPGSV,4,2,13,09,55,318,31,16,31,034,35,27,50,080,43,02,00,000,,1*68,1732608772691
NMEA,$GPGSV,4,3,13,21,04,161,,26,05,049,,31,10,087,,40,00,000,37,1*60,1732608772691
NMEA,$GPGSV,4,4,13,41,00,000,40,1*57,1732608772691
NMEA,$GPGSV,2,1,05,03,21,204,22,04,88,348,33,08,57,143,38,09,55,318,20,8*60,1732608772691
NMEA,$GPGSV,2,2,05,27,50,080,36,8*55,1732608772691
NMEA,$GLGSV,3,1,09,78,21,273,29,66,61,194,35,86,12,070,16,77,42,341,19,1*7A,1732608772691
NMEA,$GLGSV,3,2,09,76,21,031,33,65,14,167,21,87,15,117,27,67,49,314,22,1*76,1732608772691
NMEA,$GLGSV,3,3,09,68,04,333,19,1*40,1732608772691
NMEA,$GAGSV,2,1,07,04,45,323,28,06,19,321,25,19,71,131,33,21,35,032,34,7*7D,1732608772691
NMEA,$GAGSV,2,2,07,29,24,138,31,31,29,243,25,26,01,129,,7*45,1732608772691
NMEA,$GAGSV,2,1,06,04,45,323,16,06,19,321,17,19,71,131,31,21,35,032,26,1*77,1732608772691
NMEA,$GAGSV,2,2,06,29,24,138,17,31,29,243,17,1*78,1732608772691
NMEA,$GQGSV,1,1,02,02,38,056,41,04,20,143,26,1*6C,1732608772691
NMEA,$GQGSV,1,1,03,02,38,056,32,03,12,111,15,04,20,143,21,8*52,1732608772691
NMEA,$GBGSV,7,1,28,62,08,095,23,60,59,199,36,59,26,108,25,45,38,298,24,1*7C,1732608772691
NMEA,$GBGSV,7,2,28,40,65,107,40,39,45,068,42,36,48,012,23,30,28,092,26,1*72,1732608772691
NMEA,$GBGSV,7,3,28,29,24,154,41,22,57,261,36,21,20,314,32,19,35,180,38,1*78,1732608772691
NMEA,$GBGSV,7,4,28,16,47,057,38,13,08,186,22,10,67,166,28,09,54,026,33,1*70,1732608772691
NMEA,$GBGSV,7,5,28,07,71,133,32,06,51,049,37,05,47,236,36,03,52,135,39,1*79,1732608772691
NMEA,$GBGSV,7,6,28,02,62,191,36,01,22,106,32,04,07,099,,08,02,178,,1*77,1732608772691
NMEA,$GBGSV,7,7,28,27,04,050,,46,14,058,,50,00,000,,61,52,134,,1*71,1732608772691
NMEA,$GBGSV,3,1,09,19,35,180,40,21,20,314,28,22,57,261,35,29,24,154,40,3*79,1732608772691
NMEA,$GBGSV,3,2,09,30,28,092,28,36,48,012,22,39,45,068,37,40,65,107,37,3*7A,1732608772691
NMEA,$GBGSV,3,3,09,45,38,298,20,3*46,1732608772691
NMEA,$GBGSV,3,1,09,19,35,180,34,21,20,314,21,22,57,261,33,29,24,154,16,5*70,1732608772691
NMEA,$GBGSV,3,2,09,30,28,092,31,36,48,012,26,39,45,068,35,40,65,107,33,5*76,1732608772691
NMEA,$GBGSV,3,3,09,45,38,298,25,5*45,1732608772691
NMEA,$GNGSA,A,3,03,04,07,08,09,16,27,,,,,,0.6,0.3,0.5,1*32,1732608772725
NMEA,$GNGSA,A,3,65,66,67,76,78,87,,,,,,,0.6,0.3,0.5,2*31,1732608772725
NMEA,$GNGSA,A,3,04,06,19,21,29,31,,,,,,,0.6,0.3,0.5,3*33,1732608772725
NMEA,$GNGSA,A,3,02,03,06,07,09,10,13,16,19,21,22,29,0.6,0.3,0.5,4*39,1732608772725
NMEA,$GNGSA,A,3,02,03,04,,,,,,,,,,0.6,0.3,0.5,5*30,1732608772725
NMEA,$GNVTG,,T,,M,0.0,N,0.0,K,A*3D,1732608772725
NMEA,$GNDTM,W84,,0000.000000,N,00000.000000,E,0.000,W84*41,1732608772725
NMEA,$GNRMC,081253.00,A,2235.669745,N,08821.673282,E,0.0,,261124,0.5,W,A,V*67,1732608772725
NMEA,$GNGNS,081253.00,2235.669745,N,08821.673282,E,AAAAAN,40,0.3,-2.1,-57.0,,,V*26,1732608772725
NMEA,$GNGGA,081253.00,2235.669745,N,08821.673282,E,1,12,0.3,-2.1,M,-57.0,M,,*7E,1732608772725
NMEA,$GPGSV,4,1,13,03,21,204,30,04,88,348,36,07,26,311,31,08,57,143,35,1*60,1732608773691
NMEA,$GPGSV,4,2,13,09,55,318,30,16,31,034,35,27,50,080,44,02,00,000,,1*6E,1732608773691
NMEA,$GPGSV,4,3,13,21,04,161,,26,05,049,,31,10,087,,40,00,000,37,1*60,1732608773691
NMEA,$GPGSV,4,4,13,41,00,000,40,1*57,1732608773691
NMEA,$GPGSV,2,1,05,03,21,204,18,04,88,348,34,08,57,143,39,09,55,318,21,8*6E,1732608773691
NMEA,$GPGSV,2,2,05,27,50,080,36,8*55,1732608773691
NMEA,$GLGSV,3,1,09,78,21,273,29,66,61,194,35,86,12,070,16,77,42,341,19,1*7A,1732608773691
NMEA,$GLGSV,3,2,09,76,21,031,33,65,14,167,24,87,15,117,26,67,49,314,21,1*71,1732608773691
NMEA,$GLGSV,3,3,09,68,04,333,20,1*4A,1732608773691
NMEA,$GAGSV,2,1,07,04,45,323,26,06,19,321,25,19,71,131,34,21,35,032,34,7*74,1732608773691
NMEA,$GAGSV,2,2,07,29,24,138,31,31,29,243,25,26,01,129,,7*45,1732608773691
NMEA,$GAGSV,2,1,06,04,45,323,14,06,19,321,17,19,71,131,32,21,35,032,27,1*77,1732608773691
NMEA,$GAGSV,2,2,06,29,24,138,17,31,29,243,18,1*77,1732608773691
NMEA,$GQGSV,1,1,02,02,38,056,41,04,20,143,27,1*6D,1732608773691
NMEA,$GQGSV,1,1,03,02,38,056,32,03,12,111,15,04,20,143,21,8*52,1732608773691
NMEA,$GBGSV,7,1,28,62,08,095,23,60,59,199,37,59,26,108,25,45,38,298,25,1*7C,1732608773691
NMEA,$GBGSV,7,2,28,40,65,107,40,39,45,068,42,36,48,012,23,30,28,092,28,1*7C,1732608773691
NMEA,$GBGSV,7,3,28,29,24,154,41,22,57,261,35,21,20,314,32,19,35,180,38,1*7B,1732608773691
NMEA,$GBGSV,7,4,28,16,47,057,38,13,08,186,23,10,67,166,26,09,54,026,33,1*7F,1732608773691
NMEA,$GBGSV,7,5,28,07,71,133,33,06,51,049,37,05,47,236,36,03,52,135,39,1*78,1732608773691
NMEA,$GBGSV,7,6,28,02,62,191,36,01,22,106,32,04,07,099,,08,02,178,,1*77,1732608773691
NMEA,$GBGSV,7,7,28,27,04,050,,46,14,058,,50,00,000,,61,52,134,,1*71,1732608773691
NMEA,$GBGSV,3,1,09,19,35,180,39,21,20,314,28,22,57,261,34,29,24,154,41,3*77,1732608773691
NMEA,$GBGSV,3,2,09,30,28,092,28,36,48,012,23,39,45,068,37,40,65,107,36,3*7A,1732608773691
NMEA,$GBGSV,3,3,09,45,38,298,19,3*4C,1732608773691
NMEA,$GBGSV,3,1,09,19,35,180,34,21,20,314,21,22,57,261,33,29,24,154,13,5*75,1732608773691
NMEA,$GBGSV,3,2,09,30,28,092,31,36,48,012,26,39,45,068,36,40,65,107,34,5*72,1732608773691
NMEA,$GBGSV,3,3,09,45,38,298,25,5*45,1732608773691
NMEA,$GNGSA,A,3,03,04,07,08,09,16,27,,,,,,0.6,0.3,0.5,1*32,1732608773729
NMEA,$GNGSA,A,3,65,66,67,76,78,87,,,,,,,0.6,0.3,0.5,2*31,1732608773729
NMEA,$GNGSA,A,3,04,06,19,21,29,31,,,,,,,0.6,0.3,0.5,3*33,1732608773729
NMEA,$GNGSA,A,3,02,03,06,07,09,10,13,16,19,21,22,29,0.6,0.3,0.5,4*39,1732608773729
NMEA,$GNGSA,A,3,02,03,04,,,,,,,,,,0.6,0.3,0.5,5*30,1732608773729
NMEA,$GNVTG,,T,,M,0.0,N,0.0,K,A*3D,1732608773729
NMEA,$GNDTM,W84,,0000.000000,N,00000.000000,E,0.000,W84*41,1732608773729
NMEA,$GNRMC,081254.00,A,2235.669743,N,08821.673283,E,0.0,,261124,0.5,W,A,V*67,1732608773729
NMEA,$GNGNS,081254.00,2235.669743,N,08821.673283,E,AAAAAN,40,0.3,-2.1,-57.0,,,V*26,1732608773729
NMEA,$GNGGA,081254.00,2235.669743,N,08821.673283,E,1,12,0.3,-2.1,M,-57.0,M,,*7E,1732608773729
NMEA,$GPGSV,4,1,13,03,21,204,29,04,88,348,36,07,26,311,29,08,57,143,36,1*62,1732608774689
NMEA,$GPGSV,4,2,13,09,55,318,31,16,31,034,35,27,50,080,43,02,00,000,,1*68,1732608774689
