     4.01           OBSERVATION DATA    M                   RINEX VERSION / TYPE
GnssLogger          vivo 14             20241126 081252 UTC PGM / RUN BY / DATE
Google GnssLogger                                           MARKER NAME
Unknown                                                     MARKER NUMBER
Unknown             Unknown                                 OBSERVER / AGENCY
Unknown             GnssLogger          v3.1.0.3            REC # / TYPE / VERS
Unknown             Unknown                                 ANT # / TYPE
        0.0000        0.0000        0.0000                  ANTENNA: DELTA H/E/N
G    6 C1C D1C S1C C5Q D5Q S5Q                              SYS / # / OBS TYPES
R    3 C1C D1C S1C                                          SYS / # / OBS TYPES
J    6 C1C D1C S1C C5Q D5Q S5Q                              SYS / # / OBS TYPES
C    9 C2I D2I S2I C5P D5P S5P C1P D1P S1P                  SYS / # / OBS TYPES
E    6 C1C D1C S1C C5Q D5Q S5Q                              SYS / # / OBS TYPES
  2024    11    26    08    12   52.0000000     GPS         TIME OF FIRST OBS
 9 R01  1 R02 -4 R03  5 R04  6 R12 -1 R13 -2 R14 -7 R22 -3  GLONASS SLOT / FRQ #
   R23  3                                                   GLONASS SLOT / FRQ #
vivo I2201 (Android 14) HW Year: 2018 HW Model:             COMMENT
qcom;MPSS.DE.2.0-00780.7-WAIPIO_GEN_PACK-1.10720.344;       COMMENT
                                                            END OF HEADER
> 2024 11 26 08 12 52.4209073  0 41                      
G03  23518814.36224     -2842.30524        26.30024  23516480.47723     -2122.64623        23.00023
G04  19974748.86725       143.75725        33.40025  19972409.58725       107.34925        30.90025
G07  23625379.78823      1719.25023        23.30023                                                
G08  20576041.40126      1745.50226        40.40026  20573697.62426      1303.46126        37.90026
G09  20824626.01024      1900.77324        27.40024  20822285.53023      1419.15023        18.90023
G16  22449989.49426     -3081.37726        37.50026                                                
G27  20996100.70027      -368.48027        44.20027  20993759.32126      -275.12626        37.00026
J02  41096866.33026      -398.46526        41.40026  41094529.14825      -297.59525        30.80025
R14  22503796.84425      1267.97725        31.50025
R02  19687297.96525     -2202.49425        35.20025
R12  22517568.71026     -2281.97826        36.80026
R01  23117141.03423     -4376.05023        23.00023
R23  23063295.31124      2727.60024        24.90024
R03  20264293.22024      1993.05024        24.40024
R04  24094669.50522      4099.25022        16.40022
C60  36515243.72126       -30.72026        38.60026                                                                                                
C45  23502159.39224       703.36324        29.30024  23500277.29523       530.13823        23.20023  23502179.17823       709.87923        22.10023
C40  36466759.78626       682.23026        35.80026  36464886.98226       514.11326        35.70026  36466783.76925       688.60625        33.50025
C39  37286649.28826       414.67226        40.50026  37284772.28726       312.52126        35.80026  37286668.17525       418.58725        33.50025
C36  22761862.08924      -814.20724        28.50024  22759997.68022      -612.15022        15.90022  22761898.96325      -821.55525        30.00025
C30  24271019.72124       785.15024        24.60024  24269174.49825       594.95625        30.30025  24271058.39425       796.86325        29.50025
C29  24474518.54126      2512.00726        39.50026  24472644.23922      1893.30022        13.30022  24474551.21926      2535.12026        38.80026
C22  22292433.86726      -467.36326        37.00026  22290555.06825      -352.03625        32.00025  22292455.15325      -471.51925        34.30025
C21  25285429.26024      2149.98224        28.80024                                                  25285464.33524      2169.70124        27.70024
C19  23985019.81426     -2908.76226        36.10026  23983154.80626     -2192.01826        36.20026  23985058.48826     -2935.34826        38.50026
C16  37257008.20826       499.78026        37.00026                                                                                                
C10  36641417.97224       647.70024        24.50024                                                                                                
C09  37240410.19925       536.78625        31.60025                                                                                                
C07  36273208.07926       551.20126        37.50026                                                                                                
C06  36806128.44626       430.21726        38.50026                                                                                                
C05  37259754.30725       -21.15025        31.50025                                                                                                
C03  36689356.28526        -8.39226        37.10026                                                                                                
C02  36184813.67325       -43.28325        35.00025                                                                                                
C01  39447981.12925         1.35025        31.00025                                                                                                
E04  24755594.95623      1973.28823        23.30023                                                
E06  26826873.94024      2590.51424        26.80024  26824975.65423      1934.55523        19.20023
E19  23185878.34926      -761.58426        35.50026  23183975.86625      -568.66425        31.20025
E21  25626369.73125     -2131.07425        35.30025  25624471.14625     -1591.33125        31.10025
E29  26379558.71024     -2429.06424        24.90024  26377654.72823     -1814.50023        17.50023
E31  25903492.48324      1610.52724        23.50024  25901581.60622      1200.65022        16.50022
J04                                                  36967104.70424      -203.86224        24.30024
> 2024 11 26 08 12 53.4209073  0 44                      
G03  23519373.66024     -2840.85124        26.80024  23517023.58724     -2121.31624        24.30024
G04  19974721.77125       144.67825        34.70025  19972384.29025       108.06925        30.20025
G07  23625045.40524      1721.10024        24.80024                                                
G08  20575708.51726      1746.61526        41.40026  20573364.44025      1304.21125        34.90025
G09  20824267.64325      1901.95925        30.30025  20821926.56423      1420.25023        19.30023
G16  22450573.07526     -3079.68526        36.30026                                                
G27  20996169.53827      -367.47727        44.10027  20993829.05826      -274.47926        36.20026
J02  41096942.36226      -396.61726        40.00026  41094605.18025      -296.20225        31.00025
R14  22503557.19525      1269.70325        30.90025
R02  19687707.66725     -2201.71625        32.40025
R22  23425484.05822       716.55022        15.90022
R13  20770826.63922      -999.70022        13.20022
R12  22518000.29625     -2279.99025        35.20025
R01  23117951.25924     -4371.90024        23.50024
R23  23062789.14724      2730.83724        25.30024
R03  20263915.36723      1990.90023        22.70023
R04  24093817.98023      4098.85023        19.10023
C60  36515249.90226       -29.29026        38.30026                                                                                                
C45  23502021.37325       705.27025        30.10025  23500143.47323       531.44223        21.20023  23502038.76123       711.70823        21.40023
C40  36466628.36226       683.61926        36.80026  36464756.75826       515.13926        35.60026  36466655.34326       689.86326        35.80026
C39  37286570.62826       416.29426        38.20026  37284692.42825       313.72625        34.10025  37286582.61925       419.98625        30.20025
C36  22762025.06125      -812.83725        29.50025  22760156.75523      -612.64323        21.90023  22762052.94225      -820.33025        30.00025
C30  24270868.21124       790.93924        27.10024  24269023.28825       595.86125        30.10025  24270907.18425       797.93225        31.90025
C29  24474035.46126      2513.69226        40.50026  24472165.95623      1894.35023        18.30023  24474067.83926      2536.51026        39.50026
C22  22292520.39326      -466.34526        38.00026  22290647.58925      -351.36625        31.20025  22292545.87526      -470.70026        36.70026
C21  25285016.33124      2151.20724        28.70024  25283141.72922      1620.65022        16.90022  25285046.61024      2170.86624        27.10024
C19  23985576.71426     -2907.33726        36.90026  23983712.60525     -2191.06625        34.90025  23985615.38726     -2934.17326        39.80026
C16  37256913.95926       501.48426        36.50026                                                                                                
C10  36641303.93725       649.77525        29.50025                                                                                                
C09  37240311.15325       538.31825        31.10025                                                                                                
C07  36273100.63826       552.80026        38.40026                                                                                                
C06  36806047.08726       431.90926        39.10026                                                                                                
C05  37259763.48625       -13.25025        32.40025                                                                                                
C03  36689359.16926        -6.79926        36.90026                                                                                                
C02  36184818.05525       -48.60025        32.10025                                                                                                
C01  39447990.60825       -24.60025        30.90025                                                                                                
E04  24755225.19823      1974.81623        21.70023                                                
E06  26826386.36324      2592.16224        27.20024  26824480.58223      1934.80023        18.00023
E19  23186024.23326      -760.32326        36.40026  23184120.25125      -567.79625        29.50025
E21  25626777.93426     -2129.46026        35.70026  25624877.85025     -1590.28125        30.70025
E29  26380014.57924     -2427.58324        24.20024  26378123.48923     -1812.84923        19.70023
E31  25903190.47824      1611.96424        24.50024  25901278.70123      1203.64523        19.90023
J03                                                  39150291.30121       -16.50021        11.60021
J04                                                  36967156.45423      -202.59923        21.30023
> 2024 11 26 08 12 54.4209073  0 43                      
G03  23519909.89525     -2840.84025        29.80025  23517566.41723     -2121.34823        23.30023
G04  19974698.89326       143.91626        35.70026  19972361.41225       107.55325        31.10025
G08  20575376.55326      1745.75126        41.20026  20573032.77526      1303.78026        35.70026
G09  20823915.89325      1901.09225        30.40025                                                
G16  22451150.68125     -3080.29125        31.40025                                                
G27  20996237.19727      -368.54827        44.10027  20993899.11625      -275.05325        35.20025
J02  41097019.01526      -397.03826        41.10026  41094680.63425      -296.38525        30.90025
J04  36969551.70224      -271.73724        26.00024  36967215.71923      -202.71623        20.00023
R14  22503308.87325      1268.97425        31.70025
R02  19688126.08425     -2202.48325        32.80025
R13  20770961.45222     -1004.25022        17.20022
R12  22518436.70025     -2280.27325        35.00025
R01  23118740.21924     -4373.85024        24.50024
R23  23062271.01224      2730.16124        26.10024
R03  20263548.32722      1995.15022        17.10022
R04  24093007.84723      4103.10023        17.60023
C62  40723458.72623       105.60023        20.80023                                                                                                
C60  36515254.30526       -29.34126        37.50026                                                                                                
C45  23501884.57324       704.65024        23.60024  23500003.37623       531.11023        21.60023  23501904.66023       711.14923        19.60023
C40  36466496.35926       683.33726        36.50026  36464624.45525       514.98225        35.10025  36466526.93826       689.57726        37.80026
C39  37286490.78925       415.92125        34.30025  37284609.89125       313.56525        32.90025  37286517.47125       420.10225        32.90025
C36  22762189.85324      -812.87924        29.00024  22760320.64723      -611.30023        18.90023  22762193.15123      -820.10023        21.90023
C30  24270721.81924       790.29424        26.50024  24268873.29825       595.46825        31.60025  24270759.59225       797.42625        32.10025
C29  24473551.80227      2513.36727        41.50027  24471684.99523      1894.11223        20.50023  24473585.07926      2536.51126        40.90026
C22  22292602.14226      -467.01326        36.10026  22290737.73325      -351.92625        32.20025  22292629.72326      -471.25426        35.90026
C21  25284625.30823      2148.35023        23.40023  25282726.12323      1620.69623        19.00023  25284625.90724      2170.42524        28.90024
C19  23986136.33326     -2907.72226        38.60026  23984271.62425     -2191.28025        34.10025  23986171.70826     -2934.35226        40.30026
C16  37256824.82626       501.14226        39.00026                                                                                                
C13  40453559.17324     -1454.18424        28.10024                                                                                                
C10  36641185.12525       649.29525        33.40025                                                                                                
C09  37240205.83225       538.17425        30.80025                                                                                                
C07  36272995.31726       552.31526        38.50026                                                                                                
C06  36805965.75026       431.59126        39.20026                                                                                                
C05  37259765.49125       -23.10025        34.20025                                                                                                
C03  36689360.87426        -6.94926        37.30026                                                                                                
C02  36184831.15225       -42.06925        32.00025                                                                                                
C01  39447997.40925        -9.75025        31.90025                                                                                                
E04  24754845.26722      1973.70022        15.50022  24752945.78222      1474.70022        13.60022
E06  26825889.81324      2591.75024        25.80024  26823993.02623      1935.00023        18.30023
E19  23186168.93926      -760.91226        36.40026  23184264.95725      -568.15625        29.60025
E21  25627186.45825     -2129.63325        32.20025  25625285.47424     -1590.35524        26.60024
E29  26380480.06323     -2427.93523        23.00023  26378589.87224     -1813.23024        23.70024
E31  25902881.29823      1611.54123        20.90023  25900977.91623      1203.38023        19.50023
> 2024 11 26 08 12 55.4209073  0 42                      
G03  23520444.04224     -2840.49324        27.70024  23518107.45924     -2121.43924        27.50024
G04  19974667.33225       143.19125        34.50025  19972332.24925       106.85525        32.10025
G08  20575042.80126      1745.08326        41.00026  20572698.12425      1303.25925        30.90025
G09  20823548.86424      1900.65224        28.50024  20821192.19522      1419.60022        15.70022
G16  22451745.38725     -3080.38525        35.30025                                                
G27  20996308.46527      -369.34127        42.60027  20993968.28526      -275.74826        36.20026
G31  24866442.62623     -1894.30023        20.40023                                                
J02  41097095.97926      -397.01326        39.20026  41094756.99825      -296.43925        30.60025
R14  22503066.25825      1268.72525        29.90025
R02  19688539.11426     -2203.58826        37.90026
R12  22518852.72925     -2280.38425        34.30025
R01  23119575.95723     -4374.20023        22.50023
R23  23061760.08224      2729.89624        25.70024
R03  20263168.10724      1992.90024        24.70024
R04  24092272.37323      4105.30023        18.60023
C60  36515259.61826       -29.36826        36.70026                                                                                                
C45  23501749.28424       707.90024        24.90024  23499871.68423       531.22923        19.30023  23501761.27624       711.07124        27.00024
C40  36466364.36826       682.88826        39.90026  36464494.26226       514.69526        36.80026  36466394.64726       689.20626        39.10026
C39  37286406.16525       416.05925        32.20025  37284530.96325       313.48625        30.60025  37286431.34725       419.62425        34.60025
C36  22762331.87225      -813.01125        32.70025  22760467.16324      -612.23224        25.60024  22762362.45125      -820.31625        31.60025
C30  24270572.13925       789.57625        30.60025  24268721.22025       595.12725        30.80025  24270605.11625       796.86925        34.60025
C29  24473070.85226      2513.35526        41.10026  24471201.64624      1894.23024        25.60024  24473103.23026      2536.43826        39.50026
C22  22292699.49226      -467.78626        36.40026  22290827.28825      -352.44425        33.20025  22292723.47525      -472.09325        33.40025
C21  25284190.52624      2150.01324        28.00024  25282321.32023      1620.45223        21.40023  25284207.01424      2169.93424        25.40024
C19  23986695.06326     -2908.09926        38.00026  23984829.75425     -2191.42625        34.10025  23986731.63826     -2934.62626        40.30026
C16  37256724.31326       501.05726        39.50026                                                                                                
C13  40453825.30624     -1453.05024        24.40024                                                                                                
C10  36641057.63025       649.07225        33.60025                                                                                                
C09  37240097.52325       538.16125        30.30025                                                                                                
C07  36272889.70726       552.09026        38.20026                                                                                                
C06  36805880.82526       431.48726        37.80026                                                                                                
C05  37259765.70724       -22.80024        28.90024                                                                                                
C03  36689361.69025         1.25025        33.60025                                                                                                
C02  36184835.26624       -31.80024        27.80024                                                                                                
C01  39447989.23225        -9.90025        32.20025                                                                                                
E04  24754479.13723      1974.20023        18.10023  24752566.46123      1473.90023        17.60023
E06  26825400.16823      2591.29323        22.10023                                                
E19  23186313.65625      -761.37425        33.30025  23184410.27324      -568.56424        25.90024
E21  25627591.99426     -2129.81226        37.20026  25625689.81125     -1590.56325        30.00025
E29  26380930.56823     -2428.16523        21.30023  26379048.77123     -1813.29223        19.50023
E31  25902578.42523      1611.03723        23.40023  25900669.94623      1203.16123        22.70023
J04                                                  36967265.10123      -202.75223        22.30023
> 2024 11 26 08 12 56.4209073  0 43                      
G03  23520986.47724     -2841.35424        25.40024  23518652.29323     -2121.43423        21.20023
G04  19974646.45825       142.41825        32.00025  19972304.17924       107.50324        27.80024
G07  23624070.71424      1722.09924        25.70024                                                
G08  20574713.14026      1744.44326        40.00026  20572366.36525      1302.77525        31.70025
G09  20823192.82124      1899.77924        25.90024  20820840.35023      1419.90023        18.90023
G16  22452328.29425     -3080.51625        34.90025                                                
G27  20996380.52627      -370.04327        43.60027  20994039.74625      -276.37525        35.30025
G31  24866803.68823     -1895.15023        20.00023                                                
J02  41097167.74027      -396.98327        41.50027  41094832.05725      -296.64125        31.20025
R14  22502844.82224      1268.71024        26.70024
R02  19688944.54525     -2204.35525        34.90025
R12  22519281.54326     -2280.12926        36.70026
R01  23120396.90023     -4375.25023        17.50023
R23  23061241.85223      2730.35023        23.40023
R03  20262784.48424      1989.55024        24.60024
R04  24091543.98923      4104.35023        18.90023
C60  36515266.32526       -31.20026        36.10026                                                                                                
C45  23501605.79424       704.99724        27.20024                                                  23501633.97524       711.08924        23.90024
C40  36466232.27026       682.66626        39.00026  36464361.86525       514.43325        33.00025  36466262.54926       688.74426        37.70026
C39  37286330.12826       415.82826        37.40026  37284453.12825       313.33425        32.30025  37286346.31725       419.36225        32.40025
C36  22762482.77925      -812.92325        31.10025  22760627.06323      -612.40823        22.90023  22762520.85225      -820.62025        33.10025
C30  24270428.35025       789.15025        30.60025  24268567.53824       594.65024        24.10024  24270451.13425       796.18325        30.60025
C29  24472588.29726      2513.26826        37.60026  24470719.99123      1893.76023        22.80023  24472618.57626      2536.38626        36.20026
C22  22292792.83826      -468.13426        39.60026  22290914.63824      -353.02524        28.00024  22292817.72126      -472.57426        36.10026
C21  25283775.72425      2149.65025        30.90025  25281897.52423      1618.95023        17.50023                                                
C19  23987257.28526     -2908.14226        37.10026  23985387.17925     -2191.67425        30.40025  23987292.06126     -2934.99526        38.30026
C16  37256622.49426       501.00126        37.90026                                                                                                
C10  36640927.03225       648.76425        30.70025                                                                                                
C09  37240001.10124       538.07424        27.90024                                                                                                
C07  36272782.19326       551.97426        38.80026                                                                                                
C06  36805798.19426       431.51426        39.50026                                                                                                
C05  37259768.21724       -19.60024        28.60024                                                                                                
C03  36689361.80125        -6.35025        34.80025                                                                                                
C02  36184839.87425       -40.55025        30.30025                                                                                                
C01  39447992.64024        -7.20024        28.80024                                                                                                
E04  24754108.70523      1973.63023        20.40023                                                
E06  26824894.52924      2591.52024        23.80024                                                
E19  23186458.86625      -761.87325        35.20025  23184554.58424      -568.97324        26.70024
E21  25627992.92726     -2130.06926        35.70026  25626093.74225     -1590.45325        29.60025
E29  26381391.16023     -2428.48423        20.50023  26379515.95922     -1813.80022        17.40022
E31  25902267.35124      1610.68324        23.90024  25900360.97122      1203.15022        16.50022
J03                                                  39150302.62722       -16.50022        13.80022
J04                                                  36967316.17723      -204.25023        18.60023
> 2024 11 26 08 12 57.4209073  0 42                      
G03  23521537.17923     -2842.00023        22.90023  23519189.20423     -2120.61523        19.50023
G04  19974616.16125       143.26025        33.20025  19972274.78225       106.92525        30.80025
G08  20574376.45626      1745.30126        38.90026  20572036.27625      1303.18025        34.60025
G09  20822831.55424      1901.11124        26.70024  20820487.77623      1419.45023        19.10023
G16  22452911.67326     -3079.29426        36.70026                                                
G27  20996450.06027      -369.39227        44.80027  20994108.98125      -275.84525        35.20025
J02  41097242.97126      -395.48126        40.70026  41094905.78925      -295.35325        30.30025
R14  22502620.26023      1267.80023        20.70023
R02  19689372.33125     -2203.72825        34.10025
R22  23424940.75122       720.55022        14.10022
R13  20771543.95922     -1000.75022        14.10022
R12  22519708.13126     -2278.62426        37.80026
R23  23060762.16723      2730.20023        19.90023
R03  20262404.32924      1990.48624        25.20024
R04  24090758.21523      4103.35023        19.40023
C60  36515269.90525       -22.85025        35.10025                                                                                                
C59  38953811.73724       -72.55024        25.30024                                                                                                
C45  23501474.76824       705.90924        26.90024  23499593.57022       531.50022        15.40022  23501504.14723       713.00023        18.30023
C40  36466102.44326       683.89726        36.90026  36464230.53925       515.35425        33.60025  36466129.12425       690.20525        35.10025
C39  37286247.96826       417.22326        38.00026  37284373.36625       314.44525        33.70025  37286275.84824       420.96224        29.30024
C36  22762642.85025      -811.61325        31.30025  22760782.33823      -611.24123        19.60023  22762677.92625      -819.01425        32.70025
C30  24270279.33525       790.04825        32.50025  24268416.12524       595.37924        27.20024  24270297.32325       797.27325        30.70025
C29  24472106.21426      2514.72826        36.90026  24470237.60723      1895.24023        19.80023  24472134.69425      2537.48225        33.60025
C22  22292881.85926      -467.49526        39.10026  22291004.85925      -352.13925        30.50025  22292909.14026      -471.76226        36.20026
C21  25283361.39325      2150.68125        31.50025  25281490.68822      1619.90022        16.40022  25283422.55122      2170.60022        16.40022
C19  23987815.48126     -2907.17826        36.00026  23985946.27524     -2190.89924        27.60024  23987849.05826     -2933.79526        38.10026
C16  37256526.84326       502.44326        36.50026                                                                                                
C10  36640806.79724       650.36224        29.20024                                                                                                
C09  37239892.55925       539.52925        30.30025                                                                                                
C07  36272676.94826       553.21426        37.40026                                                                                                
C06  36805714.23426       433.00226        39.90026                                                                                                
C05  37259773.29625       -22.00025        30.40025                                                                                                
C03  36689364.18225        -5.81125        34.50025                                                                                                
C02  36184852.14825       -38.75025        30.90025                                                                                                
C01  39447994.42225       -19.10025        31.20025                                                                                                
E04  24753733.04723      1981.87523        23.20023  24751818.57322      1474.45022        14.20022
E06  26824398.95524      2592.61324        24.90024  26822509.66323      1935.80023        17.60023
E19  23186603.04925      -760.86525        35.20025  23184698.16824      -568.24224        28.30024
E21  25628400.62826     -2128.61126        37.60026  25626497.54524     -1589.56024        27.90024
E29  26381874.10923     -2427.90023        18.70023                                                
E31  25901964.54324      1611.94224        28.60024  25900053.66623      1203.69923        19.40023
J04                                                  36967362.92723      -201.15023        17.90023
> 2024 11 26 08 12 58.4209073  0 42                      
G03  23522057.80123     -2839.85023        23.40023  23519727.51423     -2119.43723        21.60023
G04  19974587.26325       143.80225        33.70025  19972249.48225       107.40925        30.00025
G08  20574045.66726      1745.74926        39.40026  20571703.38925      1303.56325        32.10025
G09  20822455.79624      1901.68624        27.60024  20820121.01323      1420.02023        20.50023
G16  22453500.04826     -3078.22026        36.60026                                                
G27  20996521.29327      -368.98327        43.60027  20994180.51426      -275.60526        36.10026
G31  24867492.47623     -1899.20023        20.80023                                                
J02  41097320.50026      -394.33226        39.40026  41094982.41825      -294.36025        30.80025
J03  39152633.07923       -20.65023        22.10023  39150315.68322       -15.70022        16.80022
R14  22502370.11624      1270.88224        25.50024
R02  19689784.12925     -2203.37125        33.10025
R12  22520137.01626     -2277.30826        37.80026
R01  23122093.59022     -4375.05022        17.20022
R23  23060236.51324      2730.40024        24.60024
R03  20262056.15324      1990.97224        26.60024
R04  24090038.89623      4102.95023        19.80023
C60  36515275.78325       -35.10025        34.50025                                                                                                
C45  23501338.24524       706.76824        29.00024  23499471.73723       532.05023        18.40023  23501391.00823       711.50023        17.90023
C40  36465972.21526       684.83826        37.40026  36464099.71225       516.06025        33.40025  36465999.79626       691.16626        36.90026
C39  37286169.30526       418.42226        35.50026  37284293.20325       315.23925        33.20025  37286185.49324       422.18924        28.60024
C36  22762798.02525      -810.53425        31.00025  22760936.31423      -611.55023        17.80023  22762834.90025      -817.98025        33.30025
C30  24270126.32425       790.88825        35.30025  24268265.81224       595.92424        24.80024  24270147.00925       798.10925        31.60025
C29  24471622.83126      2515.56126        39.70026  24469756.62223      1895.75023        18.60023  24471652.81026      2538.58726        36.40026
C22  22292972.27926      -466.92926        39.30026  22291095.27824      -351.73324        29.40024  22292995.96325      -471.29825        34.20025
C21  25282948.46125      2151.34125        32.80025  25281076.55723      1619.50823        19.20023  25283005.42222      2170.50022        15.50022
C19  23988374.77626     -2906.22126        36.40026  23986505.57025     -2190.21725        33.00025  23988408.35326     -2933.04326        37.70026
C16  37256431.69226       503.56426        37.90026                                                                                                
C10  36640684.06525       650.99625        29.50025                                                                                                
C09  37239786.31524       540.75924        29.20024                                                                                                
C07  36272569.80526       554.14826        36.80026                                                                                                
C06  36805631.07426       434.10526        37.80026                                                                                                
C05  37259782.47225       -29.95025        30.20025                                                                                                
C03  36689364.36425        -4.62925        34.50025                                                                                                
C02  36184859.52624       -49.80024        29.40024                                                                                                
C01  39447994.30425       -18.90025        31.10025                                                                                                
E04  24753344.99823      1976.25023        21.80023                                                
E06  26823912.27424      2593.84424        25.70024  26822017.28623      1936.91523        21.40023
E19  23186748.03125      -760.15125        34.40025  23184844.64924      -567.75224        26.80024
E21  25628802.23226     -2127.48126        35.60026  25626904.84525     -1588.78725        29.90025
E29  26382331.17524     -2426.60224        23.80024  26380451.17622     -1811.55022        14.80022
E31  25901658.63724      1612.68024        27.20024  25899750.15923      1204.47923        19.70023
J04                                                  36967420.67023      -201.51823        20.10023
> 2024 11 26 08 12 59.4209073  0 43                      
G03  23522616.79423     -2836.85023        22.20023  23520265.82123     -2119.42923        21.10023
G04  19974561.96125       143.23725        33.50025  19972222.38125       107.03725        31.50025
G08  20573715.47626      1745.34926        40.30026  20571371.09925      1303.39525        34.80025
G09  20822098.32425      1901.31725        29.50025  20819750.04923      1420.07223        20.50023
G16  22454087.22126     -3078.37726        36.40026                                                
G27  20996591.62527      -369.59227        43.80027  20994250.54526      -275.86826        36.60026
G31  24867872.49323     -1892.40023        20.40023                                                
J02  41097394.72826      -394.22126        40.30026  41095055.74725      -294.35925        32.70025
J03  39152642.25223       -22.15023        23.10023  39150318.86122       -15.50022        16.90022
R14  22502121.76824      1270.41824        28.20024
R02  19690196.52325     -2204.13125        30.80025
R13  20771919.36222     -1004.95022        15.60022
R12  22520559.30426     -2277.20026        37.30026
R01  23122858.84023     -4375.35023        17.60023
R23  23059716.25324      2731.73824        25.30024
R03  20261683.69124      1990.20124        28.70024
R04  24089253.02023      4102.55023        18.90023
C60  36515279.56026       -26.96726        36.80026                                                                                                
C45  23501202.01924       706.78524        28.30024  23499324.71923       533.35523        20.60023  23501229.90023       712.44023        23.10023
C40  36465837.18926       684.72726        37.10026  36463968.28325       516.10825        35.40025  36465868.06726       691.14726        36.30026
C39  37286090.93926       418.42826        37.80026  37284212.43925       315.35225        35.00025  37286111.92425       422.33425        31.00025
C36  22762954.69725      -810.30225        33.70025  22761092.68623      -610.25123        19.60023  22762987.07425      -817.76225        32.50025
C30  24269975.10825       790.51025        34.60025  24268113.99724       595.75224        28.00024  24269996.09425       797.86825        32.20025
C29  24471140.64426      2515.76426        40.10026  24469268.74023      1897.31423        19.50023  24471170.02426      2538.96526        38.50026
C22  22293063.89626      -467.27026        39.50026  22291185.39625      -352.15025        32.30025  22293088.77825      -471.45325        35.10025
C21  25282541.82325      2150.96525        32.60025  25280666.62123      1621.55023        18.70023  25282609.87622      2169.75022        16.60022
C19  23988934.06926     -2906.36626        36.60026  23987062.46525     -2190.15025        34.20025  23988966.74626     -2932.87026        39.10026
C16  37256336.83726       503.72826        37.50026                                                                                                
C10  36640559.83124       651.25924        27.90024                                                                                                
C09  37239685.76525       540.94425        30.70025                                                                                                
C07  36272463.25926       554.06426        37.80026                                                                                                
C06  36805546.41326       434.20826        37.70026                                                                                                
C05  37259778.75424       -10.90024        29.40024                                                                                                
C03  36689363.34525        -4.65025        34.70025                                                                                                
C02  36184863.30325       -26.90025        29.80025                                                                                                
C01  39447996.28325        -5.55025        31.10025                                                                                                
E04  24752979.73124      1976.00024        24.00024                                                
E06  26823421.69423      2594.01623        22.70023  26821529.10423      1937.23123        19.40023
E19  23186892.71126      -760.35726        36.00026  23184989.92824      -567.78124        28.80024
E21  25629208.03126     -2127.48926        36.20026  25627309.14625     -1588.50025        30.80025
E29  26382792.13624     -2426.31824        25.40024  26380892.05123     -1810.45023        18.10023
E31  25901351.53024      1612.83024        28.20024  25899442.15223      1204.31123        21.00023
J04                                                  36967467.01823      -200.98323        21.10023
> 2024 11 26 08 13 00.4209073  0 44                      
G03  23523161.45823     -2848.85023        21.80023  23520807.18723     -2120.72723        19.20023
G04  19974535.82025       139.29125        32.40025  19972192.94224       104.01124        29.40024
G07  23622771.99924      1722.23824        25.00024                                                
G08  20573381.74826      1741.40126        38.90026  20571039.76925      1300.46025        33.90025
G09  20821741.81124      1897.40724        28.60024  20819395.63623      1417.35523        19.60023
G16  22454669.65926     -3081.63926        36.50026                                                
G27  20996660.81827      -373.54527        44.10027  20994321.23725      -278.91925        34.80025
G31  24868244.47623     -1895.05023        18.70023                                                
J02  41097468.71826      -397.36526        40.70026  41095132.73525      -296.87625        31.80025
J03  39152648.18923       -26.70023        22.90023                                                
R14  22501892.66724      1266.67024        27.70024
R02  19690600.88424     -2208.08924        28.80024
R22  23424539.63222       717.25022        15.60022
R12  22520975.35725     -2280.32525        35.00025
R01  23123670.32023     -4374.10023        20.70023
R23  23059197.85324      2728.60024        23.50024
R03  20261287.30624      1985.70024        24.40024
R04  24088483.99323      4105.15023        20.70023
C60  36515287.59626       -32.40026        35.50026                                                                                                
C59  38953812.04024       -28.30024        24.80024                                                                                                
C45  23501061.95724       702.58324        25.20024                                                  23501092.53623       710.62323        21.20023
C40  36465708.81826       681.44326        36.40026  36463837.21425       513.52325        34.10025  36465736.69926       687.85026        37.20026
C39  37286010.83526       415.27626        38.20026  37284132.33625       312.96625        32.50025  37286032.72025       419.11725        32.30025
C36  22763110.53025      -813.84325        31.10025  22761248.21923      -613.70023        18.00023  22763143.50725      -820.93225        32.20025
C30  24269819.45725       786.97925        32.40025  24267960.14424       593.03724        26.30024  24269844.64025       794.39025        31.80025
C29  24470657.02026      2512.42626        36.80026  24468790.51224      1893.15024        25.30024  24470687.59926      2535.67426        36.00026
C22  22293155.57326      -471.18326        38.30026  22291274.67524      -354.86224        28.20024  22293175.65925      -475.21525        34.00025
C21  25282124.15325      2147.42125        31.60025  25280251.94922      1617.35022        17.20022  25282177.51623      2167.63823        19.30023
C19  23989491.02425     -2909.71325        34.20025  23987619.12025     -2192.65625        30.60025  23989525.80026     -2936.31026        36.70026
C16  37256236.64726       500.64826        35.60026                                                                                                
C10  36640433.85924       647.79724        26.90024                                                                                                
C09  37239579.87925       537.85425        30.30025                                                                                                
C07  36272357.07326       550.71426        36.50026                                                                                                
C06  36805466.30926       431.09026        37.80026                                                                                                
C03  36689365.08425        -7.78125        34.70025                                                                                                
C02  36184874.03624       -41.70024        28.70024                                                                                                
C01  39448003.41925       -15.95025        31.20025                                                                                                
E04  24752600.43523      1972.04223        22.50023                                                
E06  26822910.18922      2590.75022        16.50022  26821031.09022      1933.90022        17.00022
E19  23187036.85225      -764.11925        33.90025  23185134.06924      -570.58824        28.50024
E21  25629612.39225     -2130.70025        34.90025  25627712.60724     -1590.95524        28.10024
E29  26383252.55824     -2430.11824        25.50024                                                
E31  25901045.38324      1609.08924        26.40024  25899139.00323      1200.45023        18.20023
J04                                                  36967520.32223      -203.83823        19.60023
> 2024 11 26 08 13 01.4209073  0 44                      
G03  23523673.18224     -2843.07824        26.30024  23521346.49323     -2121.41623        22.80023
G04  19974509.71725       138.80325        34.30025  19972164.74024       103.80524        29.00024
G07  23622437.10924      1721.05024        24.80024                                                
G08  20573053.15426      1741.06326        39.70026  20570707.87725      1300.24025        34.90025
G09  20821378.44224      1897.17924        27.90024  20819028.66823      1416.85023        18.30023
G16  22455258.43026     -3081.59126        37.70026                                                
G27  20996731.84727      -374.09927        43.80027  20994391.36726      -279.26226        35.70026
J02  41097544.54426      -397.17826        40.30026  41095207.36225      -296.45225        32.20025
J03  39152640.37323       -23.10023        22.90023  39150328.07422       -17.65022        15.60022
R14  22501639.62124      1264.00024        24.30024
R02  19691016.07525     -2209.04925        30.40025
R13  20772229.26722     -1004.95022        16.20022
R12  22521409.43526     -2280.01226        36.10026
R01  23124474.94123     -4376.20023        20.30023
R23  23058677.99124      2726.15024        24.50024
R03  20260920.63924      1985.56324        25.20024
R04  24087756.07623      4100.60023        21.30023
C60  36515291.77226       -29.84426        37.30026                                                                                                
C45  23500933.62424       703.74524        26.00024  23499056.92422       530.90022        16.70022  23500990.88523       709.70023        17.70023
C40  36465578.68726       681.24126        37.10026  36463706.18425       513.57525        34.70025  36465604.76925       687.68325        35.00025
C39  37285931.06926       415.32426        38.70026  37284052.27025       313.11925        33.40025  37285948.15725       419.20725        31.30025
C36  22763271.79725      -813.86325        29.60025  22761403.19122      -612.45022        16.20022  22763300.57725      -820.86925        33.10025
C30  24269671.33825       786.42525        31.40025  24267810.22724       593.03824        28.40024  24269693.52325       794.19925        32.40025
C29  24470173.13426      2512.70026        41.00026  24468307.22523      1894.11423        23.20023  24470205.81126      2535.78126        39.20026
C22  22293242.79126      -471.54926        38.60026  22291365.19125      -355.31825        29.60025  22293269.17326      -475.59126        36.20026
C21  25281709.21925      2147.07425        31.40025  25279838.51423      1618.40623        20.00023  25281756.58623      2166.85523        20.50023
C19  23990049.81626     -2909.76826        37.70026  23988179.41125     -2192.66925        33.80025  23990084.29226     -2936.33326        39.30026
C16  37256141.89226       500.60226        37.50026                                                                                                
C13  40455499.72223     -1455.75023        22.50023                                                                                                
C10  36640309.12424       648.04424        28.00024                                                                                                
C09  37239478.22825       537.77225        31.80025                                                                                                
C07  36272253.92326       550.79926        37.40026                                                                                                
C06  36805380.84726       431.21726        37.90026                                                                                                
C05  37259792.76425       -33.60025        30.10025                                                                                                
C03  36689364.46426        -7.45226        36.60026                                                                                                
C02  36184882.70925       -44.91325        32.90025                                                                                                
C01  39448004.59725        -6.25025        30.40025                                                                                                
E04  24752224.47423      1972.62023        22.30023  24750310.89821      1473.45021        11.20021
E06  26822432.59824      2590.57224        24.20024  26820541.20823      1934.30023        18.20023
E19  23187184.32826      -764.17526        35.90026  23185280.04724      -570.70724        29.30024
E21  25630018.29026     -2130.63426        35.90026  25628119.10424     -1591.07424        28.60024
E29  26383719.61324     -2429.92924        26.40024  26381836.31722     -1814.55022        17.30022
E31  25900738.07424      1609.03324        26.70024  25898828.99623      1201.71423        20.90023
J04                                                  36967572.76423      -203.70023        17.90023
> 2024 11 26 08 13 02.4209073  0 42                      
G03  23524222.34024     -2841.89224        27.30024  23521914.83722     -2119.60022        16.20022
G04  19974484.47225       137.81325        33.00025  19972138.29624       102.94324        29.10024
G07  23622095.88324      1721.54924        26.00024                                                
G08  20572719.12326      1739.96226        39.80026  20570378.64326      1299.30626        36.70026
G09  20821013.83225      1896.24225        30.50025  20818678.74923      1415.50023        17.50023
G16  22455845.36226     -3081.98826        35.70026                                                
G27  20996805.23427      -375.22727        44.10027  20994463.85526      -280.25426        35.60026
J02  41097624.82627      -397.44127        41.50027  41095283.74725      -296.91425        31.30025
J04  36969943.16124      -275.70024        24.00024  36967630.56223      -204.52823        22.40023
R14  22501405.72125      1265.87925        30.00025
R02  19691419.53425     -2210.18925        30.50025
R13  20772429.46623     -1004.90023        21.20023
R12  22521845.27126     -2280.11826        36.00026
R01  23125284.01923     -4374.20023        21.70023
R23  23058183.87124      2727.53124        25.90024
R03  20260563.52424      1984.21424        25.70024
R04  24086985.84723      4097.50023        19.40023
C60  36515301.30326       -30.51526        39.50026                                                                                                
C45  23500800.15524       702.05024        24.90024  23498921.65523       529.63823        20.80023  23500866.70923       708.93323        20.00023
C40  36465449.41526       680.68426        36.80026  36463576.01225       512.89825        33.00025  36465471.89925       686.80825        32.90025
C39  37285850.66326       414.95826        40.80026  37283972.46325       312.64925        33.90025  37285870.44925       418.70425        35.20025
C36  22763447.71324      -811.77024        28.70024  22761558.12123      -614.05023        17.70023  22763461.20424      -821.50624        27.10024
C30  24269525.27724       785.30024        26.90024  24267658.76924       592.09924        28.60024  24269546.86223       792.83223        22.30023
C29  24469690.70627      2512.03627        41.90027  24467819.70122      1891.55022        16.60022  24469723.98326      2534.96126        40.70026
C22  22293333.26726      -472.48726        36.20026  22291456.86625      -356.15125        30.50025  22293358.14925      -476.90425        34.90025
C21  25281295.74325      2146.32825        30.20025  25279429.23523      1617.33323        20.50023  25281347.00824      2165.95324        23.90024
C19  23990607.96826     -2910.61326        37.60026  23988739.66125     -2193.45225        33.40025  23990643.94326     -2937.36326        39.80026
C16  37256047.09525       500.31925        35.20025                                                                                                
C10  36640183.14924       645.25024        24.20024                                                                                                
C09  37239372.93925       537.58325        31.80025                                                                                                
C07  36272147.13526       550.24226        37.20026                                                                                                
C06  36805298.34226       430.95526        39.00026                                                                                                
C05  37259799.59725       -24.04825        34.90025                                                                                                
C03  36689368.59926        -8.08226        38.50026                                                                                                
C02  36184894.93826       -43.25226        36.20026                                                                                                
C01  39448008.13225       -20.55025        30.90025                                                                                                
E04  24751834.98123      1971.12523        21.60023  24749947.78822      1472.80022        15.80022
E06  26821945.37424      2590.01924        23.90024  26820044.98923      1933.50023        18.90023
E19  23187330.86526      -765.23226        37.20026  23185425.98425      -571.48625        29.50025
E21  25630426.24526     -2131.13026        37.00026  25628521.96324     -1591.43024        25.50024
E29  26384182.13124     -2430.98024        28.50024                                                
E31  25900425.92824      1608.29224        25.70024  25898522.24623      1200.79023        20.20023
> 2024 11 26 08 13 03.4209073  0 44                      
G03  23524763.69924     -2842.61624        27.80024  23522435.21123     -2122.64323        22.30023
G04  19974454.12725       136.42125        34.80025  19972111.54925       102.01225        29.50025
G07  23621765.44624      1720.74924        29.10024                                                
G08  20572389.28525      1738.61925        35.20025  20570047.00626      1298.43626        37.70026
G09  20820660.31025      1894.97925        32.90025  20818311.43722      1415.45022        16.30022
G16  22456429.89125     -3083.05725        34.50025                                                
G27  20996875.91927      -376.77727        43.30027  20994534.24025      -281.20225        34.80025
J02  41097698.50927      -398.31027        42.60027  41095358.62925      -297.43925        31.70025
J04  36970003.05324      -274.24624        25.30024  36967672.16722      -205.10022        17.10022
R14  22501167.32025      1264.98325        34.30025
R02  19691837.37826     -2211.75026        37.00026
R13  20772624.56523     -1008.65023        19.70023
R12  22522281.70326     -2281.05226        37.50026
R01  23126108.08223     -4375.40023        22.00023
R23  23057660.06824      2726.44824        25.90024
R03  20260201.00823      1981.35023        19.90023
R04  24086144.56323      4102.25023        18.10023
C60  36515307.53226       -31.22526        37.30026                                                                                                
C45  23500656.48824       701.00024        24.40024  23498780.98624       529.27624        23.70024  23500702.95623       708.79423        21.00023
C40  36465315.94126       679.75126        38.70026  36463444.63625       512.32525        32.10025  36465344.72125       686.14025        34.10025
C39  37285767.55426       414.12626        40.40026  37283892.65225       312.24425        34.70025  37285786.44126       418.13226        36.90026
C36  22763618.82824      -814.90124        26.10024  22761719.94324      -613.84824        24.90024  22763629.62122      -823.00022        16.90022
C30  24269353.73023       783.95023        21.50023  24267508.50725       591.41525        29.90025  24269393.60224       792.18024        28.80024
C29  24469205.27526      2511.32926        40.20026  24467340.86622      1892.50022        16.90022  24469240.35126      2534.48626        40.30026
C22  22293419.54125      -474.03025        32.90025  22291547.63625      -357.05025        30.60025  22293443.52425      -478.16725        33.00025
C21  25280893.95524      2149.20024        24.60024  25279016.65523      1616.46923        20.00023  25280917.63925      2165.01625        29.80025
C19  23991164.31626     -2911.54526        37.90026  23989300.20725     -2194.05425        32.90025  23991201.19126     -2938.12126        37.90026
C16  37255951.39526       499.59126        36.60026                                                                                                
C13  40456067.70124     -1454.99624        25.40024                                                                                                
C10  36640069.16224       646.28324        27.80024                                                                                                
C09  37239272.74225       536.79025        32.40025                                                                                                
C07  36272040.64225       549.20825        34.60025                                                                                                
C06  36805217.63226       430.06026        39.80026                                                                                                
C05  37259804.32826       -24.93326        36.90026                                                                                                
C03  36689372.13026        -8.70926        39.00026                                                                                                
C02  36184902.66726       -43.92626        36.60026                                                                                                
C01  39448012.86325       -18.85025        34.30025                                                                                                
E04  24751468.26924      1970.68424        24.90024  24749556.19222      1472.05022        15.50022
E06  26821445.55324      2589.44624        27.30024  26819553.56323      1933.15023        17.60023
E19  23187476.49826      -766.30526        36.00026  23185571.61625      -572.16025        30.40025
