Fix,GPS,22.5948325700,88.3617836800,-37.818572998046875,0.0,3.7900925,,1731227468000,0.0707085,,564223776773171,2.5,0,,,
Fix,GPS,22.5948326200,88.3617836800,-37.81207275390625,0.0,3.7900925,,1731227469000,0.0707085,,564224778935878,2.5,0,,,
Fix,GPS,22.5948326600,88.3617836700,-37.801361083984375,0.0,3.7900925,,1731227470000,0.0707085,,564225782003065,2.5,0,,,
Fix,GPS,22.5948327200,88.3617836600,-37.78900146484375,0.0,3.7900925,,1731227471000,0.0707085,,564226782960357,2.5,0,,,
Fix,GPS,22.5948327900,88.3617836500,-37.77996826171875,0.0,3.7900925,,1731227472000,0.0707085,,564227780541867,2.5,0,,,
Fix,GPS,22.5948328500,88.3617836400,-37.767974853515625,0.0,3.7900925,,1731227473000,0.0707085,,564228785360460,2.5,0,,,
Fix,GPS,22.5948329200,88.3617836400,-37.759307861328125,0.0,3.7900925,,1731227474000,0.0707085,,564229786374157,2.5,0,,,
Fix,GPS,22.5948329800,88.3617836600,-37.753326416015625,0.0,3.7900925,,1731227475000,0.0707085,,564230778507283,2.5,0,,,
Fix,GPS,22.5948330300,88.3617836700,-37.74578857421875,0.0,3.7900925,,1731227476000,0.0707085,,564231783651501,2.5,0,,,
Fix,GPS,22.5948330900,88.3617836700,-37.735809326171875,0.0,3.7900925,,1731227477000,0.0707085,,564232775941865,2.5,0,,,
Fix,GPS,22.5948331400,88.3617836700,-37.7308349609375,0.0,3.7900925,,1731227478000,0.0707085,,564233782948479,2.5,0,,,
Fix,GPS,22.5948331900,88.3617836700,-37.723175048828125,0.0,3.7900925,,1731227479000,0.0707085,,564234777856759,2.5,0,,,
Fix,GPS,22.5948332400,88.3617836600,-37.720123291015625,0.0,3.7900925,,1731227480000,0.0707085,,564235783239155,2.5,0,,,
Fix,GPS,22.5948332800,88.3617836500,-37.713775634765625,0.0,3.7900925,,1731227481000,0.0707085,,564236781563530,2.5,0,,,
Fix,GPS,22.5948333400,88.3617836300,-37.705078125,0.0,3.7900925,,1731227482000,0.0707085,,564237787318425,2.5,0,,,
Fix,GPS,22.5948334000,88.3617836200,-37.69879150390625,0.0,3.7900925,,1731227483000,0.0707085,,564238781956446,2.5,0,,,
Fix,GPS,22.5948334600,88.3617836100,-37.690338134765625,0.0,3.7900925,,1731227484000,0.0707085,,564239778660924,2.5,0,,,
Fix,GPS,22.5948335100,88.3617836200,-37.681610107421875,0.0,3.7900925,,1731227485000,0.0707085,,564240783157487,2.5,0,,,
Fix,GPS,22.5948335700,88.3617836200,-37.67401123046875,0.0,3.7900925,,1731227486000,0.0707085,,564241776251341,2.5,0,,,
Fix,GPS,22.5948336300,88.3617836100,-37.666107177734375,0.0,3.7900925,,1731227487000,0.0707085,,564242784593892,2.5,0,,,
Fix,GPS,22.5948337000,88.3617836100,-37.65716552734375,0.0,3.7900925,,1731227488000,0.0707085,,564243786371340,2.5,0,,,
Fix,GPS,22.5948337700,88.3617836100,-37.650482177734375,0.0,3.7900925,,1731227489000,0.0707085,,564244775248526,2.5,0,,,
Fix,GPS,22.5948338400,88.3617836100,-37.6436767578125,0.0,3.7900925,,1731227490000,0.0707085,,564245782223474,2.5,0,,,
Fix,GPS,22.5948339000,88.3617835900,-37.63372802734375,0.0,3.7900925,,1731227491000,0.0707085,,564246775801183,2.5,0,,,
Fix,GPS,22.5948339600,88.3617835800,-37.62274169921875,0.0,3.7900925,,1731227492000,0.0707085,,564247781489254,2.5,0,,,
Fix,GPS,22.5948340100,88.3617835700,-37.614593505859375,0.0,3.7900925,,1731227493000,0.0707085,,564248786995921,2.5,0,,,
Fix,GPS,22.5948340400,88.3617835800,-37.614166259765625,0.0,3.7900925,,1731227494000,0.0707085,,564249785767483,2.5,0,,,
Fix,GPS,22.5948340900,88.3617835800,-37.604949951171875,0.0,3.7900925,,1731227495000,0.0707085,,564250781912743,2.5,0,,,
Fix,GPS,22.5948341400,88.3617835800,-37.593994140625,0.0,3.7900925,,1731227496000,0.07070853,,564251783791493,2.5,0,,,
Fix,GPS,22.5948342000,88.3617835900,-37.586456298828125,0.0,3.7900925,,1731227497000,0.070708565,,564252785209774,2.5,0,,,
Fix,GPS,22.5948342500,88.3617835800,-37.578887939453125,0.0,3.7900925,,1731227498000,0.0707086,,564253780664721,2.5,0,,,
Fix,GPS,22.5948343200,88.3617835700,-37.570953369140625,0.0,3.7900925,,1731227499000,0.07070863,,564254784069253,2.5,0,,,
Fix,GPS,22.5948343900,88.3617835600,-37.562896728515625,0.0,3.7900925,,1731227500000,0.07070866,,564255785197377,2.5,0,,,
Fix,GPS,22.5948344600,88.3617835600,-37.554168701171875,0.0,3.7900925,,1731227501000,0.07070869,,564256788601752,2.5,0,,,
Fix,GPS,22.5948345200,88.3617835400,-37.5438232421875,0.0,3.7900925,,1731227502000,0.07070872,,564257782664667,2.5,0,,,
Fix,GPS,22.5948345600,88.3617835400,-37.539947509765625,0.0,3.7900925,,1731227503000,0.07070875,,564258786422479,2.5,0,,,
Fix,GPS,22.5948346000,88.3617835400,-37.533111572265625,0.0,3.7900925,,1731227504000,0.070708774,,564259785974458,2.5,0,,,
Fix,GPS,22.5948346500,88.3617835500,-37.5244140625,0.0,3.7900925,,1731227505000,0.07070881,,564260777450916,2.5,0,,,
Fix,GPS,22.5948346700,88.3617835400,-37.5169677734375,0.0,3.7900925,,1731227506000,0.07070883,,564261786558677,2.5,0,,,
Fix,GPS,22.5948346900,88.3617835500,-37.5103759765625,0.0,3.7900925,,1731227507000,0.07070886,,564262783113780,2.5,0,,,
Fix,GPS,22.5948347000,88.3617835500,-37.505126953125,0.0,3.7900925,,1731227508000,0.070708886,,564263782031697,2.5,0,,,
Fix,GPS,22.5948347200,88.3617835400,-37.4986572265625,0.0,3.7900925,,1731227509000,0.07070891,,564264781550290,2.5,0,,,
Fix,GPS,22.5948347700,88.3617835400,-37.4871826171875,0.0,3.7900925,,1731227510000,0.07070894,,564265784094664,2.5,0,,,
Fix,GPS,22.5948348300,88.3617835500,-37.474029541015625,0.0,3.7900925,,1731227511000,0.07070895,,564266782106851,2.5,0,,,
Fix,GPS,22.5948348700,88.3617835500,-37.468231201171875,0.0,3.7900925,,1731227512000,0.070708975,,564267785605133,2.5,0,,,
Fix,GPS,22.5948349300,88.3617835300,-37.457061767578125,0.0,3.7900925,,1731227513000,0.070709,,564268788465028,2.5,0,,,
Fix,GPS,22.5948349900,88.3617835300,-37.44793701171875,0.0,3.7900925,,1731227514000,0.07070902,,564269779127893,2.5,0,,,
Fix,GPS,22.5948350600,88.3617835300,-37.433807373046875,0.0,3.7900925,,1731227515000,0.07070904,,564270780494455,2.5,0,,,
Fix,GPS,22.5948351200,88.3617835100,-37.4212646484375,0.0,3.7900925,,1731227516000,0.07070906,,564271786813881,2.5,0,,,
Fix,GPS,22.5948351900,88.3617835000,-37.408172607421875,0.0,3.7900925,,1731227517000,0.07070909,,564272777988463,2.5,0,,,
Fix,GPS,22.5948352700,88.3617835000,-37.39373779296875,0.0,3.7900925,,1731227518000,0.0707091,,564273787028047,2.5,0,,,
Fix,GPS,22.5948353100,88.3617835100,-37.385406494140625,0.0,3.7900925,,1731227519000,0.07070912,,564274785500651,2.5,0,,,
Fix,GPS,22.5948353700,88.3617835200,-37.374176025390625,0.0,3.7900925,,1731227520000,0.07070914,,564275787074713,2.5,0,,,
Fix,GPS,22.5948354300,88.3617835200,-37.3642578125,0.0,3.7900925,,1731227521000,0.070709154,,564276780581691,2.5,0,,,
Fix,GPS,22.5948354600,88.3617835200,-37.35595703125,0.0,3.7900925,,1731227522000,0.07070917,,564277785709295,2.5,0,,,
Fix,GPS,22.5948354900,88.3617835100,-37.34906005859375,0.0,3.7900925,,1731227523000,0.07070919,,564278786557837,2.5,0,,,
Fix,GPS,22.5948355200,88.3617835000,-37.342620849609375,0.0,3.7900925,,1731227524000,0.070709206,,564279785693670,2.5,0,,,
Fix,GPS,22.5948355800,88.3617834900,-37.329498291015625,0.0,3.7900925,,1731227525000,0.07070923,,564280782466118,2.5,0,,,
Fix,GPS,22.5948356200,88.3617834900,-37.318084716796875,0.0,3.7900925,,1731227526000,0.07070924,,564281781600544,2.5,0,,,
Fix,GPS,22.5948356500,88.3617834800,-37.309051513671875,0.0,3.7900925,,1731227527000,0.07070926,,564282776202054,2.5,0,,,
Fix,GPS,22.5948356800,88.3617834800,-37.30059814453125,0.0,3.7900925,,1731227528000,0.07070927,,564283780186480,2.5,0,,,
Fix,GPS,22.5948357300,88.3617834700,-37.296295166015625,0.0,3.7900925,,1731227529000,0.07070929,,564284788438876,2.5,0,,,
Fix,GPS,22.5948357600,88.3617834700,-37.29278564453125,0.0,3.7900925,,1731227530000,0.070709296,,564285777693720,2.5,0,,,
Fix,GPS,22.5948358100,88.3617834900,-37.2886962890625,0.0,3.7900925,,1731227531000,0.07070931,,564286778586219,2.5,0,,,
Fix,GPS,22.5948358600,88.3617834900,-37.2847900390625,0.0,3.7900925,,1731227532000,0.070709325,,564287783499812,2.5,0,,,
Fix,GPS,22.5948359100,88.3617835000,-37.2802734375,0.0,3.7900925,,1731227533000,0.07070934,,564288783195176,2.5,0,,,
Fix,GPS,22.5948359500,88.3617835000,-37.276214599609375,0.0,3.7900925,,1731227534000,0.070709355,,564289786601635,2.5,0,,,
Fix,GPS,22.5948359900,88.3617835000,-37.27191162109375,0.0,3.7900925,,1731227535000,0.07070937,,564290783044134,2.5,0,,,
Fix,GPS,22.5948360400,88.3617835000,-37.26507568359375,0.0,3.7900925,,1731227536000,0.070709385,,564291777491217,2.5,0,,,
Fix,GPS,22.5948360600,88.3617835100,-37.260223388671875,0.0,3.7900925,,1731227537000,0.07070939,,564292777155019,2.5,0,,,
Fix,GPS,22.5948361000,88.3617835200,-37.256072998046875,0.0,3.7900925,,1731227538000,0.07070941,,564293782172622,2.5,0,,,
Fix,GPS,22.5948361100,88.3617835300,-37.25537109375,0.0,3.7900925,,1731227539000,0.07070942,,564294779992675,2.5,0,,,
Fix,GPS,22.5948361400,88.3617835300,-37.2515869140625,0.0,3.7900925,,1731227540000,0.07070943,,564295777199966,2.5,0,,,
Fix,GPS,22.5948361800,88.3617835400,-37.247955322265625,0.0,3.7900925,,1731227541000,0.070709445,,564296782572986,2.5,0,,,
Fix,GPS,22.5948362100,88.3617835400,-37.24517822265625,0.0,3.7900925,,1731227542000,0.07070945,,564297788581111,2.5,0,,,
Fix,GPS,22.5948362400,88.3617835400,-37.241119384765625,0.0,3.7900925,,1731227543000,0.07070947,,564298784561579,2.5,0,,,
Fix,GPS,22.5948362700,88.3617835500,-37.235748291015625,0.0,3.7900925,,1731227544000,0.07070948,,564299782146058,2.5,0,,,
Fix,GPS,22.5948363000,88.3617835500,-37.231170654296875,0.0,3.7900925,,1731227545000,0.07070949,,564300776714130,2.5,0,,,
Fix,GPS,22.5948363300,88.3617835700,-37.22564697265625,0.0,3.7900925,,1731227546000,0.0707095,,564301781667515,2.5,0,,,
Fix,GPS,22.5948363500,88.3617835800,-37.21978759765625,0.0,3.7900925,,1731227547000,0.07070951,,564302784144911,2.5,0,,,
Fix,GPS,22.5948363900,88.3617835800,-37.2139892578125,0.0,3.7900925,,1731227548000,0.07070952,,564303779355014,2.5,0,,,
Fix,GPS,22.5948364300,88.3617835800,-37.2083740234375,0.0,3.7900925,,1731227549000,0.070709534,,564304778220223,2.5,0,,,
Fix,GPS,22.5948364700,88.3617835800,-37.204986572265625,0.0,3.7900925,,1731227550000,0.07070954,,564305781624493,2.5,0,,,
Fix,GPS,22.5948365000,88.3617835700,-37.201751708984375,0.0,3.7900925,,1731227551000,0.07070955,,564306780673920,2.5,0,,,
Fix,GPS,22.5948365300,88.3617835800,-37.196929931640625,0.0,3.7900925,,1731227552000,0.07070956,,564307784626993,2.5,0,,,
Fix,GPS,22.5948365600,88.3617836000,-37.19635009765625,0.0,3.7900925,,1731227553000,0.07070957,,564308780904648,2.5,0,,,
Fix,GPS,22.5948366000,88.3617836000,-37.196258544921875,0.0,3.7900925,,1731227554000,0.07070958,,564309787999388,2.5,0,,,
Fix,GPS,22.5948366200,88.3617836000,-37.19354248046875,0.0,3.7900925,,1731227555000,0.070709586,,564310782326574,2.5,0,,,
Fix,GPS,22.5948366500,88.3617836100,-37.191436767578125,0.0,3.7900925,,1731227556000,0.07070959,,564311783261939,2.5,0,,,
Fix,GPS,22.5948366800,88.3617836100,-37.18951416015625,0.0,3.7900925,,1731227557000,0.0707096,,564312779484125,2.5,0,,,
Fix,GPS,22.5948367100,88.3617836300,-37.189300537109375,0.0,3.7900925,,1731227558000,0.070709616,,564313777126573,2.5,0,,,
Fix,GPS,22.5948367400,88.3617836400,-37.1876220703125,0.0,3.7900925,,1731227559000,0.07070962,,564314781184229,2.5,0,,,
Fix,GPS,22.5948367600,88.3617836500,-37.18402099609375,0.0,3.7900925,,1731227560000,0.07070963,,564315787488865,2.5,0,,,
Fix,GPS,22.5948368000,88.3617836700,-37.177734375,0.0,3.7900925,,1731227561000,0.07070964,,564316787155322,2.5,0,,,
Fix,GPS,22.5948368500,88.3617836700,-37.1717529296875,0.0,3.7900925,,1731227562000,0.070709646,,564317788056884,2.5,0,,,
Fix,GPS,22.5948369100,88.3617836700,-37.16473388671875,0.0,3.7900925,,1731227563000,0.07070965,,564318775381675,2.5,0,,,
Fix,GPS,22.5948369700,88.3617836800,-37.15869140625,0.0,3.7900925,,1731227564000,0.07070966,,564319780231570,2.5,0,,,
Fix,GPS,22.5948370300,88.3617837000,-37.152191162109375,0.0,3.7900925,,1731227565000,0.070709676,,564320778699540,2.5,0,,,
Fix,GPS,22.5948370900,88.3617837000,-37.142486572265625,0.0,3.7900925,,1731227566000,0.07070968,,564321780162246,2.5,0,,,
Fix,GPS,22.5948371200,88.3617837100,-37.135772705078125,0.0,3.7900925,,1731227567000,0.07070968,,564322785265164,2.5,0,,,
Fix,GPS,22.5948371700,88.3617837300,-37.127197265625,0.0,3.7900925,,1731227568000,0.07070969,,564323785922194,2.5,0,,,
Fix,GPS,22.5948372200,88.3617837400,-37.12005615234375,0.0,3.7900925,,1731227569000,0.0707097,,564324783653287,2.5,0,,,
Fix,GPS,22.5948372600,88.3617837500,-37.11181640625,0.0,3.7900925,,1731227570000,0.07070971,,564325783659173,2.5,0,,,
Fix,GPS,22.5948373100,88.3617837600,-37.106292724609375,0.0,3.7900925,,1731227571000,0.07070971,,564326788392558,2.5,0,,,
Fix,GPS,22.5948373600,88.3617837700,-37.09832763671875,0.0,3.7900925,,1731227572000,0.07070972,,564327782349902,2.5,0,,,
Fix,GPS,22.5948374100,88.3617837700,-37.09039306640625,0.0,3.7900925,,1731227573000,0.070709735,,564328782925266,2.5,0,,,
Fix,GPS,22.5948374600,88.3617837700,-37.083343505859375,0.0,3.7900925,,1731227574000,0.070709735,,564329784927661,2.5,0,,,
Fix,GPS,22.5948375100,88.3617837700,-37.075439453125,0.0,3.7900925,,1731227575000,0.07070974,,564330777047817,2.5,0,,,
Fix,GPS,22.5948375600,88.3617837600,-37.0665283203125,0.0,3.7900925,,1731227576000,0.07070974,,564331776123754,2.5,0,,,
Fix,GPS,22.5948376000,88.3617837500,-37.058074951171875,0.0,3.7900925,,1731227577000,0.07070976,,564332775895420,2.5,0,,,
Fix,GPS,22.5948376400,88.3617837400,-37.050048828125,0.0,3.7900925,,1731227578000,0.070709765,,564333775615993,2.5,0,,,
Fix,GPS,22.5948376900,88.3617837300,-37.04107666015625,0.0,3.7900925,,1731227579000,0.070709765,,564334785764899,2.5,0,,,
Fix,GPS,22.5948377300,88.3617837400,-37.034393310546875,0.0,3.7900925,,1731227580000,0.07070977,,564335779590576,2.5,0,,,
Fix,GPS,22.5948377700,88.3617837300,-37.024749755859375,0.0,3.7900925,,1731227581000,0.07070978,,564336785390575,2.5,0,,,
Fix,GPS,22.5948378100,88.3617837300,-37.01715087890625,0.0,3.7900925,,1731227582000,0.07070979,,564337781708856,2.5,0,,,
Fix,GPS,22.5948378500,88.3617837400,-37.011383056640625,0.0,3.7900925,,1731227583000,0.070709795,,564338784762398,2.5,0,,,
Fix,GPS,22.5948378900,88.3617837300,-37.001617431640625,0.0,3.7900925,,1731227584000,0.070709795,,564339782530053,2.5,0,,,
Fix,GPS,22.5948379300,88.3617837200,-36.9920654296875,0.0,3.7900925,,1731227585000,0.0707098,,564340786953385,2.5,0,,,
Fix,GPS,22.5948379700,88.3617837300,-36.984161376953125,0.0,3.7900925,,1731227586000,0.07070981,,564341783281927,2.5,0,,,
Fix,GPS,22.5948380000,88.3617837300,-36.976348876953125,0.0,3.7900925,,1731227587000,0.07070982,,564342787778906,2.5,0,,,
Fix,GPS,22.5948380400,88.3617837100,-36.9718017578125,0.0,3.7900925,,1731227588000,0.070709825,,564343787661615,2.5,0,,,
Fix,GPS,22.5948380800,88.3617837000,-36.9661865234375,0.0,3.7900925,,1731227589000,0.07070983,,564344777803020,2.5,0,,,
Fix,GPS,22.5948381200,88.3617836900,-36.959930419921875,0.0,3.7900925,,1731227590000,0.07070983,,564345778922915,2.5,0,,,
Fix,GPS,22.5948381600,88.3617836900,-36.9532470703125,0.0,3.7900925,,1731227591000,0.07070984,,564346775739790,2.5,0,,,
Fix,GPS,22.5948382100,88.3617837000,-36.946746826171875,0.0,3.7900925,,1731227592000,0.07070984,,564347778754582,2.5,0,,,
Fix,GPS,22.5948382500,88.3617836900,-36.941375732421875,0.0,3.7900925,,1731227593000,0.070709854,,564348779991925,2.5,0,,,
Fix,GPS,22.5948382900,88.3617836900,-36.9384765625,0.0,3.7900925,,1731227594000,0.070709854,,564349778997445,2.5,0,,,
Fix,GPS,22.5948383200,88.3617836900,-36.931732177734375,0.0,3.7900925,,1731227595000,0.07070986,,564350782178278,2.5,0,,,
Fix,GPS,22.5948383600,88.3617836900,-36.92572021484375,0.0,3.7900925,,1731227596000,0.07070986,,564351775823590,2.5,0,,,
Fix,GPS,22.5948383900,88.3617837000,-36.92010498046875,0.0,3.7900925,,1731227597000,0.07070987,,564352785433642,2.5,0,,,
Fix,GPS,22.5948384400,88.3617837100,-36.90985107421875,0.0,3.7900925,,1731227598000,0.07070988,,564353776504422,2.5,0,,,
Fix,GPS,22.5948384900,88.3617837200,-36.902618408203125,0.0,3.7900925,,1731227599000,0.07070988,,564354775133537,2.5,0,,,
Fix,GPS,22.5948385300,88.3617837300,-36.893402099609375,0.0,3.7900925,,1731227600000,0.070709884,,564355783550568,2.5,0,,,
Fix,GPS,22.5948385800,88.3617837300,-36.88531494140625,0.0,3.7900925,,1731227601000,0.07070989,,564356778696244,2.5,0,,,
Fix,GPS,22.5948386300,88.3617837300,-36.87701416015625,0.0,3.7900925,,1731227602000,0.07070989,,564357782433953,2.5,0,,,
Fix,GPS,22.5948386900,88.3617837200,-36.87060546875,0.0,3.7900925,,1731227603000,0.0707099,,564358781767337,2.5,0,,,
Fix,GPS,22.5948387400,88.3617837300,-36.863677978515625,0.0,3.7900925,,1731227604000,0.07070991,,564359775471244,2.5,0,,,
Fix,GPS,22.5948387900,88.3617837400,-36.8548583984375,0.0,3.7900925,,1731227605000,0.07070991,,564360779503483,2.5,0,,,
Fix,GPS,22.5948388300,88.3617837500,-36.847930908203125,0.0,3.7900925,,1731227606000,0.070709914,,564361779344159,2.5,0,,,
Fix,GPS,22.5948388700,88.3617837600,-36.843994140625,0.0,3.7900925,,1731227607000,0.070709914,,564362775409003,2.5,0,,,
Fix,GPS,22.5948389100,88.3617837700,-36.839599609375,0.0,3.7900925,,1731227608000,0.07070992,,564363782169731,2.5,0,,,
Fix,GPS,22.5948389600,88.3617837800,-36.83184814453125,0.0,3.7900925,,1731227609000,0.07070993,,564364779295461,2.5,0,,,
Fix,GPS,22.5948390000,88.3617838000,-36.82781982421875,0.0,3.7900925,,1731227610000,0.07070993,,564365784163221,2.5,0,,,
Fix,GPS,22.5948390500,88.3617838200,-36.820587158203125,0.0,3.7900925,,1731227611000,0.07070994,,564366775735199,2.5,0,,,
Fix,GPS,22.5948390900,88.3617838300,-36.81561279296875,0.0,3.7900925,,1731227612000,0.07070994,,564367779922438,2.5,0,,,
Fix,GPS,22.5948391300,88.3617838400,-36.811187744140625,0.0,3.7900925,,1731227613000,0.070709944,,564368781273792,2.5,0,,,
Fix,GPS,22.5948391800,88.3617838500,-36.805023193359375,0.0,3.7900925,,1731227614000,0.070709944,,564369785112803,2.5,0,,,
Fix,GPS,22.5948392200,88.3617838600,-36.797454833984375,0.0,3.7900925,,1731227615000,0.07070995,,564370777800198,2.5,0,,,
Fix,GPS,22.5948392600,88.3617838600,-36.790435791015625,0.0,3.7900925,,1731227616000,0.07070996,,564371782882592,2.5,0,,,
Fix,GPS,22.5948393100,88.3617838800,-36.78594970703125,0.0,3.7900925,,1731227617000,0.07070996,,564372779523217,2.5,0,,,
Fix,GPS,22.5948393500,88.3617838800,-36.7777099609375,0.0,3.7900925,,1731227618000,0.070709966,,564373775321343,2.5,0,,,
Fix,GPS,22.5948393900,88.3617839000,-36.773468017578125,0.0,3.7900925,,1731227619000,0.070709966,,564374779344571,2.5,0,,,
Fix,GPS,22.5948394300,88.3617839100,-36.76385498046875,0.0,3.7900925,,1731227620000,0.070709966,,564375776201498,2.5,0,,,
Fix,GPS,22.5948394600,88.3617839100,-36.754974365234375,0.0,3.7900925,,1731227621000,0.07070997,,564376783195507,2.5,0,,,
Fix,GPS,22.5948395000,88.3617839200,-36.74847412109375,0.0,3.7900925,,1731227622000,0.07070998,,564377777964518,2.5,0,,,
Fix,GPS,22.5948395300,88.3617839400,-36.739013671875,0.0,3.7900925,,1731227623000,0.07070998,,564378786913476,2.5,0,,,
Fix,GPS,22.5948395700,88.3617839500,-36.728057861328125,0.0,3.7900925,,1731227624000,0.07070998,,564379787974934,2.5,0,,,
Fix,GPS,22.5948396100,88.3617839700,-36.7171630859375,0.0,3.7900925,,1731227625000,0.07070999,,564380788235923,2.5,0,,,
Fix,GPS,22.5948396400,88.3617839700,-36.70843505859375,0.0,3.7900925,,1731227626000,0.070709996,,564381782812589,2.5,0,,,
Fix,GPS,22.5948396700,88.3617839900,-36.697265625,0.0,3.7900925,,1731227627000,0.070709996,,564382779644567,2.5,0,,,
Fix,GPS,22.5948397000,88.3617840100,-36.6861572265625,0.0,3.7900925,,1731227628000,0.070709996,,564383776909880,2.5,0,,,
Fix,GPS,22.5948397300,88.3617840500,-36.676513671875,0.0,3.7900925,,1731227629000,0.07071,,564384785342536,2.5,0,,,
Fix,GPS,22.5948397700,88.3617840700,-36.6661376953125,0.0,3.7900925,,1731227630000,0.07071,,564385788136754,2.5,0,,,
Fix,GPS,22.5948398000,88.3617841000,-36.65850830078125,0.0,3.7900925,,1731227631000,0.07071001,,564386785425920,2.5,0,,,
Fix,GPS,22.5948398200,88.3617841200,-36.64923095703125,0.0,3.7900925,,1731227632000,0.07071002,,564387782312535,2.5,0,,,
Fix,GPS,22.5948398400,88.3617841400,-36.640838623046875,0.0,3.7900925,,1731227633000,0.07071002,,564388785749357,2.5,0,,,
Fix,GPS,22.5948398700,88.3617841700,-36.634765625,0.0,3.7900925,,1731227634000,0.070710026,,564389776079460,2.5,0,,,
Fix,GPS,22.5948399000,88.3617841800,-36.626617431640625,0.0,3.7900925,,1731227635000,0.070710026,,564390774764721,2.5,0,,,
Fix,GPS,22.5948399300,88.3617842100,-36.6175537109375,0.0,3.7900925,,1731227636000,0.070710026,,564391777157742,2.5,0,,,
Fix,GPS,22.5948399600,88.3617842300,-36.610015869140625,0.0,3.7900925,,1731227637000,0.07071003,,564392775490658,2.5,0,,,
Fix,GPS,22.5948400000,88.3617842500,-36.601043701171875,0.0,3.7900925,,1731227638000,0.07071003,,564393774974876,2.5,0,,,
Fix,GPS,22.5948400400,88.3617842700,-36.594207763671875,0.0,3.7900925,,1731227639000,0.07071003,,564394774766907,2.5,0,,,
Fix,GPS,22.5948400700,88.3617842800,-36.5867919921875,0.0,3.7900925,,1731227640000,0.07071004,,564395775305500,2.5,0,,,
Fix,GPS,22.5948401100,88.3617843000,-36.578094482421875,0.0,3.7900925,,1731227641000,0.07071004,,564396779719511,2.5,0,,,
Fix,GPS,22.5948401500,88.3617843100,-36.572265625,0.0,3.7900925,,1731227642000,0.07071005,,564397786691593,2.5,0,,,
Fix,GPS,22.5948401800,88.3617843300,-36.564697265625,0.0,3.7900925,,1731227643000,0.07071005,,564398786183989,2.5,0,,,
Fix,GPS,22.5948402200,88.3617843300,-36.55767822265625,0.0,3.7900925,,1731227644000,0.07071005,,564399774912113,2.5,0,,,
Fix,GPS,22.5948402600,88.3617843300,-36.5517578125,0.0,3.7900925,,1731227645000,0.07071005,,564400779635030,2.5,0,,,
Fix,GPS,22.5948403000,88.3617843400,-36.54547119140625,0.0,3.7900925,,1731227646000,0.070710056,,564401782751956,2.5,0,,,
Fix,GPS,22.5948403400,88.3617843400,-36.53851318359375,0.0,3.7900925,,1731227647000,0.07071006,,564402786918935,2.5,0,,,
Fix,GPS,22.5948403700,88.3617843400,-36.53070068359375,0.0,3.7900925,,1731227648000,0.07071006,,564403783095341,2.5,0,,,
Fix,GPS,22.5948404300,88.3617843300,-36.5277099609375,0.0,3.7900925,,1731227649000,0.07071007,,564404778499142,2.5,0,,,
Fix,GPS,22.5948404800,88.3617843200,-36.522430419921875,0.0,3.7900925,,1731227650000,0.07071007,,564405775083257,2.5,0,,,
Fix,GPS,22.5948405400,88.3617843100,-36.5185546875,0.0,3.7900925,,1731227651000,0.07071008,,564406780918777,2.5,0,,,
Fix,GPS,22.5948405900,88.3617843000,-36.513763427734375,0.0,3.7900925,,1731227652000,0.07071008,,564407786939558,2.5,0,,,
Fix,GPS,22.5948406500,88.3617842900,-36.510467529296875,0.0,3.7900925,,1731227653000,0.07071008,,564408775945547,2.5,0,,,
Fix,GPS,22.5948407100,88.3617842800,-36.51043701171875,0.0,3.7900925,,1731227654000,0.07071008,,564409780719922,2.5,0,,,
Fix,GPS,22.5948407700,88.3617842700,-36.5103759765625,0.0,3.7900925,,1731227655000,0.070710085,,564410782255859,2.5,0,,,
Fix,GPS,22.5948408300,88.3617842600,-36.508697509765625,0.0,3.7900925,,1731227656000,0.070710085,,564411779163724,2.5,0,,,
Fix,GPS,22.5948409000,88.3617842600,-36.5086669921875,0.0,3.7900925,,1731227657000,0.070710085,,564412783536483,2.5,0,,,
Fix,GPS,22.5948409600,88.3617842500,-36.506866455078125,0.0,3.7900925,,1731227658000,0.070710085,,564413783937212,2.5,0,,,
Fix,GPS,22.5948410300,88.3617842500,-36.506256103515625,0.0,3.7900925,,1731227659000,0.07071009,,564414782635077,2.5,0,,,
Fix,GPS,22.5948410900,88.3617842400,-36.504119873046875,0.0,3.7900925,,1731227660000,0.07071009,,564415782269400,2.5,0,,,
Fix,GPS,22.5948411600,88.3617842500,-36.506195068359375,0.0,3.7900925,,1731227661000,0.0707101,,564416777266638,2.5,0,,,
Fix,GPS,22.5948412300,88.3617842400,-36.506011962890625,0.0,3.7900925,,1731227662000,0.0707101,,564417777809086,2.5,0,,,
Fix,GPS,22.5948413000,88.3617842200,-36.508087158203125,0.0,3.7900925,,1731227663000,0.07071011,,564418781199918,2.5,0,,,
Fix,GPS,22.5948413700,88.3617842100,-36.50689697265625,0.0,3.7900925,,1731227664000,0.07071011,,564419787233200,2.5,0,,,
Fix,GPS,22.5948414300,88.3617841900,-36.507354736328125,0.0,3.7900925,,1731227665000,0.07071011,,564420782068304,2.5,0,,,
Fix,GPS,22.5948415000,88.3617841700,-36.50811767578125,0.0,3.7900925,,1731227666000,0.07071011,,564421775581897,2.5,0,,,
Fix,GPS,22.5948415600,88.3617841400,-36.50628662109375,0.0,3.7900925,,1731227667000,0.070710115,,564422781765177,2.5,0,,,
Fix,GPS,22.5948416200,88.3617841300,-36.50567626953125,0.0,3.7900925,,1731227668000,0.070710115,,564423779164865,2.5,0,,,
Fix,GPS,22.5948416900,88.3617841200,-36.504730224609375,0.0,3.7900925,,1731227669000,0.070710115,,564424787216947,2.5,0,,,
Fix,GPS,22.5948417600,88.3617841000,-36.50469970703125,0.0,3.7900925,,1731227670000,0.07071012,,564425786754760,2.5,0,,,
Fix,GPS,22.5948418300,88.3617840800,-36.50439453125,0.0,3.7900925,,1731227671000,0.07071013,,564426777056218,2.5,0,,,
Fix,GPS,22.5948419000,88.3617840600,-36.5062255859375,0.0,3.7900925,,1731227672000,0.07071013,,564427787188822,2.5,0,,,
Fix,GPS,22.5948419600,88.3617840500,-36.504058837890625,0.0,3.7900925,,1731227673000,0.07071013,,564428784400645,2.5,0,,,
Fix,GPS,22.5948420300,88.3617840300,-36.502105712890625,0.0,3.7900925,,1731227674000,0.07071013,,564429775400123,2.5,0,,,
Fix,GPS,22.5948421000,88.3617840100,-36.498870849609375,0.0,3.7900925,,1731227675000,0.07071013,,564430781124654,2.5,0,,,
Fix,GPS,22.5948421700,88.3617839800,-36.4990234375,0.0,3.7900925,,1731227676000,0.07071014,,564431787443195,2.5,0,,,
Fix,GPS,22.5948422400,88.3617839700,-36.498992919921875,0.0,3.7900925,,1731227677000,0.07071014,,564432775774914,2.5,0,,,
Fix,GPS,22.5948423100,88.3617839500,-36.497711181640625,0.0,3.7900925,,1731227678000,0.07071014,,564433785585799,2.5,0,,,
Fix,GPS,22.5948423500,88.3617839200,-36.499603271484375,0.0,3.7900925,,1731227679000,0.07071014,,564434784307621,2.5,0,,,
Fix,GPS,22.5948424100,88.3617839000,-36.497039794921875,0.0,3.7900925,,1731227680000,0.07071014,,564435774804964,2.5,0,,,
Fix,GPS,22.5948424700,88.3617838900,-36.49456787109375,0.0,3.7900925,,1731227681000,0.070710145,,564436780058037,2.5,0,,,
Fix,GPS,22.5948425300,88.3617838700,-36.4913330078125,0.0,3.7900925,,1731227682000,0.070710145,,564437781898504,2.5,0,,,
Fix,GPS,22.5948425900,88.3617838600,-36.487335205078125,0.0,3.7900925,,1731227683000,0.070710145,,564438780258035,2.5,0,,,
Fix,GPS,22.5948426400,88.3617838500,-36.48809814453125,0.0,3.7900925,,1731227684000,0.07071015,,564439779249286,2.5,0,,,
Fix,GPS,22.5948426900,88.3617838400,-36.48895263671875,0.0,3.7900925,,1731227685000,0.07071015,,564440783634755,2.5,0,,,
Fix,GPS,22.5948427300,88.3617838200,-36.490875244140625,0.0,3.7900925,,1731227686000,0.07071016,,564441781458868,2.5,0,,,
Fix,GPS,22.5948427800,88.3617838100,-36.4881591796875,0.0,3.7900925,,1731227687000,0.07071016,,564442782464233,2.5,0,,,
Fix,GPS,22.5948428400,88.3617837900,-36.48614501953125,0.0,3.7900925,,1731227688000,0.07071016,,564443779568035,2.5,0,,,
Fix,GPS,22.5948428800,88.3617837700,-36.48651123046875,0.0,3.7900925,,1731227689000,0.07071017,,564444779341523,2.5,0,,,
Fix,GPS,22.5948429300,88.3617837500,-36.4853515625,0.0,3.7900925,,1731227690000,0.07071017,,564445775090376,2.5,0,,,
Fix,GPS,22.5948429600,88.3617837400,-36.488250732421875,0.0,3.7900925,,1731227691000,0.07071017,,564446778671211,2.5,0,,,
Fix,GPS,22.5948430100,88.3617837100,-36.486083984375,0.0,3.7900925,,1731227692000,0.07071017,,564447779205376,2.5,0,,,
Fix,GPS,22.5948430600,88.3617836900,-36.48406982421875,0.0,3.7900925,,1731227693000,0.07071017,,564448787670167,2.5,0,,,
Fix,GPS,22.5948431100,88.3617836700,-36.4793701171875,0.0,3.7900925,,1731227694000,0.070710175,,564449785573137,2.5,0,,,
Fix,GPS,22.5948431700,88.3617836400,-36.47772216796875,0.0,3.7900925,,1731227695000,0.070710175,,564450787578605,2.5,0,,,
Fix,GPS,22.5948432200,88.3617836100,-36.477325439453125,0.0,3.7900925,,1731227696000,0.07071018,,564451786867875,2.5,0,,,
Fix,GPS,22.5948432700,88.3617835800,-36.474945068359375,0.0,3.7900925,,1731227697000,0.07071018,,564452778442041,2.5,0,,,
Fix,GPS,22.5948433200,88.3617835500,-36.471771240234375,0.0,3.7900925,,1731227698000,0.07071018,,564453780783864,2.5,0,,,
Fix,GPS,22.5948433800,88.3617835300,-36.4686279296875,0.0,3.7900925,,1731227699000,0.07071018,,564454784684853,2.5,0,,,
Fix,GPS,22.5948434400,88.3617835200,-36.46466064453125,0.0,3.7900925,,1731227700000,0.07071018,,564455779562768,2.5,0,,,
Fix,GPS,22.5948434900,88.3617834900,-36.460693359375,0.0,3.7900925,,1731227701000,0.07071018,,564456781987717,2.5,0,,,
Fix,GPS,22.5948435400,88.3617834700,-36.457794189453125,0.0,3.7900925,,1731227702000,0.07071019,,564457781753237,2.5,0,,,
Fix,GPS,22.5948435900,88.3617834400,-36.455841064453125,0.0,3.7900925,,1731227703000,0.07071019,,564458786744747,2.5,0,,,
Fix,GPS,22.5948436300,88.3617834200,-36.450897216796875,0.0,3.7900925,,1731227704000,0.07071019,,564459781163549,2.5,0,,,
Fix,GPS,22.5948436700,88.3617834000,-36.447052001953125,0.0,3.7900925,,1731227705000,0.07071019,,564460775035841,2.5,0,,,
Fix,GPS,22.5948437200,88.3617833900,-36.444244384765625,0.0,3.7900925,,1731227706000,0.07071019,,564461777210111,2.5,0,,,
Fix,GPS,22.5948437600,88.3617833700,-36.440277099609375,0.0,3.7900925,,1731227707000,0.0707102,,564462784301829,2.5,0,,,
Fix,GPS,22.5948438100,88.3617833600,-36.43511962890625,0.0,3.7900925,,1731227708000,0.0707102,,564463779800006,2.5,0,,,
Fix,GPS,22.5948438500,88.3617833400,-36.430206298828125,0.0,3.7900925,,1731227709000,0.0707102,,564464785931776,2.5,0,,,
Fix,GPS,22.5948438900,88.3617833100,-36.42767333984375,0.0,3.7900925,,1731227710000,0.0707102,,564465777312193,2.5,0,,,
Fix,GPS,22.5948439300,88.3617832900,-36.426361083984375,0.0,3.7900925,,1731227711000,0.070710205,,564466787137713,2.5,0,,,
Fix,GPS,22.5948439700,88.3617832700,-36.422760009765625,0.0,3.7900925,,1731227712000,0.070710205,,564467786818911,2.5,0,,,
Fix,GPS,22.5948440100,88.3617832400,-36.419403076171875,0.0,3.7900925,,1731227713000,0.070710205,,564468778026411,2.5,0,,,
Fix,GPS,22.5948440500,88.3617832200,-36.417572021484375,0.0,3.7900925,,1731227714000,0.07071021,,564469780109847,2.5,0,,,
Fix,GPS,22.5948440900,88.3617832100,-36.416168212890625,0.0,3.7900925,,1731227715000,0.07071021,,564470787116305,2.5,0,,,
Fix,GPS,22.5948441300,88.3617832000,-36.41180419921875,0.0,3.7900925,,1731227716000,0.07071021,,564471786946253,2.5,0,,,
Fix,GPS,22.5948441800,88.3617831900,-36.41009521484375,0.0,3.7900925,,1731227717000,0.07071022,,564472783372294,2.5,0,,,
Fix,GPS,22.5948442200,88.3617831800,-36.40692138671875,0.0,3.7900925,,1731227718000,0.07071022,,564473775128492,2.5,0,,,
Fix,GPS,22.5948442700,88.3617831700,-36.403900146484375,0.0,3.7900925,,1731227719000,0.07071022,,564474786613439,2.5,0,,,
Fix,GPS,22.5948443200,88.3617831600,-36.401611328125,0.0,3.7900925,,1731227720000,0.07071022,,564475784920991,2.5,0,,,
Fix,GPS,22.5948443700,88.3617831400,-36.39984130859375,0.0,3.7900925,,1731227721000,0.07071022,,564476783584219,2.5,0,,,
Fix,GPS,22.5948444200,88.3617831300,-36.396484375,0.0,3.7900925,,1731227722000,0.07071022,,564477786579792,2.5,0,,,
Fix,GPS,22.5948444600,88.3617831100,-36.3948974609375,0.0,3.7900925,,1731227723000,0.07071022,,564478786657448,2.5,0,,,
Fix,GPS,22.5948444900,88.3617830900,-36.3956298828125,0.0,3.7900925,,1731227724000,0.07071023,,564479780129583,2.5,0,,,
Fix,GPS,22.5948445400,88.3617830700,-36.39471435546875,0.0,3.7900925,,1731227725000,0.07071023,,564480776120885,2.5,0,,,
Fix,GPS,22.5948445900,88.3617830600,-36.39337158203125,0.0,3.7900925,,1731227726000,0.07071023,,564481778357239,2.5,0,,,
Fix,GPS,22.5948446200,88.3617830500,-36.39453125,0.0,3.7900925,,1731227727000,0.070710234,,564482779609425,2.5,0,,,
Fix,GPS,22.5948446500,88.3617830400,-36.39202880859375,0.0,3.7900925,,1731227728000,0.070710234,,564483782193384,2.5,0,,,
Fix,GPS,22.5948446800,88.3617830300,-36.39300537109375,0.0,3.7900925,,1731227729000,0.070710234,,564484779061768,2.5,0,,,
Fix,GPS,22.5948447000,88.3617830200,-36.394287109375,0.0,3.7900925,,1731227730000,0.070710234,,564485779906300,2.5,0,,,
Fix,GPS,22.5948447400,88.3617830000,-36.393310546875,0.0,3.7900925,,1731227731000,0.070710234,,564486783795518,2.5,0,,,
Fix,GPS,22.5948447700,88.3617829900,-36.394378662109375,0.0,3.7900925,,1731227732000,0.070710234,,564487778062236,2.5,0,,,
Fix,GPS,22.5948447900,88.3617829700,-36.392974853515625,0.0,3.7900925,,1731227733000,0.070710234,,564488777312079,2.5,0,,,
Fix,GPS,22.5948448300,88.3617829600,-36.39208984375,0.0,3.7900925,,1731227734000,0.07071024,,564489786068590,2.5,0,,,
Fix,GPS,22.5948448800,88.3617829500,-36.39080810546875,0.0,3.7900925,,1731227735000,0.07071024,,564490781828642,2.5,0,,,
Fix,GPS,22.5948449400,88.3617829500,-36.3907470703125,0.0,3.7900925,,1731227736000,0.07071024,,564491786348224,2.5,0,,,
Fix,GPS,22.5948450000,88.3617829400,-36.39056396484375,0.0,3.7900925,,1731227737000,0.07071024,,564492787404525,2.5,0,,,
Fix,GPS,22.5948450600,88.3617829300,-36.3909912109375,0.0,3.7900925,,1731227738000,0.07071024,,564493784739890,2.5,0,,,
Fix,GPS,22.5948451100,88.3617829300,-36.390380859375,0.0,3.7900925,,1731227739000,0.07071024,,564494784337910,2.5,0,,,
Fix,GPS,22.5948451600,88.3617829100,-36.38848876953125,0.0,3.7900925,,1731227740000,0.07071024,,564495774117546,2.5,0,,,
Fix,GPS,22.5948452100,88.3617829000,-36.38800048828125,0.0,3.7900925,,1731227741000,0.07071024,,564496776673118,2.5,0,,,
Fix,GPS,22.5948452600,88.3617828800,-36.38525390625,0.0,3.7900925,,1731227742000,0.07071024,,564497786813482,2.5,0,,,
Fix,GPS,22.5948453000,88.3617828700,-36.381927490234375,0.0,3.7900925,,1731227743000,0.07071024,,564498782318534,2.5,0,,,
Fix,GPS,22.5948453300,88.3617828500,-36.37744140625,0.0,3.7900925,,1731227744000,0.07071024,,564499786810617,2.5,0,,,
Fix,GPS,22.5948453700,88.3617828300,-36.3724365234375,0.0,3.7900925,,1731227745000,0.07071024,,564500780943794,2.5,0,,,
Fix,GPS,22.5948454100,88.3617828200,-36.368682861328125,0.0,3.7900925,,1731227746000,0.07071024,,564501780739367,2.5,0,,,
Fix,GPS,22.5948454500,88.3617828000,-36.365234375,0.0,3.7900925,,1731227747000,0.07071024,,564502787268480,2.5,0,,,
Fix,GPS,22.5948454800,88.3617827900,-36.36199951171875,0.0,3.7900925,,1731227748000,0.07071024,,564503782205042,2.5,0,,,
Fix,GPS,22.5948455100,88.3617827700,-36.358062744140625,0.0,3.7900925,,1731227749000,0.07071024,,564504787421865,2.5,0,,,
Fix,GPS,22.5948455500,88.3617827600,-36.354644775390625,0.0,3.7900925,,1731227750000,0.07071024,,564505786379052,2.5,0,,,
Fix,GPS,22.5948455800,88.3617827500,-36.350433349609375,0.0,3.7900925,,1731227751000,0.07071024,,564506776211031,2.5,0,,,
Fix,GPS,22.5948456100,88.3617827400,-36.347808837890625,0.0,3.7900925,,1731227752000,0.07071024,,564507783565405,2.5,0,,,
Fix,GPS,22.5948456400,88.3617827400,-36.344451904296875,0.0,3.7900925,,1731227753000,0.07071024,,564508776841656,2.5,0,,,
Fix,GPS,22.5948456700,88.3617827300,-36.34088134765625,0.0,3.7900925,,1731227754000,0.07071024,,564509785241915,2.5,0,,,
Fix,GPS,22.5948457100,88.3617827200,-36.33685302734375,0.0,3.7900925,,1731227755000,0.07071024,,564510785032905,2.5,0,,,
Fix,GPS,22.5948457400,88.3617827100,-36.334075927734375,0.0,3.7900925,,1731227756000,0.07071024,,564511780652539,2.5,0,,,
Fix,GPS,22.5948457700,88.3617827000,-36.332427978515625,0.0,3.7900925,,1731227757000,0.07071024,,564512784744727,2.5,0,,,
Fix,GPS,22.5948458100,88.3617826900,-36.329010009765625,0.0,3.7900925,,1731227758000,0.07071024,,564513786911185,2.5,0,,,
Fix,GPS,22.5948458400,88.3617826900,-36.323883056640625,0.0,3.7900925,,1731227759000,0.07071024,,564514774325976,2.5,0,,,
Fix,GPS,22.5948458700,88.3617826700,-36.3201904296875,0.0,3.7900925,,1731227760000,0.07071024,,564515779350715,2.5,0,,,
Fix,GPS,22.5948459000,88.3617826600,-36.31829833984375,0.0,3.7900925,,1731227761000,0.07071024,,564516777349985,2.5,0,,,
Fix,GPS,22.5948459300,88.3617826400,-36.315460205078125,0.0,3.7900925,,1731227762000,0.07071024,,564517775907902,2.5,0,,,
Fix,GPS,22.5948459700,88.3617826200,-36.31500244140625,0.0,3.7900925,,1731227763000,0.07071024,,564518776366651,2.5,0,,,
Fix,GPS,22.5948460000,88.3617826000,-36.31109619140625,0.0,3.7900925,,1731227764000,0.07071024,,564519787127954,2.5,0,,,
Fix,GPS,22.5948460300,88.3617825800,-36.30780029296875,0.0,3.7900925,,1731227765000,0.07071024,,564520783430297,2.5,0,,,
Fix,GPS,22.5948460600,88.3617825600,-36.30291748046875,0.0,3.7900925,,1731227766000,0.07071024,,564521786438734,2.5,0,,,
Fix,GPS,22.5948460800,88.3617825500,-36.296539306640625,0.0,3.7900925,,1731227767000,0.07071024,,564522774398785,2.5,0,,,
Fix,GPS,22.5948461200,88.3617825400,-36.29248046875,0.0,3.7900925,,1731227768000,0.07071024,,564523778171598,2.5,0,,,
Fix,GPS,22.5948461500,88.3617825200,-36.28662109375,0.0,3.7900925,,1731227769000,0.07071024,,564524782551858,2.5,0,,,
Fix,GPS,22.5948461700,88.3617824900,-36.28240966796875,0.0,3.7900925,,1731227770000,0.07071024,,564525778501284,2.5,0,,,
Fix,GPS,22.5948461900,88.3617824700,-36.27178955078125,0.0,3.7900925,,1731227771000,0.07071024,,564526787521180,2.5,0,,,
Fix,GPS,22.5948462100,88.3617824500,-36.264434814453125,0.0,3.7900925,,1731227772000,0.07071024,,564527782572793,2.5,0,,,
Fix,GPS,22.5948462400,88.3617824300,-36.25823974609375,0.0,3.7900925,,1731227773000,0.07071024,,564528776322845,2.5,0,,,
Fix,GPS,22.5948462600,88.3617824100,-36.251434326171875,0.0,3.7900925,,1731227774000,0.07071024,,564529774333417,2.5,0,,,
Fix,GPS,22.5948463000,88.3617823900,-36.24847412109375,0.0,3.7900925,,1731227775000,0.07071024,,564530776588521,2.5,0,,,
Fix,GPS,22.5948463300,88.3617823800,-36.2447509765625,0.0,3.7900925,,1731227776000,0.07071024,,564531784050188,2.5,0,,,
Fix,GPS,22.5948463700,88.3617823700,-36.242279052734375,0.0,3.7900925,,1731227777000,0.07071024,,564532786305813,2.5,0,,,
Fix,GPS,22.5948464000,88.3617823600,-36.238983154296875,0.0,3.7900925,,1731227778000,0.07071024,,564533775695135,2.5,0,,,
Fix,GPS,22.5948464400,88.3617823500,-36.233734130859375,0.0,3.7900925,,1731227779000,0.07071024,,564534782652271,2.5,0,,,
Fix,GPS,22.5948464700,88.3617823400,-36.230804443359375,0.0,3.7900925,,1731227780000,0.07071024,,564535783893207,2.5,0,,,
Fix,GPS,22.5948465100,88.3617823400,-36.227325439453125,0.0,3.7900925,,1731227781000,0.07071024,,564536786254770,2.5,0,,,
Fix,GPS,22.5948465400,88.3617823300,-36.224609375,0.0,3.7900925,,1731227782000,0.07071024,,564537779515030,2.5,0,,,
Fix,GPS,22.5948465700,88.3617823200,-36.2216796875,0.0,3.7900925,,1731227783000,0.07071024,,564538785663728,2.5,0,,,
Fix,GPS,22.5948466000,88.3617823200,-36.21905517578125,0.0,3.7900925,,1731227784000,0.07071024,,564539786753727,2.5,0,,,
Fix,GPS,22.5948466300,88.3617823100,-36.2156982421875,0.0,3.7900925,,1731227785000,0.07071024,,564540774504092,2.5,0,,,
Fix,GPS,22.5948466700,88.3617823000,-36.21343994140625,0.0,3.7900925,,1731227786000,0.07071024,,564541780345184,2.5,0,,,
Fix,GPS,22.5948466900,88.3617822800,-36.2152099609375,0.0,3.7900925,,1731227787000,0.07071024,,564542781562163,2.5,0,,,
Fix,GPS,22.5948467200,88.3617822700,-36.21356201171875,0.0,3.7900925,,1731227788000,0.07071024,,564543777928517,2.5,0,,,
Fix,GPS,22.5948467500,88.3617822600,-36.21124267578125,0.0,3.7900925,,1731227789000,0.07071024,,564544780304662,2.5,0,,,
Fix,GPS,22.5948467800,88.3617822500,-36.205474853515625,0.0,3.7900925,,1731227790000,0.07071024,,564545784576225,2.5,0,,,
Fix,GPS,22.5948468100,88.3617822500,-36.202545166015625,0.0,3.7900925,,1731227791000,0.07071024,,564546785249036,2.5,0,,,
Fix,GPS,22.5948468500,88.3617822500,-36.198699951171875,0.0,3.7900925,,1731227792000,0.07071024,,564547779686120,2.5,0,,,
Fix,GPS,22.5948468700,88.3617822500,-36.196319580078125,0.0,3.7900925,,1731227793000,0.07071024,,564548784676640,2.5,0,,,
Fix,GPS,22.5948469000,88.3617822600,-36.191925048828125,0.0,3.7900925,,1731227794000,0.07071024,,564549780218931,2.5,0,,,
Fix,GPS,22.5948469300,88.3617822600,-36.18719482421875,0.0,3.7900925,,1731227795000,0.07071024,,564550774057785,2.5,0,,,
Fix,GPS,22.5948469600,88.3617822600,-36.183135986328125,0.0,3.7900925,,1731227796000,0.07071024,,564551777474815,2.5,0,,,
Fix,GPS,22.5948469900,88.3617822600,-36.181304931640625,0.0,3.7900925,,1731227797000,0.07071024,,564552775766534,2.5,0,,,
Fix,GPS,22.5948470200,88.3617822500,-36.17919921875,0.0,3.7900925,,1731227798000,0.07071024,,564553774725544,2.5,0,,,
Fix,GPS,22.5948470600,88.3617822500,-36.17718505859375,0.0,3.7900925,,1731227799000,0.07071024,,564554782206429,2.5,0,,,
Fix,GPS,22.5948470900,88.3617822500,-36.17681884765625,0.0,3.7900925,,1731227800000,0.07071024,,564555786085543,2.5,0,,,
Fix,GPS,22.5948471200,88.3617822500,-36.175384521484375,0.0,3.7900925,,1731227801000,0.07071024,,564556774141949,2.5,0,,,
Fix,GPS,22.5948471500,88.3617822400,-36.170806884765625,0.0,3.7900925,,1731227802000,0.07071024,,564557779139918,2.5,0,,,
Fix,GPS,22.5948471700,88.3617822300,-36.1666259765625,0.0,3.7900925,,1731227803000,0.07071024,,564558783433772,2.5,0,,,
Fix,GPS,22.5948472000,88.3617822200,-36.1641845703125,0.0,3.7900925,,1731227804000,0.07071024,,564559774397417,2.5,0,,,
Fix,GPS,22.5948472200,88.3617822200,-36.164520263671875,0.0,3.7900925,,1731227805000,0.07071024,,564560781400698,2.5,0,,,
Fix,GPS,22.5948472500,88.3617822200,-36.15972900390625,0.0,3.7900925,,1731227806000,0.07071024,,564561787303302,2.5,0,,,
Fix,GPS,22.5948472800,88.3617822100,-36.1553955078125,0.0,3.7900925,,1731227807000,0.07071024,,564562776981530,2.5,0,,,
Fix,GPS,22.5948473100,88.3617822000,-36.15289306640625,0.0,3.7900925,,1731227808000,0.07071024,,564563786911477,2.5,0,,,
Fix,GPS,22.5948473400,88.3617821900,-36.14947509765625,0.0,3.7900925,,1731227809000,0.07071024,,564564778477154,2.5,0,,,
Fix,GPS,22.5948473700,88.3617821900,-36.1463623046875,0.0,3.7900925,,1731227810000,0.07071024,,564565784469186,2.5,0,,,
Fix,GPS,22.5948474000,88.3617821800,-36.145416259765625,0.0,3.7900925,,1731227811000,0.07071024,,564566782515540,2.5,0,,,
Fix,GPS,22.5948474100,88.3617821600,-36.138916015625,0.0,3.7900925,,1731227812000,0.07071024,,564567779580591,2.5,0,,,
Fix,GPS,22.5948474400,88.3617821500,-36.135955810546875,0.0,3.7900925,,1731227813000,0.07071024,,564568782651840,2.5,0,,,
Fix,GPS,22.5948474700,88.3617821500,-36.131317138671875,0.0,3.7900925,,1731227814000,0.07071024,,564569779246684,2.5,0,,,
Fix,GPS,22.5948475000,88.3617821400,-36.1290283203125,0.0,3.7900925,,1731227815000,0.07071024,,564570785165069,2.5,0,,,
Fix,GPS,22.5948475400,88.3617821200,-36.127288818359375,0.0,3.7900925,,1731227816000,0.07071024,,564571780497309,2.5,0,,,
Fix,GPS,22.5948475800,88.3617821100,-36.12542724609375,0.0,3.7900925,,1731227817000,0.07071024,,564572777586787,2.5,0,,,
Fix,GPS,22.5948476100,88.3617820900,-36.12176513671875,0.0,3.7900925,,1731227818000,0.07071024,,564573783751474,2.5,0,,,
Fix,GPS,22.5948476300,88.3617820700,-36.11846923828125,0.0,3.7900925,,1731227819000,0.07071024,,564574780361473,2.5,0,,,
Fix,GPS,22.5948476600,88.3617820500,-36.117156982421875,0.0,3.7900925,,1731227820000,0.07071024,,564575773653816,2.5,0,,,
Fix,GPS,22.5948476900,88.3617820300,-36.11627197265625,0.0,3.7900925,,1731227821000,0.07071024,,564576786953922,2.5,0,,,
Fix,GPS,22.5948477100,88.3617820100,-36.11285400390625,0.0,3.7900925,,1731227822000,0.07071024,,564577781701004,2.5,0,,,
Fix,GPS,22.5948477200,88.3617820000,-36.11126708984375,0.0,3.7900925,,1731227823000,0.07071024,,564578774425848,2.5,0,,,
Fix,GPS,22.5948477300,88.3617819900,-36.109344482421875,0.0,3.7900925,,1731227824000,0.07071024,,564579775657722,2.5,0,,,
Fix,GPS,22.5948477500,88.3617819800,-36.10992431640625,0.0,3.7900925,,1731227825000,0.07071024,,564580780202982,2.5,0,,,
Fix,GPS,22.5948477700,88.3617819700,-36.1102294921875,0.0,3.7900925,,1731227826000,0.07071024,,564581779474232,2.5,0,,,
Fix,GPS,22.5948477900,88.3617819600,-36.1114501953125,0.0,3.7900925,,1731227827000,0.07071024,,564582774800898,2.5,0,,,
Fix,GPS,22.5948478200,88.3617819400,-36.1090087890625,0.0,3.7900925,,1731227828000,0.07071024,,564583777692252,2.5,0,,,
Fix,GPS,22.5948478300,88.3617819300,-36.106201171875,0.0,3.7900925,,1731227829000,0.07071024,,564584777141574,2.5,0,,,
Fix,GPS,22.5948478600,88.3617819200,-36.101318359375,0.0,3.7900925,,1731227830000,0.07071024,,564585784484490,2.5,0,,,
Fix,GPS,22.5948478900,88.3617819200,-36.096282958984375,0.0,3.7900925,,1731227831000,0.07071024,,564586783346678,2.5,0,,,
Fix,GPS,22.5948479300,88.3617819200,-36.09210205078125,0.0,3.7900925,,1731227832000,0.07071024,,564587776710428,2.5,0,,,
Fix,GPS,22.5948479600,88.3617819100,-36.0859375,0.0,3.7900925,,1731227833000,0.07071024,,564588784417510,2.5,0,,,
Fix,GPS,22.5948479900,88.3617819000,-36.0794677734375,0.0,3.7900925,,1731227834000,0.07071024,,564589781252197,2.5,0,,,
Fix,GPS,22.5948480200,88.3617818900,-36.076171875,0.0,3.7900925,,1731227835000,0.07071024,,564590782126468,2.5,0,,,
Fix,GPS,22.5948480600,88.3617818900,-36.073486328125,0.0,3.7900925,,1731227836000,0.07071024,,564591786035478,2.5,0,,,
Fix,GPS,22.5948480900,88.3617818900,-36.06951904296875,0.0,3.7900925,,1731227837000,0.07071024,,564592777481311,2.5,0,,,
Fix,GPS,22.5948481100,88.3617818900,-36.062286376953125,0.0,3.7900925,,1731227838000,0.07071024,,564593777810321,2.5,0,,,
Fix,GPS,22.5948481200,88.3617818700,-36.056884765625,0.0,3.7900925,,1731227839000,0.07071024,,564594775853602,2.5,0,,,
Fix,GPS,22.5948481500,88.3617818600,-36.052581787109375,0.0,3.7900925,,1731227840000,0.07071024,,564595786408758,2.5,0,,,
Fix,GPS,22.5948481900,88.3617818600,-36.0489501953125,0.0,3.7900925,,1731227841000,0.07071024,,564596775261153,2.5,0,,,
Fix,GPS,22.5948482200,88.3617818600,-36.044189453125,0.0,3.7900925,,1731227842000,0.07071024,,564597780761153,2.5,0,,,
Fix,GPS,22.5948482400,88.3617818600,-36.03753662109375,0.0,3.7900925,,1731227843000,0.07071024,,564598780793392,2.5,0,,,
Fix,GPS,22.5948482600,88.3617818600,-36.033538818359375,0.0,3.7900925,,1731227844000,0.07071024,,564599779741100,2.5,0,,,
Fix,GPS,22.5948482800,88.3617818500,-36.031219482421875,0.0,3.7900925,,1731227845000,0.07071024,,564600785998652,2.5,0,,,
Fix,GPS,22.5948483100,88.3617818500,-36.025848388671875,0.0,3.7900925,,1731227846000,0.07071024,,564601786291984,2.5,0,,,
Fix,GPS,22.5948483300,88.3617818400,-36.019256591796875,0.0,3.7900925,,1731227847000,0.07071024,,564602778592817,2.5,0,,,
Fix,GPS,22.5948483400,88.3617818500,-36.011749267578125,0.0,3.7900925,,1731227848000,0.07071024,,564603777199067,2.5,0,,,
Fix,GPS,22.5948483500,88.3617818400,-36.00482177734375,0.0,3.7900925,,1731227849000,0.07071024,,564604783740317,2.5,0,,,
Fix,GPS,22.5948483800,88.3617818500,-35.9998779296875,0.0,3.7900925,,1731227850000,0.07071024,,564605783740160,2.5,0,,,
Fix,GPS,22.5948484100,88.3617818500,-35.996337890625,0.0,3.7900925,,1731227851000,0.07071024,,564606778841201,2.5,0,,,
Fix,GPS,22.5948484500,88.3617818500,-35.992767333984375,0.0,3.7900925,,1731227852000,0.07071024,,564607777159586,2.5,0,,,
Fix,GPS,22.5948484800,88.3617818500,-35.988037109375,0.0,3.7900925,,1731227853000,0.07071024,,564608786976044,2.5,0,,,
Fix,GPS,22.5948485200,88.3617818400,-35.9854736328125,0.0,3.7900925,,1731227854000,0.07071024,,564609780598909,2.5,0,,,
Fix,GPS,22.5948485600,88.3617818500,-35.9814453125,0.0,3.7900925,,1731227855000,0.06708548,,564610774018648,2.5,0,,,
Fix,GPS,22.5948486000,88.3617818500,-35.97784423828125,0.0,3.7900925,,1731227856000,0.07071024,,564611775601199,2.5,0,,,
Fix,GPS,22.5948486300,88.3617818500,-35.97406005859375,0.0,3.7900925,,1731227857000,0.07071024,,564612782988178,2.5,0,,,
Fix,GPS,22.5948486500,88.3617818400,-35.96868896484375,0.0,3.7900925,,1731227858000,0.07071024,,564613781153073,2.5,0,,,
Fix,GPS,22.5948486800,88.3617818300,-35.96380615234375,0.0,3.7900925,,1731227859000,0.07071024,,564614785328542,2.5,0,,,
Fix,GPS,22.5948487000,88.3617818300,-35.9598388671875,0.0,3.7900925,,1731227860000,0.07071024,,564615777958957,2.5,0,,,
Fix,GPS,22.5948487300,88.3617818200,-35.957611083984375,0.0,3.7900925,,1731227861000,0.07071024,,564616776720312,2.5,0,,,
Fix,GPS,22.5948487600,88.3617818200,-35.9549560546875,0.0,3.7900925,,1731227862000,0.07071024,,564617786696509,2.5,0,,,
Fix,GPS,22.5948487900,88.3617818200,-35.954132080078125,0.0,3.7900925,,1731227863000,0.07071024,,564618777833853,2.5,0,,,
Fix,GPS,22.5948488100,88.3617818200,-35.9534912109375,0.0,3.7900925,,1731227864000,0.07071024,,564619783216248,2.5,0,,,
Fix,GPS,22.5948488400,88.3617818100,-35.951507568359375,0.0,3.7900925,,1731227865000,0.07071024,,564620774507915,2.5,0,,,
Fix,GPS,22.5948488500,88.3617818100,-35.952667236328125,0.0,3.7900925,,1731227866000,0.07071024,,564621774945257,2.5,0,,,
Fix,GPS,22.5948488700,88.3617818000,-35.94873046875,0.0,3.7900925,,1731227867000,0.07071024,,564622784668696,2.5,0,,,
Fix,GPS,22.5948488900,88.3617817900,-35.9461669921875,0.0,3.7900925,,1731227868000,0.07071024,,564623784304527,2.5,0,,,
Fix,GPS,22.5948489200,88.3617817900,-35.942657470703125,0.0,3.7900925,,1731227869000,0.07071024,,564624776072549,2.5,0,,,
Fix,GPS,22.5948489500,88.3617817900,-35.93914794921875,0.0,3.7900925,,1731227870000,0.07071024,,564625782452184,2.5,0,,,
Fix,GPS,22.5948489700,88.3617817900,-35.937255859375,0.0,3.7900925,,1731227871000,0.07071024,,564626781019423,2.5,0,,,
Fix,GPS,22.5948490000,88.3617817800,-35.93426513671875,0.0,3.7900925,,1731227872000,0.07071024,,564627777966506,2.5,0,,,
Fix,GPS,22.5948490100,88.3617817800,-35.932586669921875,0.0,3.7900925,,1731227873000,0.07071024,,564628777503276,2.5,0,,,
Fix,GPS,22.5948490300,88.3617817800,-35.93035888671875,0.0,3.7900925,,1731227874000,0.07071024,,564629783532963,2.5,0,,,
Fix,GPS,22.5948490500,88.3617817800,-35.9273681640625,0.0,3.7900925,,1731227875000,0.07071024,,564630779351556,2.5,0,,,
Fix,GPS,22.5948490700,88.3617817900,-35.92681884765625,0.0,3.7900925,,1731227876000,0.07071024,,564631782942493,2.5,0,,,
Fix,GPS,22.5948491000,88.3617817900,-35.9254150390625,0.0,3.7900925,,1731227877000,0.07071024,,564632785616972,2.5,0,,,
Fix,GPS,22.5948491200,88.3617817900,-35.923675537109375,0.0,3.7900925,,1731227878000,0.067085475,,564633779895358,2.5,0,,,
Fix,GPS,22.5948491300,88.3617817800,-35.922515869140625,0.0,3.7900925,,1731227879000,0.07071024,,564634778886190,2.5,0,,,
Fix,GPS,22.5948491300,88.3617817800,-35.91851806640625,0.0,3.7900925,,1731227880000,0.07071024,,564635780673221,2.5,0,,,
Fix,GPS,22.5948491500,88.3617817700,-35.91552734375,0.0,3.7900925,,1731227881000,0.07071024,,564636777220460,2.5,0,,,
Fix,GPS,22.5948491600,88.3617817600,-35.916473388671875,0.0,3.7900925,,1731227882000,0.07071024,,564637777816294,2.5,0,,,
Fix,GPS,22.5948491800,88.3617817600,-35.91461181640625,0.0,3.7900925,,1731227883000,0.07071024,,564638781054522,2.5,0,,,
Fix,GPS,22.5948492000,88.3617817600,-35.912261962890625,0.0,3.7900925,,1731227884000,0.07071024,,564639779901970,2.5,0,,,
Fix,GPS,22.5948492200,88.3617817600,-35.909698486328125,0.0,3.7900925,,1731227885000,0.07071024,,564640777367803,2.5,0,,,
Fix,GPS,22.5948492400,88.3617817700,-35.90667724609375,0.0,3.7900925,,1731227886000,0.07071024,,564641774743167,2.5,0,,,
Fix,GPS,22.5948492600,88.3617817700,-35.904144287109375,0.0,3.7900925,,1731227887000,0.07071024,,564642780860979,2.5,0,,,
Fix,GPS,22.5948492700,88.3617817700,-35.90093994140625,0.0,3.7900925,,1731227888000,0.07071024,,564643777221031,2.5,0,,,
Fix,GPS,22.5948492900,88.3617817800,-35.89697265625,0.0,3.7900925,,1731227889000,0.07071024,,564644779669572,2.5,0,,,
Fix,GPS,22.5948493100,88.3617817800,-35.893829345703125,0.0,3.7900925,,1731227890000,0.07071024,,564645775131707,2.5,0,,,
Fix,GPS,22.5948493200,88.3617818000,-35.892669677734375,0.0,3.7900925,,1731227891000,0.07071024,,564646775126082,2.5,0,,,
Fix,GPS,22.5948493400,88.3617818100,-35.890045166015625,0.0,3.7900925,,1731227892000,0.07071024,,564647785781290,2.5,0,,,
Fix,GPS,22.5948493600,88.3617818100,-35.886993408203125,0.0,3.7900925,,1731227893000,0.07071024,,564648777688112,2.5,0,,,
Fix,GPS,22.5948493600,88.3617818100,-35.88592529296875,0.0,3.7900925,,1731227894000,0.07071024,,564649774843060,2.5,0,,,
Fix,GPS,22.5948493800,88.3617818200,-35.885711669921875,0.0,3.7900925,,1731227895000,0.07071024,,564650783786966,2.5,0,,,
Fix,GPS,22.5948494000,88.3617818400,-35.880279541015625,0.0,3.7900925,,1731227896000,0.07071024,,564651776706132,2.5,0,,,
Fix,GPS,22.5948494200,88.3617818500,-35.87762451171875,0.0,3.7900925,,1731227897000,0.07071024,,564652782935090,2.5,0,,,
Fix,GPS,22.5948494400,88.3617818600,-35.874237060546875,0.0,3.7900925,,1731227898000,0.07071024,,564653779511601,2.5,0,,,
Fix,GPS,22.5948494500,88.3617818700,-35.872711181640625,0.0,3.7900925,,1731227899000,0.07071024,,564654782651756,2.5,0,,,
Fix,GPS,22.5948494700,88.3617818800,-35.870147705078125,0.0,3.7900925,,1731227900000,0.07071024,,564655781227536,2.5,0,,,
Fix,GPS,22.5948494900,88.3617818800,-35.866455078125,0.0,3.7900925,,1731227901000,0.07071024,,564656786648787,2.5,0,,,
Fix,GPS,22.5948495100,88.3617818900,-35.86346435546875,0.0,3.7900925,,1731227902000,0.07071024,,564657773306911,2.5,0,,,
Fix,GPS,22.5948495200,88.3617818900,-35.85986328125,0.0,3.7900925,,1731227903000,0.07071024,,564658786037796,2.5,0,,,
Fix,GPS,22.5948495300,88.3617818900,-35.859161376953125,0.0,3.7900925,,1731227904000,0.07071024,,564659786402535,2.5,0,,,
Fix,GPS,22.5948495400,88.3617819000,-35.857025146484375,0.0,3.7900925,,1731227905000,0.07071024,,564660782027534,2.5,0,,,
Fix,GPS,22.5948495600,88.3617819000,-35.854400634765625,0.0,3.7900925,,1731227906000,0.07071024,,564661777103629,2.5,0,,,
Fix,GPS,22.5948495700,88.3617819100,-35.852020263671875,0.0,3.7900925,,1731227907000,0.07071024,,564662776980815,2.5,0,,,
Fix,GPS,22.5948495900,88.3617819100,-35.8480224609375,0.0,3.7900925,,1731227908000,0.07071024,,564663773447378,2.5,0,,,
Fix,GPS,22.5948496000,88.3617819100,-35.844329833984375,0.0,3.7900925,,1731227909000,0.07071024,,564664780008419,2.5,0,,,
Fix,GPS,22.5948496000,88.3617819100,-35.84112548828125,0.0,3.7900925,,1731227910000,0.07071024,,564665783811543,2.5,0,,,
Fix,GPS,22.5948496100,88.3617819000,-35.838623046875,0.0,3.7900925,,1731227911000,0.07071024,,564666782137168,2.5,0,,,
Fix,GPS,22.5948496300,88.3617819000,-35.8377685546875,0.0,3.7900925,,1731227912000,0.07071024,,564667777878469,2.5,0,,,
Fix,GPS,22.5948496500,88.3617819000,-35.834716796875,0.0,3.7900925,,1731227913000,0.07071024,,564668781964667,2.5,0,,,
Fix,GPS,22.5948496600,88.3617819000,-35.8321533203125,0.0,3.7900925,,1731227914000,0.07071024,,564669781604094,2.5,0,,,
Fix,GPS,22.5948496800,88.3617819000,-35.82843017578125,0.0,3.7900925,,1731227915000,0.07071024,,564670780067792,2.5,0,,,
Fix,GPS,22.5948497000,88.3617819000,-35.82769775390625,0.0,3.7900925,,1731227916000,0.07071024,,564671785608468,2.5,0,,,
Fix,GPS,22.5948497300,88.3617819000,-35.825286865234375,0.0,3.7900925,,1731227917000,0.07071024,,564672779274665,2.5,0,,,
Fix,GPS,22.5948497600,88.3617819100,-35.8236083984375,0.0,3.7900925,,1731227918000,0.07071024,,564673786300708,2.5,0,,,
Fix,GPS,22.5948497700,88.3617819100,-35.8203125,0.0,3.7900925,,1731227919000,0.07071024,,564674781010654,2.5,0,,,
Fix,GPS,22.5948497800,88.3617819200,-35.82080078125,0.0,3.7900925,,1731227920000,0.07071024,,564675779104872,2.5,0,,,
Fix,GPS,22.5948497900,88.3617819200,-35.81866455078125,0.0,3.7900925,,1731227921000,0.07071024,,564676776576279,2.5,0,,,
Fix,GPS,22.5948498000,88.3617819200,-35.81768798828125,0.0,3.7900925,,1731227922000,0.07071024,,564677783519507,2.5,0,,,
Fix,GPS,22.5948498200,88.3617819200,-35.8165283203125,0.0,3.7900925,,1731227923000,0.07071024,,564678774351591,2.5,0,,,
Fix,GPS,22.5948498300,88.3617819200,-35.812835693359375,0.0,3.7900925,,1731227924000,0.07071024,,564679784867839,2.5,0,,,
Fix,GPS,22.5948498400,88.3617819300,-35.812835693359375,0.0,3.7900925,,1731227925000,0.07071024,,564680782760860,2.5,0,,,
Fix,GPS,22.5948498500,88.3617819300,-35.811492919921875,0.0,3.7900925,,1731227926000,0.07071024,,564681776567631,2.5,0,,,
Fix,GPS,22.5948498700,88.3617819300,-35.8104248046875,0.0,3.7900925,,1731227927000,0.07071024,,564682778888308,2.5,0,,,
Fix,GPS,22.5948499000,88.3617819300,-35.809600830078125,0.0,3.7900925,,1731227928000,0.07071024,,564683773450860,2.5,0,,,
Fix,GPS,22.5948499300,88.3617819400,-35.813873291015625,0.0,3.7900925,,1731227929000,0.07071024,,564684782527787,2.5,0,,,
Fix,GPS,22.5948499700,88.3617819500,-35.818939208984375,0.0,3.7900925,,1731227930000,0.07071024,,564685785537057,2.5,0,,,
Fix,GPS,22.5948500100,88.3617819600,-35.822052001953125,0.0,3.7900925,,1731227931000,0.07071024,,564686785450859,2.5,0,,,
Fix,GPS,22.5948500500,88.3617819600,-35.82330322265625,0.0,3.7900925,,1731227932000,0.07071024,,564687783850233,2.5,0,,,
Fix,GPS,22.5948500700,88.3617819600,-35.822296142578125,0.0,3.7900925,,1731227933000,0.07071024,,564688774890752,2.5,0,,,
Fix,GPS,22.5948500900,88.3617819500,-35.822265625,0.0,3.7900925,,1731227934000,0.07071024,,564689779469607,2.5,0,,,
Fix,GPS,22.5948501100,88.3617819500,-35.821044921875,0.0,3.7900925,,1731227935000,0.07071024,,564690781928981,2.5,0,,,
Fix,GPS,22.5948501200,88.3617819400,-35.81964111328125,0.0,3.7900925,,1731227936000,0.07071024,,564691781494971,2.5,0,,,
Fix,GPS,22.5948501400,88.3617819400,-35.81890869140625,0.0,3.7900925,,1731227937000,0.07071024,,564692782616168,2.5,0,,,
Fix,GPS,22.5948501600,88.3617819400,-35.81671142578125,0.0,3.7900925,,1731227938000,0.07071024,,564693783263460,2.5,0,,,
Fix,GPS,22.5948501700,88.3617819300,-35.81512451171875,0.0,3.7900925,,1731227939000,0.07071024,,564694775171689,2.5,0,,,
Fix,GPS,22.5948502000,88.3617819200,-35.816436767578125,0.0,3.7900925,,1731227940000,0.07071024,,564695784129084,2.5,0,,,
Fix,GPS,22.5948502200,88.3617819100,-35.816162109375,0.0,3.7900925,,1731227941000,0.07071024,,564696780342105,2.5,0,,,
Fix,GPS,22.5948502500,88.3617819000,-35.817596435546875,0.0,3.7900925,,1731227942000,0.07071024,,564697777701115,2.5,0,,,
Fix,GPS,22.5948502800,88.3617818900,-35.81805419921875,0.0,3.7900925,,1731227943000,0.07071024,,564698786396166,2.5,0,,,
Fix,GPS,22.5948503000,88.3617818700,-35.81854248046875,0.0,3.7900925,,1731227944000,0.07071024,,564699781071478,2.5,0,,,
Fix,GPS,22.5948503200,88.3617818600,-35.816864013671875,0.0,3.7900925,,1731227945000,0.07071024,,564700778777468,2.5,0,,,
Fix,GPS,22.5948503400,88.3617818500,-35.81683349609375,0.0,3.7900925,,1731227946000,0.07071024,,564701773213977,2.5,0,,,
Fix,GPS,22.5948503600,88.3617818500,-35.816314697265625,0.0,3.7900925,,1731227947000,0.07071024,,564702783386946,2.5,0,,,
Fix,GPS,22.5948503800,88.3617818400,-35.81573486328125,0.0,3.7900925,,1731227948000,0.07071024,,564703776028820,2.5,0,,,
Fix,GPS,22.5948503900,88.3617818400,-35.81488037109375,0.0,3.7900925,,1731227949000,0.07071024,,564704784963299,2.5,0,,,
Fix,GPS,22.5948504100,88.3617818300,-35.815704345703125,0.0,3.7900925,,1731227950000,0.07071024,,564705785427361,2.5,0,,,
Fix,GPS,22.5948504300,88.3617818300,-35.814910888671875,0.0,3.7900925,,1731227951000,0.07071024,,564706785965121,2.5,0,,,
Fix,GPS,22.5948504500,88.3617818300,-35.813507080078125,0.0,3.7900925,,1731227952000,0.07071024,,564707786145746,2.5,0,,,
Fix,GPS,22.5948504700,88.3617818300,-35.81304931640625,0.0,3.7900925,,1731227953000,0.07071024,,564708782964235,2.5,0,,,
Fix,GPS,22.5948504800,88.3617818300,-35.812255859375,0.0,3.7900925,,1731227954000,0.07071024,,564709782185329,2.5,0,,,
Fix,GPS,22.5948505000,88.3617818300,-35.811676025390625,0.0,3.7900925,,1731227955000,0.07071024,,564710778934077,2.5,0,,,
Fix,GPS,22.5948505100,88.3617818400,-35.810211181640625,0.0,3.7900925,,1731227956000,0.07071024,,564711774500119,2.5,0,,,
Fix,GPS,22.5948505300,88.3617818500,-35.808380126953125,0.0,3.7900925,,1731227957000,0.07071024,,564712783692983,2.5,0,,,
Fix,GPS,22.5948505500,88.3617818500,-35.80706787109375,0.0,3.7900925,,1731227958000,0.07071024,,564713785594755,2.5,0,,,
Fix,GPS,22.5948505700,88.3617818600,-35.80584716796875,0.0,3.7900925,,1731227959000,0.07071024,,564714777158295,2.5,0,,,
Fix,GPS,22.5948505900,88.3617818600,-35.804718017578125,0.0,3.7900925,,1731227960000,0.07071024,,564715785571993,2.5,0,,,
Fix,GPS,22.5948506000,88.3617818600,-35.80340576171875,0.0,3.7900925,,1731227961000,0.07071024,,564716775957201,2.5,0,,,
Fix,GPS,22.5948506300,88.3617818700,-35.80267333984375,0.0,3.7900925,,1731227962000,0.07071024,,564717772993711,2.5,0,,,
Fix,GPS,22.5948506600,88.3617818800,-35.799896240234375,0.0,3.7900925,,1731227963000,0.07071024,,564718784228346,2.5,0,,,
