Fix,GPS,22.5949406400,88.3617389000,-44.936767578125,0.0,9.935046,,1731224694000,0.07069866,,561449800277009,2.5,0,,,
Fix,GPS,22.5949412600,88.3617383300,-44.9874267578125,0.0,9.935046,,1731224695000,0.07069779,,561450793417894,2.5,0,,,
Fix,GPS,22.5949414400,88.3617381500,-44.988800048828125,0.0,9.935046,,1731224696000,0.070699506,,561451795004404,2.5,0,,,
Fix,GPS,22.5949415100,88.3617380800,-44.989654541015625,0.0,9.935046,,1731224697000,0.07070015,,561452799988831,2.5,0,,,
Fix,GPS,22.5949415400,88.3617380500,-44.989501953125,0.0,9.935046,,1731224698000,0.070699126,,561453790707372,2.5,0,,,
Fix,GPS,22.5949415800,88.3617380200,-44.98828125,0.0,9.935046,,1731224699000,0.07069721,,561454792982684,2.5,0,,,
Fix,GPS,22.5949416100,88.3617379900,-44.98907470703125,0.0,9.935046,,1731224700000,0.07070885,,561455794860757,2.5,0,,,
Fix,GPS,22.5949416200,88.3617379800,-44.9888916015625,0.0,9.935046,,1731224701000,0.070699185,,561456795710652,2.5,0,,,
Fix,GPS,22.5949416400,88.3617379700,-44.988800048828125,0.0,9.935046,,1731224702000,0.07069978,,561457792802110,2.5,0,,,
Fix,GPS,22.5949416500,88.3617379600,-44.988006591796875,0.0,9.935046,,1731224703000,0.07070342,,561458796101068,2.5,0,,,
Fix,GPS,22.5949416500,88.3617379700,-44.988677978515625,0.0,9.935046,,1731224704000,0.07069701,,561459796197890,2.5,0,,,
Fix,GPS,22.5949416500,88.3617379900,-44.989776611328125,0.0,9.935046,,1731224705000,0.07069702,,561460790317005,2.5,0,,,
Fix,GPS,22.5949416500,88.3617380000,-44.9906005859375,0.0,9.935046,,1731224706000,0.07069705,,561461794543723,2.5,0,,,
Fix,GPS,22.5949416600,88.3617380100,-44.990020751953125,0.0,9.935046,,1731224707000,0.07069905,,561462787585441,2.5,0,,,
Fix,GPS,22.5949416600,88.3617380100,-44.989471435546875,0.0,9.935046,,1731224708000,0.07069901,,561463799408826,2.5,0,,,
Fix,GPS,22.5949416500,88.3617380300,-44.9901123046875,0.0,9.935046,,1731224709000,0.070697024,,561464801027576,2.5,0,,,
Fix,GPS,22.5949416500,88.3617380400,-44.99102783203125,0.0,9.935046,,1731224710000,0.07069706,,561465796948096,2.5,0,,,
Fix,GPS,22.5949416600,88.3617380400,-44.9915771484375,0.0,9.935046,,1731224711000,0.070706055,,561466798149711,2.5,0,,,
Fix,GPS,22.5949416700,88.3617380300,-44.991455078125,0.0,9.935046,,1731224712000,0.07070052,,561467789468460,2.5,0,,,
Fix,GPS,22.5949417100,88.3617380100,-44.9920654296875,0.0,9.935046,,1731224713000,0.07069747,,561468790036532,2.5,0,,,
Fix,GPS,22.5949417600,88.3617379800,-44.9937744140625,0.0,9.935046,,1731224714000,0.0706975,,561469798044866,2.5,0,,,
Fix,GPS,22.5949418100,88.3617379400,-44.99530029296875,0.0,9.935046,,1731224715000,0.0706995,,561470800530127,2.5,0,,,
Fix,GPS,22.5949418600,88.3617379000,-44.99676513671875,0.0,9.935046,,1731224716000,0.070697695,,561471797394604,2.5,0,,,
Fix,GPS,22.5949419000,88.3617378700,-44.997955322265625,0.0,9.935046,,1731224717000,0.07069691,,561472800486011,2.5,0,,,
Fix,GPS,22.5949419200,88.3617378400,-44.997772216796875,0.0,9.935046,,1731224718000,0.07071218,,561473795091219,2.5,0,,,
Fix,GPS,22.5949419400,88.3617378100,-44.99676513671875,0.0,9.935046,,1731224719000,0.070711926,,561474795480749,2.5,0,,,
Fix,GPS,22.5949419400,88.3617378000,-44.995208740234375,0.0,9.935046,,1731224720000,0.07070368,,561475792378301,2.5,0,,,
Fix,GPS,22.5949419600,88.3617377800,-44.99365234375,0.0,9.935046,,1731224721000,0.07070369,,561476797207363,2.5,0,,,
Fix,GPS,22.5949419800,88.3617377600,-44.994049072265625,0.0,9.935046,,1731224722000,0.07070147,,561477798720853,2.5,0,,,
Fix,GPS,22.5949420000,88.3617377300,-44.994171142578125,0.0,9.935046,,1731224723000,0.07070077,,561478788318873,2.5,0,,,
Fix,GPS,22.5949420200,88.3617377200,-44.9947509765625,0.0,9.935046,,1731224724000,0.07069954,,561479799177622,2.5,0,,,
Fix,GPS,22.5949420500,88.3617376900,-44.9951171875,0.0,9.935046,,1731224725000,0.07070202,,561480790074914,2.5,0,,,
Fix,GPS,22.5949420600,88.3617376800,-44.99517822265625,0.0,9.935046,,1731224726000,0.07070784,,561481794782674,2.5,0,,,
Fix,GPS,22.5949420800,88.3617376700,-44.995269775390625,0.0,9.935046,,1731224727000,0.07070375,,561482787866528,2.5,0,,,
Fix,GPS,22.5949420900,88.3617376600,-44.994720458984375,0.0,9.935046,,1731224728000,0.0707022,,561483795684912,2.5,0,,,
Fix,GPS,22.5949421100,88.3617376400,-44.9951171875,0.0,9.935046,,1731224729000,0.070702195,,561484791739912,2.5,0,,,
Fix,GPS,22.5949421400,88.3617376200,-44.99664306640625,0.0,9.935046,,1731224730000,0.07070224,,561485800040486,2.5,0,,,
Fix,GPS,22.5949426900,88.3617371200,-45.14337158203125,0.0,9.935046,,1731224731000,0.070700824,,561486791709963,2.5,0,,,
Fix,GPS,22.5949429400,88.3617368900,-45.17547607421875,0.0,9.935046,,1731224732000,0.07070377,,561487800552307,2.5,0,,,
Fix,GPS,22.5949430700,88.3617367700,-45.19561767578125,0.0,9.935046,,1731224733000,0.07070145,,561488792433035,2.5,0,,,
Fix,GPS,22.5949432900,88.3617365600,-45.24200439453125,0.0,9.935046,,1731224734000,0.070699036,,561489789476213,2.5,0,,,
Fix,GPS,22.5949434800,88.3617363800,-45.2764892578125,0.0,9.935046,,1731224735000,0.07070238,,561490794465536,2.5,0,,,
Fix,GPS,22.5949436500,88.3617362000,-45.30413818359375,0.0,9.935046,,1731224736000,0.07069836,,561491800850431,2.5,0,,,
Fix,GPS,22.5949437400,88.3617361100,-45.317626953125,0.0,9.935046,,1731224737000,0.0707018,,561492788105325,2.5,0,,,
Fix,GPS,22.5949438100,88.3617360400,-45.32958984375,0.0,9.935046,,1731224738000,0.070702106,,561493794011628,2.5,0,,,
Fix,GPS,22.5949438700,88.3617359900,-45.340057373046875,0.0,9.935046,,1731224739000,0.07070147,,561494799776262,2.5,0,,,
Fix,GPS,22.5949439100,88.3617359600,-45.34356689453125,0.0,9.935046,,1731224740000,0.07070284,,561495795894179,2.5,0,,,
Fix,GPS,22.5949439300,88.3617359400,-45.344879150390625,0.0,9.935046,,1731224741000,0.07070262,,561496791478084,2.5,0,,,
Fix,GPS,22.5949439500,88.3617359300,-45.345733642578125,0.0,9.935046,,1731224742000,0.070702374,,561497798714699,2.5,0,,,
Fix,GPS,22.5949439700,88.3617359200,-45.345184326171875,0.0,9.935046,,1731224743000,0.07070314,,561498788122719,2.5,0,,,
Fix,GPS,22.5949439800,88.3617359200,-45.34429931640625,0.0,9.935046,,1731224744000,0.070706,,561499788229490,2.5,0,,,
Fix,GPS,22.5949439800,88.3617359100,-45.343048095703125,0.0,9.935046,,1731224745000,0.07070256,,561500791497093,2.5,0,,,
Fix,GPS,22.5949439900,88.3617359100,-45.34259033203125,0.0,9.935046,,1731224746000,0.07070284,,561501793069281,2.5,0,,,
Fix,GPS,22.5949440000,88.3617359000,-45.340179443359375,0.0,9.935046,,1731224747000,0.07070319,,561502787953915,2.5,0,,,
Fix,GPS,22.5949440100,88.3617359000,-45.33837890625,0.0,9.935046,,1731224748000,0.070702836,,561503787897561,2.5,0,,,
Fix,GPS,22.5949440200,88.3617359000,-45.33648681640625,0.0,9.935046,,1731224749000,0.070702896,,561504797147248,2.5,0,,,
Fix,GPS,22.5949440200,88.3617359000,-45.333648681640625,0.0,9.935046,,1731224750000,0.07070344,,561505788621051,2.5,0,,,
Fix,GPS,22.5949440300,88.3617359000,-45.33154296875,0.0,9.935046,,1731224751000,0.07070274,,561506800959331,2.5,0,,,
Fix,GPS,22.5949440400,88.3617358900,-45.3292236328125,0.0,9.935046,,1731224752000,0.070703536,,561507787402663,2.5,0,,,
Fix,GPS,22.5949440500,88.3617358900,-45.327178955078125,0.0,9.935046,,1731224753000,0.070704,,561508791069018,2.5,0,,,
Fix,GPS,22.5949440500,88.3617358900,-45.32470703125,0.0,9.935046,,1731224754000,0.070703655,,561509794812663,2.5,0,,,
Fix,GPS,22.5949440500,88.3617358900,-45.322418212890625,0.0,9.935046,,1731224755000,0.070703715,,561510799530475,2.5,0,,,
Fix,GPS,22.5949440600,88.3617358900,-45.319732666015625,0.0,9.935046,,1731224756000,0.07070383,,561511791413392,2.5,0,,,
Fix,GPS,22.5949440600,88.3617358900,-45.31781005859375,0.0,9.935046,,1731224757000,0.070703186,,561512793202714,2.5,0,,,
Fix,GPS,22.5949440700,88.3617358900,-45.31561279296875,0.0,9.935046,,1731224758000,0.07070327,,561513792544276,2.5,0,,,
Fix,GPS,22.5949440800,88.3617358800,-45.3133544921875,0.0,9.935046,,1731224759000,0.07070394,,561514794741984,2.5,0,,,
Fix,GPS,22.5949440900,88.3617358800,-45.311065673828125,0.0,9.935046,,1731224760000,0.07070339,,561515789233807,2.5,0,,,
Fix,GPS,22.5949441000,88.3617358800,-45.30950927734375,0.0,9.935046,,1731224761000,0.07070343,,561516797464901,2.5,0,,,
Fix,GPS,22.5949441200,88.3617358800,-45.308380126953125,0.0,9.935046,,1731224762000,0.07070352,,561517787804013,2.5,0,,,
Fix,GPS,22.5949441300,88.3617358800,-45.3070068359375,0.0,9.935046,,1731224763000,0.070704,,561518794642503,2.5,0,,,
Fix,GPS,22.5949441400,88.3617358800,-45.30419921875,0.0,9.935046,,1731224764000,0.07070405,,561519793064535,2.5,0,,,
Fix,GPS,22.5949441500,88.3617358700,-45.30389404296875,0.0,9.935046,,1731224765000,0.07070414,,561520799585262,2.5,0,,,
Fix,GPS,22.5949441600,88.3617358700,-45.301788330078125,0.0,9.935046,,1731224766000,0.07070443,,561521793302294,2.5,0,,,
Fix,GPS,22.5949441700,88.3617358600,-45.3006591796875,0.0,9.935046,,1731224767000,0.07070484,,561522792127398,2.5,0,,,
Fix,GPS,22.5949441800,88.3617358600,-45.298553466796875,0.0,9.935046,,1731224768000,0.07070432,,561523788576513,2.5,0,,,
Fix,GPS,22.5949441900,88.3617358600,-45.297027587890625,0.0,9.935046,,1731224769000,0.07070429,,561524796916251,2.5,0,,,
Fix,GPS,22.5949441900,88.3617358600,-45.2945556640625,0.0,9.935046,,1731224770000,0.070705034,,561525795976250,2.5,0,,,
Fix,GPS,22.5949442000,88.3617358500,-45.293426513671875,0.0,9.935046,,1731224771000,0.070705056,,561526793008698,2.5,0,,,
Fix,GPS,22.5949442100,88.3617358500,-45.29150390625,0.0,9.935046,,1731224772000,0.070704825,,561527793476615,2.5,0,,,
Fix,GPS,22.5949442200,88.3617358400,-45.29156494140625,0.0,9.935046,,1731224773000,0.070704594,,561528789531562,2.5,0,,,
Fix,GPS,22.5949442400,88.3617358200,-45.2882080078125,0.0,9.935046,,1731224774000,0.070702985,,561529796031093,2.5,0,,,
Fix,GPS,22.5949442500,88.3617358200,-45.286712646484375,0.0,9.935046,,1731224775000,0.07070521,,561530788103801,2.5,0,,,
Fix,GPS,22.5949442600,88.3617358100,-45.28472900390625,0.0,9.935046,,1731224776000,0.07070477,,561531792546457,2.5,0,,,
Fix,GPS,22.5949442700,88.3617358000,-45.280487060546875,0.0,9.935046,,1731224777000,0.07070319,,561532790511457,2.5,0,,,
Fix,GPS,22.5949442800,88.3617357800,-45.27606201171875,0.0,9.935046,,1731224778000,0.07070325,,561533789419373,2.5,0,,,
Fix,GPS,22.5949442900,88.3617357700,-45.274810791015625,0.0,9.935046,,1731224779000,0.07070486,,561534797343643,2.5,0,,,
Fix,GPS,22.5949443000,88.3617357600,-45.27337646484375,0.0,9.935046,,1731224780000,0.07070491,,561535793577861,2.5,0,,,
Fix,GPS,22.5949443200,88.3617357400,-45.26995849609375,0.0,9.935046,,1731224781000,0.0707035,,561536796868069,2.5,0,,,
Fix,GPS,22.5949443300,88.3617357300,-45.26910400390625,0.0,9.935046,,1731224782000,0.070704974,,561537793835934,2.5,0,,,
Fix,GPS,22.5949443500,88.3617357000,-45.265838623046875,0.0,9.935046,,1731224783000,0.07070354,,561538800802600,2.5,0,,,
Fix,GPS,22.5949443600,88.3617356900,-45.26495361328125,0.0,9.935046,,1731224784000,0.07070509,,561539789089423,2.5,0,,,
Fix,GPS,22.5949443800,88.3617356600,-45.261260986328125,0.0,9.935046,,1731224785000,0.07070364,,561540790194787,2.5,0,,,
Fix,GPS,22.5949444000,88.3617356400,-45.26171875,0.0,9.935046,,1731224786000,0.07069704,,561541791991036,2.5,0,,,
Fix,GPS,22.5949444200,88.3617356100,-45.2584228515625,0.0,9.935046,,1731224787000,0.070693396,,561542792363432,2.5,0,,,
Fix,GPS,22.5949444300,88.3617356000,-45.25750732421875,0.0,9.935046,,1731224788000,0.07069706,,561543796999473,2.5,0,,,
Fix,GPS,22.5949444400,88.3617355800,-45.2574462890625,0.0,9.935046,,1731224789000,0.070697345,,561544791468066,2.5,0,,,
Fix,GPS,22.5949444500,88.3617355700,-45.25677490234375,0.0,9.935046,,1731224790000,0.07069769,,561545796984316,2.5,0,,,
Fix,GPS,22.5949444700,88.3617355700,-45.25592041015625,0.0,9.935046,,1731224791000,0.07070552,,561546789507701,2.5,0,,,
Fix,GPS,22.5949444800,88.3617355500,-45.252899169921875,0.0,9.935046,,1731224792000,0.070696175,,561547792367909,2.5,0,,,
Fix,GPS,22.5949445000,88.3617355300,-45.252197265625,0.0,9.935046,,1731224793000,0.070697784,,561548799011711,2.5,0,,,
Fix,GPS,22.5949445100,88.3617355300,-45.25079345703125,0.0,9.935046,,1731224794000,0.070698015,,561549792225617,2.5,0,,,
Fix,GPS,22.5949445200,88.3617355100,-45.24871826171875,0.0,9.935046,,1731224795000,0.07069536,,561550793032908,2.5,0,,,
Fix,GPS,22.5949445400,88.3617354900,-45.245697021484375,0.0,9.935046,,1731224796000,0.070694625,,561551790802230,2.5,0,,,
Fix,GPS,22.5949445100,88.3617359900,-45.18994140625,0.0,9.935046,,1731224797000,0.07069486,,561552798257335,2.5,0,,,
Fix,GPS,22.5949444900,88.3617364200,-45.15643310546875,0.0,9.935046,,1731224798000,0.07069664,,561553791543167,2.5,0,,,
Fix,GPS,22.5949444800,88.3617367300,-45.131103515625,0.0,9.935046,,1731224799000,0.07069505,,561554788884052,2.5,0,,,
Fix,GPS,22.5949444700,88.3617369700,-45.108154296875,0.0,9.935046,,1731224800000,0.07069538,,561555795985457,2.5,0,,,
Fix,GPS,22.5949444600,88.3617372600,-45.07958984375,0.0,9.935046,,1731224801000,0.07070524,,561556799805250,2.5,0,,,
Fix,GPS,22.5949444600,88.3617374400,-45.064300537109375,0.0,9.935046,,1731224802000,0.07070447,,561557787645092,2.5,0,,,
Fix,GPS,22.5949444600,88.3617375700,-45.05072021484375,0.0,9.935046,,1731224803000,0.07070441,,561558798203582,2.5,0,,,
Fix,GPS,22.5949444600,88.3617376600,-45.039947509765625,0.0,9.935046,,1731224804000,0.070704445,,561559799888842,2.5,0,,,
Fix,GPS,22.5949444700,88.3617377200,-45.03076171875,0.0,9.935046,,1731224805000,0.07070449,,561560800483373,2.5,0,,,
Fix,GPS,22.5949444700,88.3617377600,-45.0262451171875,0.0,9.935046,,1731224806000,0.07070589,,561561793458997,2.5,0,,,
Fix,GPS,22.5949444700,88.3617378000,-45.022186279296875,0.0,9.935046,,1731224807000,0.07070536,,561562794622694,2.5,0,,,
Fix,GPS,22.5949444800,88.3617378200,-45.020050048828125,0.0,9.935046,,1731224808000,0.070706025,,561563790680142,2.5,0,,,
Fix,GPS,22.5949444800,88.3617378300,-45.017242431640625,0.0,9.935046,,1731224809000,0.070705995,,561564793994934,2.5,0,,,
Fix,GPS,22.5949444900,88.3617378300,-45.012603759765625,0.0,9.935046,,1731224810000,0.070704795,,561565794023424,2.5,0,,,
Fix,GPS,22.5949445000,88.3617378500,-45.010101318359375,0.0,9.935046,,1731224811000,0.07070546,,561566797049361,2.5,0,,,
Fix,GPS,22.5949445100,88.3617378400,-45.0067138671875,0.0,9.935046,,1731224812000,0.070704766,,561567796844047,2.5,0,,,
Fix,GPS,22.5949445300,88.3617378200,-45.003814697265625,0.0,9.935046,,1731224813000,0.0707049,,561568788201495,2.5,0,,,
Fix,GPS,22.5949445400,88.3617378000,-45.00048828125,0.0,9.935046,,1731224814000,0.070704944,,561569794946964,2.5,0,,,
Fix,GPS,22.5949445500,88.3617377900,-44.998779296875,0.0,9.935046,,1731224815000,0.07070663,,561570793842692,2.5,0,,,
Fix,GPS,22.5949445600,88.3617377900,-44.997894287109375,0.0,9.935046,,1731224816000,0.07070591,,561571800174983,2.5,0,,,
Fix,GPS,22.5949445600,88.3617377900,-44.9962158203125,0.0,9.935046,,1731224817000,0.07070573,,561572788206284,2.5,0,,,
Fix,GPS,22.5949445700,88.3617377800,-44.996307373046875,0.0,9.935046,,1731224818000,0.07070621,,561573788280660,2.5,0,,,
Fix,GPS,22.5949445800,88.3617377700,-44.993377685546875,0.0,9.935046,,1731224819000,0.070705116,,561574791717013,2.5,0,,,
Fix,GPS,22.5949445900,88.3617377500,-44.9908447265625,0.0,9.935046,,1731224820000,0.07070515,,561575790113628,2.5,0,,,
Fix,GPS,22.5949446000,88.3617377400,-44.989105224609375,0.0,9.935046,,1731224821000,0.07070634,,561576795033211,2.5,0,,,
Fix,GPS,22.5949446100,88.3617377300,-44.985687255859375,0.0,9.935046,,1731224822000,0.07070521,,561577791342221,2.5,0,,,
Fix,GPS,22.5949446100,88.3617377000,-44.98248291015625,0.0,9.935046,,1731224823000,0.07070525,,561578797119407,2.5,0,,,
Fix,GPS,22.5949446200,88.3617376900,-44.982269287109375,0.0,9.935046,,1731224824000,0.070706405,,561579795099303,2.5,0,,,
Fix,GPS,22.5949446300,88.3617376600,-44.979736328125,0.0,9.935046,,1731224825000,0.07070531,,561580788730969,2.5,0,,,
Fix,GPS,22.5949446400,88.3617376400,-44.977020263671875,0.0,9.935046,,1731224826000,0.07070525,,561581792971595,2.5,0,,,
Fix,GPS,22.5949446500,88.3617376200,-44.976776123046875,0.0,9.935046,,1731224827000,0.07070649,,561582789395291,2.5,0,,,
Fix,GPS,22.5949446600,88.3617376000,-44.974273681640625,0.0,9.935046,,1731224828000,0.07070541,,561583793119978,2.5,0,,,
Fix,GPS,22.5949446700,88.3617375900,-44.974395751953125,0.0,9.935046,,1731224829000,0.07070654,,561584791042530,2.5,0,,,
Fix,GPS,22.5949446700,88.3617375700,-44.97381591796875,0.0,9.935046,,1731224830000,0.070706956,,561585792919874,2.5,0,,,
Fix,GPS,22.5949446800,88.3617375500,-44.971954345703125,0.0,9.935046,,1731224831000,0.070705496,,561586788287789,2.5,0,,,
Fix,GPS,22.5949446900,88.3617375200,-44.96844482421875,0.0,9.935046,,1731224832000,0.07070557,,561587795061957,2.5,0,,,
Fix,GPS,22.5949447000,88.3617375000,-44.9659423828125,0.0,9.935046,,1731224833000,0.070705555,,561588799973622,2.5,0,,,
Fix,GPS,22.5949447100,88.3617374700,-44.9632568359375,0.0,9.935046,,1731224834000,0.07069794,,561589798045601,2.5,0,,,
Fix,GPS,22.5949447200,88.3617374600,-44.9620361328125,0.0,9.935046,,1731224835000,0.07070064,,561590794083778,2.5,0,,,
Fix,GPS,22.5949447300,88.3617374400,-44.959686279296875,0.0,9.935046,,1731224836000,0.07069808,,561591797560809,2.5,0,,,
Fix,GPS,22.5949447400,88.3617374200,-44.956085205078125,0.0,9.935046,,1731224837000,0.07069827,,561592794716643,2.5,0,,,
Fix,GPS,22.5949447400,88.3617374000,-44.952728271484375,0.0,9.935046,,1731224838000,0.070706345,,561593799610808,2.5,0,,,
Fix,GPS,22.5949447500,88.3617373700,-44.950897216796875,0.0,9.935046,,1731224839000,0.07069829,,561594796457422,2.5,0,,,
Fix,GPS,22.5949447600,88.3617373400,-44.948272705078125,0.0,9.935046,,1731224840000,0.07069836,,561595794426537,2.5,0,,,
Fix,GPS,22.5949447800,88.3617373200,-44.944305419921875,0.0,9.935046,,1731224841000,0.070698425,,561596790224035,2.5,0,,,
Fix,GPS,22.5949447900,88.3617372900,-44.941680908203125,0.0,9.935046,,1731224842000,0.07069849,,561597799625077,2.5,0,,,
Fix,GPS,22.5949448000,88.3617372700,-44.93927001953125,0.0,9.935046,,1731224843000,0.07069856,,561598799931848,2.5,0,,,
Fix,GPS,22.5949448000,88.3617372500,-44.938446044921875,0.0,9.935046,,1731224844000,0.070701115,,561599793035338,2.5,0,,,
Fix,GPS,22.5949448100,88.3617372400,-44.935577392578125,0.0,9.935046,,1731224845000,0.070700265,,561600798000285,2.5,0,,,
Fix,GPS,22.5949448200,88.3617372200,-44.93292236328125,0.0,9.935046,,1731224846000,0.070698746,,561601789573097,2.5,0,,,
Fix,GPS,22.5949448300,88.3617371900,-44.92901611328125,0.0,9.935046,,1731224847000,0.07070656,,561602790524034,2.5,0,,,
Fix,GPS,22.5949448400,88.3617371800,-44.92828369140625,0.0,9.935046,,1731224848000,0.0708044,,561603794285283,2.5,0,,,
Fix,GPS,22.5949448500,88.3617371900,-44.92608642578125,0.0,9.935046,,1731224849000,0.07070476,,561604791376169,2.5,0,,,
Fix,GPS,22.5949448500,88.3617371700,-44.92327880859375,0.0,9.935046,,1731224850000,0.07070677,,561605796200179,2.5,0,,,
Fix,GPS,22.5949448600,88.3617371400,-44.9227294921875,0.0,9.935046,,1731224851000,0.07070602,,561606792382262,2.5,0,,,
Fix,GPS,22.5949448700,88.3617371400,-44.921234130859375,0.0,9.935046,,1731224852000,0.070706904,,561607799573823,2.5,0,,,
Fix,GPS,22.5949448700,88.3617371400,-44.918731689453125,0.0,9.935046,,1731224853000,0.070706934,,561608787367834,2.5,0,,,
Fix,GPS,22.5949448800,88.3617371400,-44.91754150390625,0.0,9.935046,,1731224854000,0.07070659,,561609795044239,2.5,0,,,
Fix,GPS,22.5949448800,88.3617371400,-44.915435791015625,0.0,9.935046,,1731224855000,0.070706725,,561610795456739,2.5,0,,,
Fix,GPS,22.5949448900,88.3617371300,-44.91363525390625,0.0,9.935046,,1731224856000,0.07070606,,561611798860696,2.5,0,,,
Fix,GPS,22.5949448900,88.3617371300,-44.911468505859375,0.0,9.935046,,1731224857000,0.07070699,,561612797176895,2.5,0,,,
Fix,GPS,22.5949449000,88.3617371300,-44.9093017578125,0.0,9.935046,,1731224858000,0.070707016,,561613787823821,2.5,0,,,
Fix,GPS,22.5949449000,88.3617371400,-44.906707763671875,0.0,9.935046,,1731224859000,0.07070701,,561614790613926,2.5,0,,,
Fix,GPS,22.5949449100,88.3617371300,-44.9056396484375,0.0,9.935046,,1731224860000,0.07070669,,561615789201009,2.5,0,,,
Fix,GPS,22.5949449100,88.3617371400,-44.90338134765625,0.0,9.935046,,1731224861000,0.070707075,,561616791923248,2.5,0,,,
Fix,GPS,22.5949449200,88.3617371300,-44.90228271484375,0.0,9.935046,,1731224862000,0.07070752,,561617789688663,2.5,0,,,
Fix,GPS,22.5949449200,88.3617371100,-44.899322509765625,0.0,9.935046,,1731224863000,0.07070687,,561618792016268,2.5,0,,,
Fix,GPS,22.5949449400,88.3617370900,-44.898651123046875,0.0,9.935046,,1731224864000,0.07070623,,561619795796424,2.5,0,,,
Fix,GPS,22.5949449400,88.3617370800,-44.89593505859375,0.0,9.935046,,1731224865000,0.070706904,,561620794549652,2.5,0,,,
Fix,GPS,22.5949449500,88.3617370800,-44.893646240234375,0.0,9.935046,,1731224866000,0.07070716,,561621793174234,2.5,0,,,
Fix,GPS,22.5949449500,88.3617370700,-44.891937255859375,0.0,9.935046,,1731224867000,0.07070758,,561622798578245,2.5,0,,,
Fix,GPS,22.5949449500,88.3617370600,-44.888946533203125,0.0,9.935046,,1731224868000,0.070706844,,561623800145588,2.5,0,,,
Fix,GPS,22.5949449600,88.3617370400,-44.88555908203125,0.0,9.935046,,1731224869000,0.070706986,,561624795960275,2.5,0,,,
Fix,GPS,22.5949449500,88.3617370300,-44.884033203125,0.0,9.935046,,1731224870000,0.07070764,,561625799449755,2.5,0,,,
Fix,GPS,22.5949449600,88.3617370100,-44.88201904296875,0.0,9.935046,,1731224871000,0.07070645,,561626790800640,2.5,0,,,
Fix,GPS,22.5949449700,88.3617369900,-44.88079833984375,0.0,9.935046,,1731224872000,0.07070648,,561627796732098,2.5,0,,,
Fix,GPS,22.5949449800,88.3617369700,-44.878173828125,0.0,9.935046,,1731224873000,0.07070704,,561628799016055,2.5,0,,,
Fix,GPS,22.5949449800,88.3617369600,-44.8768310546875,0.0,9.935046,,1731224874000,0.070707366,,561629793020430,2.5,0,,,
Fix,GPS,22.5949449900,88.3617369400,-44.8740234375,0.0,9.935046,,1731224875000,0.07070653,,561630794876210,2.5,0,,,
Fix,GPS,22.5949450000,88.3617369100,-44.87176513671875,0.0,9.935046,,1731224876000,0.070706554,,561631787164492,2.5,0,,,
Fix,GPS,22.5949450000,88.3617368900,-44.868560791015625,0.0,9.935046,,1731224877000,0.070707105,,561632788257825,2.5,0,,,
Fix,GPS,22.5949450100,88.3617368600,-44.86669921875,0.0,9.935046,,1731224878000,0.07070659,,561633796992460,2.5,0,,,
Fix,GPS,22.5949450200,88.3617368400,-44.86370849609375,0.0,9.935046,,1731224879000,0.07070654,,561634789938865,2.5,0,,,
Fix,GPS,22.5949450300,88.3617368300,-44.864044189453125,0.0,9.935046,,1731224880000,0.07070745,,561635791944855,2.5,0,,,
Fix,GPS,22.5949450400,88.3617368000,-44.86187744140625,0.0,9.935046,,1731224881000,0.070706576,,561636798726313,2.5,0,,,
Fix,GPS,22.5949450500,88.3617367800,-44.85760498046875,0.0,9.935046,,1731224882000,0.070707195,,561637793602406,2.5,0,,,
Fix,GPS,22.5949450500,88.3617367700,-44.85589599609375,0.0,9.935046,,1731224883000,0.070707805,,561638798833187,2.5,0,,,
Fix,GPS,22.5949450600,88.3617367600,-44.855743408203125,0.0,9.935046,,1731224884000,0.070707515,,561639795331936,2.5,0,,,
Fix,GPS,22.5949450500,88.3617367400,-44.851806640625,0.0,9.935046,,1731224885000,0.070707224,,561640793003394,2.5,0,,,
Fix,GPS,22.5949450600,88.3617367300,-44.847503662109375,0.0,9.935046,,1731224886000,0.070707135,,561641797113447,2.5,0,,,
Fix,GPS,22.5949450600,88.3617367100,-44.84210205078125,0.0,9.935046,,1731224887000,0.07070716,,561642787543498,2.5,0,,,
Fix,GPS,22.5949450700,88.3617366900,-44.838104248046875,0.0,9.935046,,1731224888000,0.070707284,,561643795955580,2.5,0,,,
Fix,GPS,22.5949450700,88.3617366700,-44.834991455078125,0.0,9.935046,,1731224889000,0.070706785,,561644799180007,2.5,0,,,
Fix,GPS,22.5949450800,88.3617366500,-44.834320068359375,0.0,9.935046,,1731224890000,0.07070759,,561645790324435,2.5,0,,,
Fix,GPS,22.5949450900,88.3617366300,-44.831695556640625,0.0,9.935046,,1731224891000,0.070706815,,561646792165684,2.5,0,,,
Fix,GPS,22.5949450900,88.3617366100,-44.831573486328125,0.0,9.935046,,1731224892000,0.07070761,,561647792959746,2.5,0,,,
Fix,GPS,22.5949451000,88.3617365900,-44.827606201171875,0.0,9.935046,,1731224893000,0.07070736,,561648788492975,2.5,0,,,
Fix,GPS,22.5949451000,88.3617365800,-44.824127197265625,0.0,9.935046,,1731224894000,0.07070736,,561649796140266,2.5,0,,,
Fix,GPS,22.5949451000,88.3617365700,-44.822418212890625,0.0,9.935046,,1731224895000,0.07070798,,561650797542088,2.5,0,,,
Fix,GPS,22.5949451000,88.3617365500,-44.818267822265625,0.0,9.935046,,1731224896000,0.0707074,,561651787821307,2.5,0,,,
Fix,GPS,22.5949451100,88.3617365300,-44.814788818359375,0.0,9.935046,,1731224897000,0.07070743,,561652788034015,2.5,0,,,
Fix,GPS,22.5949451200,88.3617365100,-44.81103515625,0.0,9.935046,,1731224898000,0.07070744,,561653788087713,2.5,0,,,
Fix,GPS,22.5949451200,88.3617364900,-44.806365966796875,0.0,9.935046,,1731224899000,0.07070756,,561654789622503,2.5,0,,,
Fix,GPS,22.5949451200,88.3617364800,-44.805023193359375,0.0,9.935046,,1731224900000,0.07070918,,561655797616461,2.5,0,,,
Fix,GPS,22.5949451200,88.3617364700,-44.80316162109375,0.0,9.935046,,1731224901000,0.07070806,,561656789224326,2.5,0,,,
Fix,GPS,22.5949451300,88.3617364600,-44.799713134765625,0.0,9.935046,,1731224902000,0.0707075,,561657788826148,2.5,0,,,
Fix,GPS,22.5949451200,88.3617364500,-44.796539306640625,0.0,9.935046,,1731224903000,0.07070779,,561658788916773,2.5,0,,,
Fix,GPS,22.5949451300,88.3617364300,-44.79168701171875,0.0,9.935046,,1731224904000,0.070707515,,561659788501460,2.5,0,,,
Fix,GPS,22.5949451300,88.3617364200,-44.786468505859375,0.0,9.935046,,1731224905000,0.070707515,,561660794135991,2.5,0,,,
Fix,GPS,22.5949451300,88.3617364000,-44.7823486328125,0.0,9.935046,,1731224906000,0.07070752,,561661798163804,2.5,0,,,
Fix,GPS,22.5949451400,88.3617363900,-44.77886962890625,0.0,9.935046,,1731224907000,0.070707805,,561662790665782,2.5,0,,,
Fix,GPS,22.5949451400,88.3617363800,-44.77685546875,0.0,9.935046,,1731224908000,0.07070821,,561663788537553,2.5,0,,,
Fix,GPS,22.5949451400,88.3617363700,-44.77276611328125,0.0,9.935046,,1731224909000,0.070707574,,561664788981979,2.5,0,,,
Fix,GPS,22.5949451400,88.3617363600,-44.770751953125,0.0,9.935046,,1731224910000,0.07070813,,561665796488020,2.5,0,,,
Fix,GPS,22.5949451300,88.3617363500,-44.770111083984375,0.0,9.935046,,1731224911000,0.07070907,,561666797333437,2.5,0,,,
Fix,GPS,22.5949451300,88.3617363400,-44.765960693359375,0.0,9.935046,,1731224912000,0.07070769,,561667793927290,2.5,0,,,
Fix,GPS,22.5949451200,88.3617363300,-44.764312744140625,0.0,9.935046,,1731224913000,0.07070909,,561668788246561,2.5,0,,,
Fix,GPS,22.5949451100,88.3617363200,-44.76300048828125,0.0,9.935046,,1731224914000,0.07070846,,561669798058540,2.5,0,,,
Fix,GPS,22.5949451000,88.3617363100,-44.762054443359375,0.0,9.935046,,1731224915000,0.07070862,,561670793915779,2.5,0,,,
Fix,GPS,22.5949450900,88.3617363100,-44.759979248046875,0.0,9.935046,,1731224916000,0.07070904,,561671789583174,2.5,0,,,
Fix,GPS,22.5949450800,88.3617363100,-44.7584228515625,0.0,9.935046,,1731224917000,0.0707093,,561672795622966,2.5,0,,,
Fix,GPS,22.5949450800,88.3617362900,-44.75579833984375,0.0,9.935046,,1731224918000,0.07070788,,561673791304058,2.5,0,,,
Fix,GPS,22.5949450700,88.3617362700,-44.7508544921875,0.0,9.935046,,1731224919000,0.07070803,,561674791138538,2.5,0,,,
Fix,GPS,22.5949450600,88.3617362700,-44.74981689453125,0.0,9.935046,,1731224920000,0.07070932,,561675792350256,2.5,0,,,
Fix,GPS,22.5949450600,88.3617362400,-44.74609375,0.0,9.935046,,1731224921000,0.070708066,,561676798879317,2.5,0,,,
Fix,GPS,22.5949450600,88.3617362400,-44.743408203125,0.0,9.935046,,1731224922000,0.070708245,,561677790903537,2.5,0,,,
Fix,GPS,22.5949450600,88.3617362200,-44.73992919921875,0.0,9.935046,,1731224923000,0.070707954,,561678795207755,2.5,0,,,
Fix,GPS,22.5949450600,88.3617362100,-44.737823486328125,0.0,9.935046,,1731224924000,0.07070839,,561679794478119,2.5,0,,,
Fix,GPS,22.5949450700,88.3617362000,-44.73577880859375,0.0,9.935046,,1731224925000,0.07070824,,561680787702286,2.5,0,,,
Fix,GPS,22.5949450700,88.3617362000,-44.73345947265625,0.0,9.935046,,1731224926000,0.07070857,,561681789143639,2.5,0,,,
Fix,GPS,22.5949450800,88.3617362000,-44.73077392578125,0.0,9.935046,,1731224927000,0.07070899,,561682793317857,2.5,0,,,
Fix,GPS,22.5949450800,88.3617362000,-44.72869873046875,0.0,9.935046,,1731224928000,0.070709765,,561683792266919,2.5,0,,,
Fix,GPS,22.5949450900,88.3617362000,-44.72625732421875,0.0,9.935046,,1731224929000,0.07070986,,561684787300513,2.5,0,,,
Fix,GPS,22.5949451000,88.3617361900,-44.724884033203125,0.0,9.935046,,1731224930000,0.07070979,,561685788689679,2.5,0,,,
Fix,GPS,22.5949451000,88.3617361900,-44.72259521484375,0.0,9.935046,,1731224931000,0.070820406,,561686795689419,2.5,0,,,
Fix,GPS,22.5949451100,88.3617361800,-44.722137451171875,0.0,9.935046,,1731224932000,0.07070558,,561687788792335,2.5,0,,,
Fix,GPS,22.5949451200,88.3617361800,-44.7213134765625,0.0,9.935046,,1731224933000,0.07070646,,561688797852855,2.5,0,,,
Fix,GPS,22.5949451300,88.3617361700,-44.719329833984375,0.0,9.935046,,1731224934000,0.07070866,,561689792449053,2.5,0,,,
Fix,GPS,22.5949451300,88.3617361700,-44.717529296875,0.0,9.935046,,1731224935000,0.07070915,,561690795214886,2.5,0,,,
Fix,GPS,22.5949451300,88.3617361600,-44.716278076171875,0.0,9.935046,,1731224936000,0.07071057,,561691787835562,2.5,0,,,
Fix,GPS,22.5949451300,88.3617361600,-44.714385986328125,0.0,9.935046,,1731224937000,0.07070862,,561692797303583,2.5,0,,,
Fix,GPS,22.5949451400,88.3617361500,-44.71240234375,0.0,9.935046,,1731224938000,0.07070833,,561693791744468,2.5,0,,,
Fix,GPS,22.5949451500,88.3617361500,-44.71044921875,0.0,9.935046,,1731224939000,0.070708446,,561694792564260,2.5,0,,,
Fix,GPS,22.5949451500,88.3617361400,-44.70843505859375,0.0,9.935046,,1731224940000,0.07070849,,561695795330197,2.5,0,,,
Fix,GPS,22.5949451600,88.3617361400,-44.705322265625,0.0,9.935046,,1731224941000,0.070708476,,561696790294102,2.5,0,,,
Fix,GPS,22.5949451600,88.3617361400,-44.7022705078125,0.0,9.935046,,1731224942000,0.070708476,,561697798591550,2.5,0,,,
Fix,GPS,22.5949451600,88.3617361400,-44.699462890625,0.0,9.935046,,1731224943000,0.07070849,,561698796131602,2.5,0,,,
Fix,GPS,22.5949451700,88.3617361400,-44.69647216796875,0.0,9.935046,,1731224944000,0.070708506,,561699796047174,2.5,0,,,
Fix,GPS,22.5949451700,88.3617361300,-44.693389892578125,0.0,9.935046,,1731224945000,0.0707085,,561700796371757,2.5,0,,,
Fix,GPS,22.5949451700,88.3617361300,-44.6898193359375,0.0,9.935046,,1731224946000,0.070708506,,561701788094256,2.5,0,,,
Fix,GPS,22.5949451700,88.3617361300,-44.6875,0.0,9.935046,,1731224947000,0.07070852,,561702789784047,2.5,0,,,
Fix,GPS,22.5949451800,88.3617361300,-44.68463134765625,0.0,9.935046,,1731224948000,0.07070853,,561703793282954,2.5,0,,,
Fix,GPS,22.5949451800,88.3617361200,-44.682281494140625,0.0,9.935046,,1731224949000,0.07070851,,561704788908943,2.5,0,,,
Fix,GPS,22.5949451800,88.3617361200,-44.679656982421875,0.0,9.935046,,1731224950000,0.07070856,,561705790349567,2.5,0,,,
Fix,GPS,22.5949451800,88.3617361200,-44.676971435546875,0.0,9.935046,,1731224951000,0.07070855,,561706799818941,2.5,0,,,
Fix,GPS,22.5949451800,88.3617361100,-44.67413330078125,0.0,9.935046,,1731224952000,0.07070857,,561707795142640,2.5,0,,,
Fix,GPS,22.5949451900,88.3617361100,-44.67120361328125,0.0,9.935046,,1731224953000,0.07070857,,561708794036910,2.5,0,,,
Fix,GPS,22.5949451900,88.3617360900,-44.665924072265625,0.0,9.935046,,1731224954000,0.070708215,,561709797782274,2.5,0,,,
Fix,GPS,22.5949451900,88.3617360800,-44.663360595703125,0.0,9.935046,,1731224955000,0.0707086,,561710793336545,2.5,0,,,
Fix,GPS,22.5949451900,88.3617360800,-44.66021728515625,0.0,9.935046,,1731224956000,0.0707086,,561711799282846,2.5,0,,,
Fix,GPS,22.5949451900,88.3617360700,-44.6544189453125,0.0,9.935046,,1731224957000,0.07070805,,561712794482847,2.5,0,,,
Fix,GPS,22.5949452000,88.3617360600,-44.65264892578125,0.0,9.935046,,1731224958000,0.070708714,,561713796816335,2.5,0,,,
Fix,GPS,22.5949452000,88.3617360600,-44.650421142578125,0.0,9.935046,,1731224959000,0.070708595,,561714787602272,2.5,0,,,
Fix,GPS,22.5949452000,88.3617360500,-44.64849853515625,0.0,9.935046,,1731224960000,0.07070858,,561715791921543,2.5,0,,,
Fix,GPS,22.5949452100,88.3617360500,-44.6453857421875,0.0,9.935046,,1731224961000,0.07070857,,561716791214720,2.5,0,,,
Fix,GPS,22.5949452100,88.3617360500,-44.642608642578125,0.0,9.935046,,1731224962000,0.07070857,,561717786673521,2.5,0,,,
Fix,GPS,22.5949452100,88.3617360400,-44.640350341796875,0.0,9.935046,,1731224963000,0.070708565,,561718787691698,2.5,0,,,
Fix,GPS,22.5949452200,88.3617360300,-44.63555908203125,0.0,9.935046,,1731224964000,0.07070813,,561719795552583,2.5,0,,,
Fix,GPS,22.5949452200,88.3617360200,-44.633209228515625,0.0,9.935046,,1731224965000,0.070708595,,561720787278571,2.5,0,,,
Fix,GPS,22.5949452300,88.3617360100,-44.627166748046875,0.0,9.935046,,1731224966000,0.07070805,,561721798983676,2.5,0,,,
Fix,GPS,22.5949452400,88.3617360100,-44.624969482421875,0.0,9.935046,,1731224967000,0.070708655,,561722786603987,2.5,0,,,
Fix,GPS,22.5949452400,88.3617360000,-44.62310791015625,0.0,9.935046,,1731224968000,0.07070869,,561723787401124,2.5,0,,,
Fix,GPS,22.5949452400,88.3617360000,-44.62109375,0.0,9.935046,,1731224969000,0.07070857,,561724795173206,2.5,0,,,
Fix,GPS,22.5949452500,88.3617359800,-44.6160888671875,0.0,9.935046,,1731224970000,0.070708126,,561725795925393,2.5,0,,,
Fix,GPS,22.5949452500,88.3617359800,-44.613037109375,0.0,9.935046,,1731224971000,0.07070857,,561726793218101,2.5,0,,,
Fix,GPS,22.5949452500,88.3617359800,-44.610443115234375,0.0,9.935046,,1731224972000,0.070708595,,561727799269976,2.5,0,,,
Fix,GPS,22.5949452500,88.3617359700,-44.608154296875,0.0,9.935046,,1731224973000,0.070708595,,561728794293674,2.5,0,,,
Fix,GPS,22.5949452600,88.3617359700,-44.60540771484375,0.0,9.935046,,1731224974000,0.070708595,,561729795500652,2.5,0,,,
Fix,GPS,22.5949452600,88.3617359700,-44.6024169921875,0.0,9.935046,,1731224975000,0.0707099,,561730799546017,2.5,0,,,
Fix,GPS,22.5949452700,88.3617359700,-44.599517822265625,0.0,9.935046,,1731224976000,0.07070827,,561731796248828,2.5,0,,,
Fix,GPS,22.5949452700,88.3617359700,-44.597564697265625,0.0,9.935046,,1731224977000,0.07070869,,561732795764349,2.5,0,,,
Fix,GPS,22.5949452800,88.3617359700,-44.59515380859375,0.0,9.935046,,1731224978000,0.07070869,,561733795758983,2.5,0,,,
Fix,GPS,22.5949452800,88.3617359700,-44.59307861328125,0.0,9.935046,,1731224979000,0.07070971,,561734798614921,2.5,0,,,
Fix,GPS,22.5949452800,88.3617359700,-44.59063720703125,0.0,9.935046,,1731224980000,0.070708305,,561735788577681,2.5,0,,,
Fix,GPS,22.5949452900,88.3617359700,-44.588623046875,0.0,9.935046,,1731224981000,0.070708305,,561736786686899,2.5,0,,,
Fix,GPS,22.5949452900,88.3617359700,-44.5863037109375,0.0,9.935046,,1731224982000,0.070708595,,561737794066795,2.5,0,,,
Fix,GPS,22.5949453000,88.3617359700,-44.583770751953125,0.0,9.935046,,1731224983000,0.07070857,,561738796416638,2.5,0,,,
Fix,GPS,22.5949453000,88.3617359700,-44.581634521484375,0.0,9.935046,,1731224984000,0.07070859,,561739793294867,2.5,0,,,
Fix,GPS,22.5949453100,88.3617359700,-44.57952880859375,0.0,9.935046,,1731224985000,0.07070829,,561740796306169,2.5,0,,,
Fix,GPS,22.5949453100,88.3617359600,-44.57403564453125,0.0,9.935046,,1731224986000,0.07070806,,561741791655335,2.5,0,,,
Fix,GPS,22.5949453100,88.3617359600,-44.57171630859375,0.0,9.935046,,1731224987000,0.0707086,,561742798657209,2.5,0,,,
Fix,GPS,22.5949453100,88.3617359600,-44.56951904296875,0.0,9.935046,,1731224988000,0.07070859,,561743798939500,2.5,0,,,
Fix,GPS,22.5949453100,88.3617359600,-44.56817626953125,0.0,9.935046,,1731224989000,0.07071474,,561744797592209,2.5,0,,,
Fix,GPS,22.5949453000,88.3617359600,-44.56646728515625,0.0,9.935046,,1731224990000,0.07070945,,561745798614969,2.5,0,,,
Fix,GPS,22.5949452900,88.3617359600,-44.56463623046875,0.0,9.935046,,1731224991000,0.07070892,,561746789133876,2.5,0,,,
Fix,GPS,22.5949453000,88.3617359600,-44.562957763671875,0.0,9.935046,,1731224992000,0.07070844,,561747794600645,2.5,0,,,
Fix,GPS,22.5949453000,88.3617359600,-44.561187744140625,0.0,9.935046,,1731224993000,0.07070857,,561748790902937,2.5,0,,,
Fix,GPS,22.5949453100,88.3617359600,-44.559112548828125,0.0,9.935046,,1731224994000,0.07070858,,561749798943821,2.5,0,,,
Fix,GPS,22.5949453200,88.3617359600,-44.557586669921875,0.0,9.935046,,1731224995000,0.070708595,,561750789521841,2.5,0,,,
Fix,GPS,22.5949453200,88.3617359600,-44.557037353515625,0.0,9.935046,,1731224996000,0.070709445,,561751787988092,2.5,0,,,
Fix,GPS,22.5949453200,88.3617359600,-44.55535888671875,0.0,9.935046,,1731224997000,0.07070858,,561752790694655,2.5,0,,,
Fix,GPS,22.5949453300,88.3617359500,-44.554718017578125,0.0,9.935046,,1731224998000,0.070708595,,561753789360851,2.5,0,,,
Fix,GPS,22.5949453400,88.3617359600,-44.552642822265625,0.0,9.935046,,1731224999000,0.070708305,,561754791467206,2.5,0,,,
Fix,GPS,22.5949453400,88.3617359600,-44.551605224609375,0.0,9.935046,,1731225000000,0.070708595,,561755792129757,2.5,0,,,
Fix,GPS,22.5949453400,88.3617359600,-44.550567626953125,0.0,9.935046,,1731225001000,0.07070911,,561756794909392,2.5,0,,,
Fix,GPS,22.5949453400,88.3617359600,-44.54986572265625,0.0,9.935046,,1731225002000,0.07070944,,561757790316110,2.5,0,,,
Fix,GPS,22.5949453400,88.3617359600,-44.54913330078125,0.0,9.935046,,1731225003000,0.07070938,,561758793490640,2.5,0,,,
Fix,GPS,22.5949453300,88.3617359500,-44.54827880859375,0.0,9.935046,,1731225004000,0.07070967,,561759792287984,2.5,0,,,
Fix,GPS,22.5949453300,88.3617359500,-44.5477294921875,0.0,9.935046,,1731225005000,0.07070943,,561760787416474,2.5,0,,,
Fix,GPS,22.5949453300,88.3617359300,-44.543182373046875,0.0,9.935046,,1731225006000,0.07070839,,561761799583661,2.5,0,,,
Fix,GPS,22.5949453300,88.3617359200,-44.538665771484375,0.0,9.935046,,1731225007000,0.07070839,,561762789578712,2.5,0,,,
Fix,GPS,22.5949453200,88.3617359100,-44.53778076171875,0.0,9.935046,,1731225008000,0.07071401,,561763799302723,2.5,0,,,
Fix,GPS,22.5949453200,88.3617359100,-44.537109375,0.0,9.935046,,1731225009000,0.07071405,,561764789399285,2.5,0,,,
Fix,GPS,22.5949453100,88.3617359100,-44.53607177734375,0.0,9.935046,,1731225010000,0.07070943,,561765799824336,2.5,0,,,
Fix,GPS,22.5949453100,88.3617358900,-44.53216552734375,0.0,9.935046,,1731225011000,0.07070838,,561766793536887,2.5,0,,,
Fix,GPS,22.5949453100,88.3617358800,-44.52874755859375,0.0,9.935046,,1731225012000,0.070708394,,561767793287044,2.5,0,,,
Fix,GPS,22.5949453000,88.3617358700,-44.527618408203125,0.0,9.935046,,1731225013000,0.07070937,,561768798053086,2.5,0,,,
Fix,GPS,22.5949452900,88.3617358700,-44.526763916015625,0.0,9.935046,,1731225014000,0.07070933,,561769794918137,2.5,0,,,
Fix,GPS,22.5949457600,88.3617354600,-44.606109619140625,0.0,9.935046,,1731225015000,0.0707096,,561770793455116,2.5,0,,,
Fix,GPS,22.5949458700,88.3617353500,-44.602386474609375,0.0,9.935046,,1731225016000,0.07070763,,561771796470949,2.5,0,,,
Fix,GPS,22.5949461400,88.3617351100,-44.64208984375,0.0,9.935046,,1731225017000,0.07070829,,561772787821470,2.5,0,,,
Fix,GPS,22.5949463100,88.3617349400,-44.657379150390625,0.0,9.935046,,1731225018000,0.0707077,,561773794164541,2.5,0,,,
Fix,GPS,22.5949464000,88.3617348500,-44.66363525390625,0.0,9.935046,,1731225019000,0.07070771,,561774793040009,2.5,0,,,
Fix,GPS,22.5949464700,88.3617347800,-44.671295166015625,0.0,9.935046,,1731225020000,0.07070825,,561775795540842,2.5,0,,,
Fix,GPS,22.5949465200,88.3617347300,-44.67401123046875,0.0,9.935046,,1731225021000,0.07070837,,561776786473810,2.5,0,,,
Fix,GPS,22.5949465600,88.3617346900,-44.67718505859375,0.0,9.935046,,1731225022000,0.070714325,,561777796527874,2.5,0,,,
Fix,GPS,22.5949465800,88.3617346600,-44.67864990234375,0.0,9.935046,,1731225023000,0.07070854,,561778797384592,2.5,0,,,
Fix,GPS,22.5949466000,88.3617346300,-44.676483154296875,0.0,9.935046,,1731225024000,0.07070817,,561779792678758,2.5,0,,,
Fix,GPS,22.5949466100,88.3617346200,-44.67620849609375,0.0,9.935046,,1731225025000,0.07070829,,561780787183862,2.5,0,,,
Fix,GPS,22.5949466200,88.3617346100,-44.6732177734375,0.0,9.935046,,1731225026000,0.070708275,,561781790539799,2.5,0,,,
Fix,GPS,22.5949466300,88.3617345900,-44.674224853515625,0.0,9.935046,,1731225027000,0.07070837,,561782799368131,2.5,0,,,
Fix,GPS,22.5949466400,88.3617345800,-44.670989990234375,0.0,9.935046,,1731225028000,0.07070807,,561783791920111,2.5,0,,,
Fix,GPS,22.5949466500,88.3617345700,-44.667633056640625,0.0,9.935046,,1731225029000,0.07070804,,561784787383288,2.5,0,,,
Fix,GPS,22.5949466500,88.3617345500,-44.6634521484375,0.0,9.935046,,1731225030000,0.07070808,,561785797745422,2.5,0,,,
Fix,GPS,22.5949466600,88.3617345400,-44.659332275390625,0.0,9.935046,,1731225031000,0.07070803,,561786790010735,2.5,0,,,
Fix,GPS,22.5949466700,88.3617345400,-44.655487060546875,0.0,9.935046,,1731225032000,0.070708096,,561787799203859,2.5,0,,,
Fix,GPS,22.5949466700,88.3617345300,-44.650909423828125,0.0,9.935046,,1731225033000,0.070708066,,561788787482036,2.5,0,,,
Fix,GPS,22.5949466800,88.3617345200,-44.647369384765625,0.0,9.935046,,1731225034000,0.070708066,,561789790678077,2.5,0,,,
Fix,GPS,22.5949466900,88.3617345100,-44.643310546875,0.0,9.935046,,1731225035000,0.07070816,,561790799472764,2.5,0,,,
Fix,GPS,22.5949466900,88.3617344900,-44.637969970703125,0.0,9.935046,,1731225036000,0.07070809,,561791799326670,2.5,0,,,
Fix,GPS,22.5949467000,88.3617344900,-44.636383056640625,0.0,9.935046,,1731225037000,0.07070831,,561792798510835,2.5,0,,,
Fix,GPS,22.5949467000,88.3617344800,-44.63189697265625,0.0,9.935046,,1731225038000,0.0707081,,561793789527242,2.5,0,,,
Fix,GPS,22.5949467100,88.3617344700,-44.62921142578125,0.0,9.935046,,1731225039000,0.07070762,,561794796207398,2.5,0,,,
Fix,GPS,22.5949467200,88.3617344600,-44.624908447265625,0.0,9.935046,,1731225040000,0.07070804,,561795792546460,2.5,0,,,
Fix,GPS,22.5949467200,88.3617344600,-44.623443603515625,0.0,9.935046,,1731225041000,0.07070832,,561796793386720,2.5,0,,,
Fix,GPS,22.5949467300,88.3617344600,-44.619415283203125,0.0,9.935046,,1731225042000,0.070708066,,561797786620366,2.5,0,,,
Fix,GPS,22.5949467300,88.3617344600,-44.615264892578125,0.0,9.935046,,1731225043000,0.07070804,,561798795059845,2.5,0,,,
Fix,GPS,22.5949467300,88.3617344500,-44.61090087890625,0.0,9.935046,,1731225044000,0.070708275,,561799796666979,2.5,0,,,
Fix,GPS,22.5949467500,88.3617344200,-44.608245849609375,0.0,9.935046,,1731225045000,0.070707485,,561800798931041,2.5,0,,,
Fix,GPS,22.5949467600,88.3617344100,-44.603179931640625,0.0,9.935046,,1731225046000,0.07070803,,561801796318281,2.5,0,,,
Fix,GPS,22.5949467600,88.3617344000,-44.598052978515625,0.0,9.935046,,1731225047000,0.070708066,,561802795811041,2.5,0,,,
Fix,GPS,22.5949467600,88.3617344000,-44.5933837890625,0.0,9.935046,,1731225048000,0.070708066,,561803794526979,2.5,0,,,
Fix,GPS,22.5949467600,88.3617344000,-44.58978271484375,0.0,9.935046,,1731225049000,0.07070808,,561804789179373,2.5,0,,,
Fix,GPS,22.5949467700,88.3617343900,-44.585357666015625,0.0,9.935046,,1731225050000,0.07070811,,561805799605519,2.5,0,,,
Fix,GPS,22.5949467700,88.3617343800,-44.58038330078125,0.0,9.935046,,1731225051000,0.070708066,,561806797098331,2.5,0,,,
Fix,GPS,22.5949467900,88.3617343600,-44.577545166015625,0.0,9.935046,,1731225052000,0.070707485,,561807789147445,2.5,0,,,
Fix,GPS,22.5949468000,88.3617343600,-44.575347900390625,0.0,9.935046,,1731225053000,0.07070831,,561808797581039,2.5,0,,,
Fix,GPS,22.5949468000,88.3617343500,-44.570556640625,0.0,9.935046,,1731225054000,0.07070807,,561809799335986,2.5,0,,,
Fix,GPS,22.5949468100,88.3617343600,-44.56842041015625,0.0,9.935046,,1731225055000,0.0707083,,561810790156246,2.5,0,,,
Fix,GPS,22.5949468300,88.3617343300,-44.565887451171875,0.0,9.935046,,1731225056000,0.070707485,,561811788556923,2.5,0,,,
Fix,GPS,22.5949468300,88.3617343300,-44.563934326171875,0.0,9.935046,,1731225057000,0.07070829,,561812798817443,2.5,0,,,
Fix,GPS,22.5949468400,88.3617343300,-44.560028076171875,0.0,9.935046,,1731225058000,0.07070808,,561813798831350,2.5,0,,,
Fix,GPS,22.5949468400,88.3617343300,-44.558074951171875,0.0,9.935046,,1731225059000,0.070708334,,561814798019630,2.5,0,,,
Fix,GPS,22.5949468500,88.3617343300,-44.5535888671875,0.0,9.935046,,1731225060000,0.07070809,,561815796975775,2.5,0,,,
Fix,GPS,22.5949468500,88.3617343300,-44.552001953125,0.0,9.935046,,1731225061000,0.07070829,,561816795604473,2.5,0,,,
Fix,GPS,22.5949468500,88.3617343200,-44.548309326171875,0.0,9.935046,,1731225062000,0.07070807,,561817794335879,2.5,0,,,
Fix,GPS,22.5949468600,88.3617343100,-44.54425048828125,0.0,9.935046,,1731225063000,0.07070767,,561818799539472,2.5,0,,,
Fix,GPS,22.5949468600,88.3617343200,-44.5421142578125,0.0,9.935046,,1731225064000,0.07070818,,561819796619733,2.5,0,,,
Fix,GPS,22.5949468900,88.3617342800,-44.54022216796875,0.0,9.935046,,1731225065000,0.0707075,,561820799445931,2.5,0,,,
Fix,GPS,22.5949468900,88.3617342800,-44.538360595703125,0.0,9.935046,,1731225066000,0.07070799,,561821787354732,2.5,0,,,
Fix,GPS,22.5949469100,88.3617342600,-44.535247802734375,0.0,9.935046,,1731225067000,0.07070749,,561822797182648,2.5,0,,,
Fix,GPS,22.5949469400,88.3617342300,-44.532562255859375,0.0,9.935046,,1731225068000,0.070707485,,561823795920616,2.5,0,,,
Fix,GPS,22.5949469600,88.3617342100,-44.528778076171875,0.0,9.935046,,1731225069000,0.07070806,,561824794633481,2.5,0,,,
Fix,GPS,22.5949469800,88.3617341900,-44.52618408203125,0.0,9.935046,,1731225070000,0.070707485,,561825798656710,2.5,0,,,
Fix,GPS,22.5949470100,88.3617341600,-44.5240478515625,0.0,9.935046,,1731225071000,0.070707336,,561826793933688,2.5,0,,,
Fix,GPS,22.5949470500,88.3617341200,-44.52197265625,0.0,9.935046,,1731225072000,0.07070748,,561827794154625,2.5,0,,,
Fix,GPS,22.5949470600,88.3617341100,-44.5203857421875,0.0,9.935046,,1731225073000,0.07070857,,561828796406448,2.5,0,,,
Fix,GPS,22.5949470600,88.3617341100,-44.516204833984375,0.0,9.935046,,1731225074000,0.07070806,,561829790563010,2.5,0,,,
Fix,GPS,22.5949470700,88.3617341000,-44.511444091796875,0.0,9.935046,,1731225075000,0.070708066,,561830789131499,2.5,0,,,
Fix,GPS,22.5949470900,88.3617340800,-44.5113525390625,0.0,9.935046,,1731225076000,0.07070742,,561831794599468,2.5,0,,,
Fix,GPS,22.5949471100,88.3617340600,-44.507781982421875,0.0,9.935046,,1731225077000,0.070707634,,561832790460040,2.5,0,,,
Fix,GPS,22.5949471100,88.3617340600,-44.504302978515625,0.0,9.935046,,1731225078000,0.0707079,,561833794826342,2.5,0,,,
Fix,GPS,22.5949471400,88.3617340300,-44.50177001953125,0.0,9.935046,,1731225079000,0.0707075,,561834794941914,2.5,0,,,
Fix,GPS,22.5949471600,88.3617340000,-44.498443603515625,0.0,9.935046,,1731225080000,0.07070748,,561835796662746,2.5,0,,,
Fix,GPS,22.5949472000,88.3617339600,-44.495819091796875,0.0,9.935046,,1731225081000,0.07070748,,561836787282954,2.5,0,,,
Fix,GPS,22.5949472300,88.3617339200,-44.493072509765625,0.0,9.935046,,1731225082000,0.07070748,,561837792359413,2.5,0,,,
Fix,GPS,22.5949472400,88.3617339100,-44.48883056640625,0.0,9.935046,,1731225083000,0.07070807,,561838788025350,2.5,0,,,
Fix,GPS,22.5949472500,88.3617339000,-44.4853515625,0.0,9.935046,,1731225084000,0.070708,,561839791407850,2.5,0,,,
Fix,GPS,22.5949472500,88.3617338800,-44.4815673828125,0.0,9.935046,,1731225085000,0.07070766,,561840797733005,2.5,0,,,
Fix,GPS,22.5949472500,88.3617338900,-44.479461669921875,0.0,9.935046,,1731225086000,0.070708,,561841795826234,2.5,0,,,
Fix,GPS,22.5949472500,88.3617338800,-44.47589111328125,0.0,9.935046,,1731225087000,0.07070808,,561842786660766,2.5,0,,,
Fix,GPS,22.5949472500,88.3617338700,-44.47137451171875,0.0,9.935046,,1731225088000,0.07070765,,561843794687588,2.5,0,,,
Fix,GPS,22.5949472500,88.3617338600,-44.46551513671875,0.0,9.935046,,1731225089000,0.07070762,,561844788679463,2.5,0,,,
Fix,GPS,22.5949472500,88.3617338500,-44.46099853515625,0.0,9.935046,,1731225090000,0.07070764,,561845792624306,2.5,0,,,
Fix,GPS,22.5949472500,88.3617338400,-44.45611572265625,0.0,9.935046,,1731225091000,0.07070764,,561846786038838,2.5,0,,,
Fix,GPS,22.5949472600,88.3617338200,-44.452667236328125,0.0,9.935046,,1731225092000,0.07070769,,561847794806127,2.5,0,,,
Fix,GPS,22.5949472500,88.3617338200,-44.449981689453125,0.0,9.935046,,1731225093000,0.07070796,,561848799435763,2.5,0,,,
Fix,GPS,22.5949472500,88.3617338000,-44.445831298828125,0.0,9.935046,,1731225094000,0.070708066,,561849791846492,2.5,0,,,
Fix,GPS,22.5949472500,88.3617337800,-44.4407958984375,0.0,9.935046,,1731225095000,0.07070784,,561850791268367,2.5,0,,,
Fix,GPS,22.5949472500,88.3617337700,-44.436309814453125,0.0,9.935046,,1731225096000,0.070707664,,561851787958991,2.5,0,,,
Fix,GPS,22.5949472600,88.3617337500,-44.430877685546875,0.0,9.935046,,1731225097000,0.070707634,,561852793467532,2.5,0,,,
Fix,GPS,22.5949472600,88.3617337300,-44.426361083984375,0.0,9.935046,,1731225098000,0.070707895,,561853790346594,2.5,0,,,
Fix,GPS,22.5949472600,88.3617337100,-44.420257568359375,0.0,9.935046,,1731225099000,0.070707664,,561854793081386,2.5,0,,,
Fix,GPS,22.5949472600,88.3617337000,-44.415008544921875,0.0,9.935046,,1731225100000,0.070708,,561855786945813,2.5,0,,,
Fix,GPS,22.5949472600,88.3617336800,-44.409759521484375,0.0,9.935046,,1731225101000,0.07070766,,561856798437426,2.5,0,,,
Fix,GPS,22.5949472700,88.3617336700,-44.407318115234375,0.0,9.935046,,1731225102000,0.07070797,,561857786238312,2.5,0,,,
Fix,GPS,22.5949472600,88.3617336700,-44.40557861328125,0.0,9.935046,,1731225103000,0.07070862,,561858785915707,2.5,0,,,
Fix,GPS,22.5949472600,88.3617336700,-44.40362548828125,0.0,9.935046,,1731225104000,0.070708,,561859797443780,2.5,0,,,
Fix,GPS,22.5949472500,88.3617336600,-44.397796630859375,0.0,9.935046,,1731225105000,0.07070789,,561860797828258,2.5,0,,,
Fix,GPS,22.5949472500,88.3617336400,-44.39111328125,0.0,9.935046,,1731225106000,0.07070782,,561861797446279,2.5,0,,,
Fix,GPS,22.5949472500,88.3617336100,-44.387115478515625,0.0,9.935046,,1731225107000,0.07070789,,561862792583258,2.5,0,,,
Fix,GPS,22.5949472500,88.3617335900,-44.381866455078125,0.0,9.935046,,1731225108000,0.07070775,,561863793551383,2.5,0,,,
Fix,GPS,22.5949472500,88.3617335900,-44.37921142578125,0.0,9.935046,,1731225109000,0.07070796,,561864793893621,2.5,0,,,
Fix,GPS,22.5949472500,88.3617335700,-44.37420654296875,0.0,9.935046,,1731225110000,0.07070815,,561865795916538,2.5,0,,,
Fix,GPS,22.5949472400,88.3617335700,-44.371734619140625,0.0,9.935046,,1731225111000,0.07070853,,561866798020912,2.5,0,,,
Fix,GPS,22.5949472300,88.3617335600,-44.36651611328125,0.0,9.935046,,1731225112000,0.07070798,,561867796004141,2.5,0,,,
Fix,GPS,22.5949472300,88.3617335400,-44.36102294921875,0.0,9.935046,,1731225113000,0.07070772,,561868791717265,2.5,0,,,
Fix,GPS,22.5949472300,88.3617335100,-44.355987548828125,0.0,9.935046,,1731225114000,0.07070802,,561869786586016,2.5,0,,,
Fix,GPS,22.5949472300,88.3617334900,-44.34991455078125,0.0,9.935046,,1731225115000,0.070707984,,561870788961432,2.5,0,,,
Fix,GPS,22.5949472400,88.3617334700,-44.34332275390625,0.0,9.935046,,1731225116000,0.070707664,,561871792900389,2.5,0,,,
Fix,GPS,22.5949472400,88.3617334500,-44.33831787109375,0.0,9.935046,,1731225117000,0.07070772,,561872787936118,2.5,0,,,
Fix,GPS,22.5949472400,88.3617334400,-44.33648681640625,0.0,9.935046,,1731225118000,0.07070797,,561873797832420,2.5,0,,,
Fix,GPS,22.5949472400,88.3617334400,-44.3341064453125,0.0,9.935046,,1731225119000,0.070708,,561874791533200,2.5,0,,,
Fix,GPS,22.5949472400,88.3617334400,-44.33258056640625,0.0,9.935046,,1731225120000,0.07070801,,561875796836950,2.5,0,,,
Fix,GPS,22.5949472400,88.3617334400,-44.330047607421875,0.0,9.935046,,1731225121000,0.070708,,561876794121117,2.5,0,,,
Fix,GPS,22.5949472400,88.3617334200,-44.32440185546875,0.0,9.935046,,1731225122000,0.07070762,,561877788745283,2.5,0,,,
Fix,GPS,22.5949472400,88.3617334200,-44.322265625,0.0,9.935046,,1731225123000,0.07070804,,561878792907365,2.5,0,,,
Fix,GPS,22.5949472400,88.3617334200,-44.320220947265625,0.0,9.935046,,1731225124000,0.07070801,,561879796054970,2.5,0,,,
Fix,GPS,22.5949472400,88.3617334200,-44.318145751953125,0.0,9.935046,,1731225125000,0.07070801,,561880788247833,2.5,0,,,
Fix,GPS,22.5949472400,88.3617334200,-44.3157958984375,0.0,9.935046,,1731225126000,0.07070801,,561881792590699,2.5,0,,,
Fix,GPS,22.5949472500,88.3617334100,-44.31036376953125,0.0,9.935046,,1731225127000,0.070707634,,561882788406167,2.5,0,,,
Fix,GPS,22.5949472600,88.3617333900,-44.3052978515625,0.0,9.935046,,1731225128000,0.07070761,,561883793589291,2.5,0,,,
Fix,GPS,22.5949472600,88.3617333900,-44.302337646484375,0.0,9.935046,,1731225129000,0.07070829,,561884798982676,2.5,0,,,
Fix,GPS,22.5949472600,88.3617333700,-44.297149658203125,0.0,9.935046,,1731225130000,0.070708096,,561885798723144,2.5,0,,,
Fix,GPS,22.5949472600,88.3617333800,-44.29351806640625,0.0,9.935046,,1731225131000,0.07070798,,561886794217311,2.5,0,,,
Fix,GPS,22.5949472600,88.3617333800,-44.2901611328125,0.0,9.935046,,1731225132000,0.07070801,,561887786714446,2.5,0,,,
Fix,GPS,22.5949472600,88.3617333800,-44.286834716796875,0.0,9.935046,,1731225133000,0.070708,,561888793726581,2.5,0,,,
Fix,GPS,22.5949472600,88.3617333700,-44.28094482421875,0.0,9.935046,,1731225134000,0.070707634,,561889787452258,2.5,0,,,
Fix,GPS,22.5949472700,88.3617333700,-44.2783203125,0.0,9.935046,,1731225135000,0.07070796,,561890799320435,2.5,0,,,
Fix,GPS,22.5949472700,88.3617333600,-44.271759033203125,0.0,9.935046,,1731225136000,0.07070763,,561891798218611,2.5,0,,,
Fix,GPS,22.5949472800,88.3617333300,-44.26678466796875,0.0,9.935046,,1731225137000,0.07070764,,561892799369548,2.5,0,,,
Fix,GPS,22.5949472800,88.3617333200,-44.261627197265625,0.0,9.935046,,1731225138000,0.070707634,,561893793771162,2.5,0,,,
Fix,GPS,22.5949472900,88.3617333200,-44.258270263671875,0.0,9.935046,,1731225139000,0.07070797,,561894787828245,2.5,0,,,
Fix,GPS,22.5949472900,88.3617333200,-44.255645751953125,0.0,9.935046,,1731225140000,0.07070827,,561895798536786,2.5,0,,,
Fix,GPS,22.5949472900,88.3617333200,-44.253692626953125,0.0,9.935046,,1731225141000,0.070708,,561896790080276,2.5,0,,,
Fix,GPS,22.5949472900,88.3617333200,-44.250396728515625,0.0,9.935046,,1731225142000,0.070708,,561897798532150,2.5,0,,,
Fix,GPS,22.5949472900,88.3617333200,-44.2467041015625,0.0,9.935046,,1731225143000,0.07070801,,561898785831108,2.5,0,,,
Fix,GPS,22.5949472900,88.3617333300,-44.244537353515625,0.0,9.935046,,1731225144000,0.07070801,,561899793870951,2.5,0,,,
Fix,GPS,22.5949472900,88.3617333100,-44.239837646484375,0.0,9.935046,,1731225145000,0.07070763,,561900793718295,2.5,0,,,
Fix,GPS,22.5949473000,88.3617333000,-44.235076904296875,0.0,9.935046,,1731225146000,0.07070761,,561901789782513,2.5,0,,,
Fix,GPS,22.5949473000,88.3617332800,-44.230712890625,0.0,9.935046,,1731225147000,0.07070817,,561902788496941,2.5,0,,,
Fix,GPS,22.5949473000,88.3617332800,-44.22760009765625,0.0,9.935046,,1731225148000,0.07070801,,561903799313451,2.5,0,,,
Fix,GPS,22.5949472900,88.3617332700,-44.2254638671875,0.0,9.935046,,1731225149000,0.07070801,,561904791346940,2.5,0,,,
Fix,GPS,22.5949472900,88.3617332700,-44.22265625,0.0,9.935046,,1731225150000,0.070708126,,561905787773397,2.5,0,,,
Fix,GPS,22.5949472800,88.3617332800,-44.220062255859375,0.0,9.935046,,1731225151000,0.07070805,,561906797500689,2.5,0,,,
Fix,GPS,22.5949472800,88.3617332700,-44.218231201171875,0.0,9.935046,,1731225152000,0.070708096,,561907788420844,2.5,0,,,
Fix,GPS,22.5949472800,88.3617332700,-44.215484619140625,0.0,9.935046,,1731225153000,0.07070827,,561908792589230,2.5,0,,,
Fix,GPS,22.5949472800,88.3617332800,-44.212371826171875,0.0,9.935046,,1731225154000,0.070708066,,561909795168970,2.5,0,,,
Fix,GPS,22.5949472700,88.3617332800,-44.210693359375,0.0,9.935046,,1731225155000,0.07070805,,561910795715323,2.5,0,,,
Fix,GPS,22.5949472700,88.3617332700,-44.208648681640625,0.0,9.935046,,1731225156000,0.070708066,,561911794614958,2.5,0,,,
Fix,GPS,22.5949472800,88.3617332700,-44.2066650390625,0.0,9.935046,,1731225157000,0.07070801,,561912791500895,2.5,0,,,
Fix,GPS,22.5949472800,88.3617332700,-44.204193115234375,0.0,9.935046,,1731225158000,0.07070798,,561913788852562,2.5,0,,,
Fix,GPS,22.5949472800,88.3617332700,-44.20166015625,0.0,9.935046,,1731225159000,0.070708096,,561914797444071,2.5,0,,,
Fix,GPS,22.5949472700,88.3617332600,-44.1995849609375,0.0,9.935046,,1731225160000,0.07070812,,561915791560268,2.5,0,,,
Fix,GPS,22.5949472800,88.3617332600,-44.197723388671875,0.0,9.935046,,1731225161000,0.0707081,,561916791088341,2.5,0,,,
Fix,GPS,22.5949472800,88.3617332600,-44.19549560546875,0.0,9.935046,,1731225162000,0.07070812,,561917797525893,2.5,0,,,
Fix,GPS,22.5949472800,88.3617332600,-44.19415283203125,0.0,9.935046,,1731225163000,0.07070811,,561918795418341,2.5,0,,,
Fix,GPS,22.5949472800,88.3617332500,-44.19384765625,0.0,9.935046,,1731225164000,0.07070801,,561919789512454,2.5,0,,,
Fix,GPS,22.5949472900,88.3617332500,-44.1932373046875,0.0,9.935046,,1731225165000,0.07070801,,561920785938496,2.5,0,,,
Fix,GPS,22.5949472900,88.3617332500,-44.19207763671875,0.0,9.935046,,1731225166000,0.07070827,,561921786866100,2.5,0,,,
Fix,GPS,22.5949472900,88.3617332500,-44.190155029296875,0.0,9.935046,,1731225167000,0.07070805,,561922788827453,2.5,0,,,
Fix,GPS,22.5949473000,88.3617332400,-44.1893310546875,0.0,9.935046,,1731225168000,0.07070805,,561923785798339,2.5,0,,,
Fix,GPS,22.5949473000,88.3617332400,-44.187744140625,0.0,9.935046,,1731225169000,0.07070804,,561924792751359,2.5,0,,,
Fix,GPS,22.5949473100,88.3617332400,-44.186309814453125,0.0,9.935046,,1731225170000,0.07070809,,561925798434171,2.5,0,,,
Fix,GPS,22.5949473100,88.3617332300,-44.18402099609375,0.0,9.935046,,1731225171000,0.07070767,,561926798953337,2.5,0,,,
Fix,GPS,22.5949473100,88.3617332200,-44.1832275390625,0.0,9.935046,,1731225172000,0.07070797,,561927793258753,2.5,0,,,
Fix,GPS,22.5949473200,88.3617332200,-44.181549072265625,0.0,9.935046,,1731225173000,0.07070809,,561928786802087,2.5,0,,,
Fix,GPS,22.5949473200,88.3617332200,-44.179718017578125,0.0,9.935046,,1731225174000,0.07070804,,561929793628232,2.5,0,,,
Fix,GPS,22.5949473200,88.3617332100,-44.177978515625,0.0,9.935046,,1731225175000,0.07070765,,561930785622919,2.5,0,,,
Fix,GPS,22.5949473300,88.3617332000,-44.17724609375,0.0,9.935046,,1731225176000,0.070708,,561931794687449,2.5,0,,,
Fix,GPS,22.5949473300,88.3617332000,-44.175689697265625,0.0,9.935046,,1731225177000,0.070708,,561932795380835,2.5,0,,,
Fix,GPS,22.5949473300,88.3617332000,-44.1744384765625,0.0,9.935046,,1731225178000,0.070707984,,561933792604845,2.5,0,,,
Fix,GPS,22.5949473300,88.3617332000,-44.17205810546875,0.0,9.935046,,1731225179000,0.070707984,,561934787967866,2.5,0,,,
Fix,GPS,22.5949473400,88.3617332000,-44.170318603515625,0.0,9.935046,,1731225180000,0.07070804,,561935798309115,2.5,0,,,
Fix,GPS,22.5949473400,88.3617332000,-44.16729736328125,0.0,9.935046,,1731225181000,0.07070765,,561936789740729,2.5,0,,,
Fix,GPS,22.5949473400,88.3617332000,-44.1656494140625,0.0,9.935046,,1731225182000,0.07070825,,561937790010104,2.5,0,,,
Fix,GPS,22.5949473400,88.3617331900,-44.164764404296875,0.0,9.935046,,1731225183000,0.07070836,,561938793982084,2.5,0,,,
Fix,GPS,22.5949473400,88.3617331900,-44.162750244140625,0.0,9.935046,,1731225184000,0.07070804,,561939790892082,2.5,0,,,
Fix,GPS,22.5949473400,88.3617331900,-44.161285400390625,0.0,9.935046,,1731225185000,0.070708,,561940799203124,2.5,0,,,
Fix,GPS,22.5949473400,88.3617331900,-44.159454345703125,0.0,9.935046,,1731225186000,0.07070767,,561941790448539,2.5,0,,,
Fix,GPS,22.5949473400,88.3617331900,-44.157958984375,0.0,9.935046,,1731225187000,0.07070802,,561942794953123,2.5,0,,,
Fix,GPS,22.5949473400,88.3617331800,-44.155181884765625,0.0,9.935046,,1731225188000,0.07070768,,561943796755049,2.5,0,,,
Fix,GPS,22.5949473400,88.3617331700,-44.153594970703125,0.0,9.935046,,1731225189000,0.07070767,,561944793559529,2.5,0,,,
Fix,GPS,22.5949473500,88.3617331600,-44.15118408203125,0.0,9.935046,,1731225190000,0.07070767,,561945796371143,2.5,0,,,
Fix,GPS,22.5949473500,88.3617331500,-44.149169921875,0.0,9.935046,,1731225191000,0.07070768,,561946789975309,2.5,0,,,
Fix,GPS,22.5949473500,88.3617331400,-44.14764404296875,0.0,9.935046,,1731225192000,0.07070767,,561947792254996,2.5,0,,,
