# 
# Header Description:
# 
# Version: v3.1.0.3 Platform: 14 Manufacturer: vivo Model: I2012 GNSS Hardware Model Name: qcom;
# 
# Raw,utcTimeMillis,TimeNanos,LeapSecond,TimeUncertaintyNanos,FullBiasNanos,BiasNanos,BiasUncertaintyNanos,DriftNanosPerSecond,DriftUncertaintyNanosPerSecond,HardwareClockDiscontinuityCount,Svid,TimeOffsetNanos,State,ReceivedSvTimeNanos,ReceivedSvTimeUncertaintyNanos,Cn0DbHz,PseudorangeRateMetersPerSecond,PseudorangeRateUncertaintyMetersPerSecond,AccumulatedDeltaRangeState,AccumulatedDeltaRangeMeters,AccumulatedDeltaRangeUncertaintyMeters,CarrierFrequencyHz,CarrierCycles,CarrierPhase,CarrierPhaseUncertainty,MultipathIndicator,SnrInDb,ConstellationType,AgcDb,BasebandCn0DbHz,FullInterSignalBiasNanos,FullInterSignalBiasUncertaintyNanos,SatelliteInterSignalBiasNanos,SatelliteInterSignalBiasUncertaintyNanos,CodeType,ChipsetElapsedRealtimeNanos,IsFullTracking
# 
# UncalAccel,utcTimeMillis,elapsedRealtimeNanos,UncalAccelXMps2,UncalAccelYMps2,UncalAccelZMps2,BiasXMps2,BiasYMps2,BiasZMps2
# 
# Accel,utcTimeMillis,elapsedRealtimeNanos,AccelXMps2,AccelYMps2,AccelZMps2
# 
# UncalGyro,utcTimeMillis,elapsedRealtimeNanos,UncalGyroXRadPerSec,UncalGyroYRadPerSec,UncalGyroZRadPerSec,DriftXRadPerSec,DriftYRadPerSec,DriftZRadPerSec
# 
# Gyro,utcTimeMillis,elapsedRealtimeNanos,GyroXRadPerSec,GyroYRadPerSec,GyroZRadPerSec
# 
# UncalMag,utcTimeMillis,elapsedRealtimeNanos,UncalMagXMicroT,UncalMagYMicroT,UncalMagZMicroT,BiasXMicroT,BiasYMicroT,BiasZMicroT
# 
# Mag,utcTimeMillis,elapsedRealtimeNanos,MagXMicroT,MagYMicroT,MagZMicroT
# 
# Pressure,utcTimeMillis,elapsedRealtimeNanos,PressureHpa
# 
# OrientationDeg,utcTimeMillis,elapsedRealtimeNanos,yawDeg,rollDeg,pitchDeg
# 
# Fix,Provider,LatitudeDegrees,LongitudeDegrees,AltitudeMeters,SpeedMps,AccuracyMeters,BearingDegrees,UnixTimeMillis,SpeedAccuracyMps,BearingAccuracyDegrees,elapsedRealtimeNanos,VerticalAccuracyMeters,MockLocation,NumberOfUsedSignals,VerticalSpeedAccuracyMps,SolutionType
# 
# Nav,Svid,Type,Status,MessageId,Sub-messageId,Data(Bytes)
# 
# Status,UnixTimeMillis,SignalCount,SignalIndex,ConstellationType,Svid,CarrierFrequencyHz,Cn0DbHz,AzimuthDegrees,ElevationDegrees,UsedInFix,HasAlmanacData,HasEphemerisData,BasebandCn0DbHz
# 
# Agc,utcTimeMillis,TimeNanos,LeapSecond,TimeUncertaintyNanos,FullBiasNanos,BiasNanos,BiasUncertaintyNanos,DriftNanosPerSecond,DriftUncertaintyNanosPerSecond,HardwareClockDiscontinuityCount,AgcDb,CarrierFrequencyHz,ConstellationType
# 
Status,,43,0,1,3,1575420030,16.10,226.0,42.0,1,1,1,12.5
Status,,43,1,1,4,1575420030,22.80,340.0,58.0,1,1,1,19.199999
Status,,43,2,1,7,1575420030,16.70,288.0,14.0,1,1,0,13.1
Status,,43,3,1,8,1575420030,18.90,165.0,31.0,1,1,0,15.299999
Status,,43,4,1,9,1575420030,20.10,323.0,29.0,1,1,1,16.5
Status,,43,5,1,16,1575420030,24.70,28.0,56.0,1,1,0,21.1
Status,,43,6,1,26,1575420030,16.40,37.0,25.0,1,1,1,12.799999
Status,,43,7,1,27,1575420030,19.30,123.0,42.0,1,1,1,15.699999
Status,,43,8,1,31,1575420030,14.80,61.0,21.0,1,1,1,11.200001
Status,,43,9,1,28,1575420030,0.00,0.0,0.0,0,1,0,0.0
Status,,43,10,3,9,1600875010,16.20,4.0,41.0,1,1,1,12.200001
Status,,43,11,3,7,1604812540,20.40,326.0,76.0,1,1,0,16.4
Status,,43,12,3,8,1605374980,18.20,331.0,24.0,1,1,1,14.200001
Status,,43,13,3,6,1599750020,0.00,157.0,48.0,0,1,0,0.0
Status,,43,14,3,16,1601437440,0.00,0.0,0.0,0,1,0,0.0
Status,,43,15,3,11,1602000000,0.00,246.0,13.0,0,1,0,0.0
Status,,43,16,3,19,1603687550,0.00,0.0,0.0,0,1,0,0.0
Status,,43,17,5,25,1561097980,22.70,286.0,45.0,1,1,1,18.400002
Status,,43,18,5,24,1561097980,20.20,15.0,48.0,1,1,1,15.900001
Status,,43,19,5,16,1561097980,16.40,42.0,44.0,0,1,0,12.099999
Status,,43,20,5,14,1561097980,17.80,189.0,65.0,1,1,0,13.499999
Status,,43,21,5,10,1561097980,16.50,160.0,53.0,1,1,0,12.2
Status,,43,22,5,9,1561097980,20.60,12.0,52.0,1,1,0,16.3
Status,,43,23,5,8,1561097980,18.70,180.0,11.0,1,1,0,14.400001
Status,,43,24,5,7,1561097980,17.60,140.0,57.0,1,1,0,13.3
Status,,43,25,5,6,1561097980,19.70,33.0,48.0,1,1,0,15.400001
Status,,43,26,5,1,1561097980,0.00,105.0,21.0,0,1,0,0.0
Status,,43,27,5,2,1561097980,0.00,191.0,62.0,0,1,0,0.0
Status,,43,28,5,3,1561097980,0.00,133.0,52.0,0,1,0,0.0
Status,,43,29,5,4,1561097980,0.00,98.0,7.0,0,1,0,0.0
Status,,43,30,5,5,1561097980,0.00,236.0,47.0,0,1,0,0.0
Status,,43,31,5,11,1561097980,0.00,172.0,4.0,0,1,0,0.0
Status,,43,32,5,12,1561097980,0.00,123.0,14.0,0,1,0,0.0
Status,,43,33,5,13,1561097980,0.00,188.0,18.0,0,1,0,0.0
Status,,43,34,5,23,1561097980,0.00,253.0,4.0,0,1,0,0.0
Status,,43,35,5,26,1561097980,0.00,52.0,9.0,0,1,0,0.0
Status,,43,36,4,194,1575420030,21.40,59.0,38.0,1,1,1,17.8
Status,,43,37,4,196,1575420030,19.50,137.0,27.0,1,1,0,15.9
Status,,43,38,6,7,1575420030,16.30,122.0,28.0,1,1,0,11.999999
Status,,43,39,6,19,1575420030,17.60,329.0,40.0,1,1,0,13.3
Status,,43,40,6,21,1575420030,18.40,253.0,75.0,1,1,0,14.099999
Status,,43,41,6,27,1575420030,19.40,32.0,44.0,1,1,0,15.099999
Status,,43,42,6,29,1575420030,27.40,52.0,73.0,0,1,0,23.099998
Raw,1732346709434,430171239000000,18,,-1415951756195574616,0.6406936645507812,43.63933112472296,-20.047961580829025,13.067045838154131,77,3,0.0,16399,545127362127835,80,16.1,406.1057434082031,1.9194999933242798,16,0.0,0.0,1575420030,,,,0,,1,0.07,12.500000000000002,0.0,0.0,,,C,437294355638139,
Raw,1732346709434,430171239000000,18,,-1415951756195574616,0.6406936645507812,43.63933112472296,-20.047961580829025,13.067045838154131,77,4,0.0,16399,545127365383977,35,22.8,-375.8870849609375,0.7339999675750732,16,0.0,0.0,1575420030,,,,0,,1,0.07,19.2,0.0,0.0,,,C,437294355638139,
Raw,1732346709434,430171239000000,18,,-1415951756195574616,0.6406936645507812,43.63933112472296,-20.047961580829025,13.067045838154131,77,8,0.0,16399,545127360142860,61,18.9,-603.173828125,0.9965000152587891,16,0.0,0.0,1575420030,,,,0,,1,0.07,15.299999999999999,0.0,0.0,,,C,437294355638139,
Raw,1732346709434,430171239000000,18,,-1415951756195574616,0.6406936645507812,43.63933112472296,-20.047961580829025,13.067045838154131,77,26,0.0,16399,545127357670079,80,16.4,603.7352294921875,1.8519999980926514,16,0.0,0.0,1575420030,,,,0,,1,0.07,12.799999999999999,0.0,0.0,,,C,437294355638139,
Raw,1732346709434,430171239000000,18,,-1415951756195574616,0.6406936645507812,43.63933112472296,-20.047961580829025,13.067045838154131,77,194,0.0,16399,545127298627690,40,21.4,99.96126556396484,0.8134999871253967,16,0.0,0.0,1575420030,,,,0,,4,0.07,17.799999999999997,0.0,0.0,,,C,437294355638139,
Raw,1732346709434,430171239000000,18,,-1415951756195574616,0.6406936645507812,43.63933112472296,-20.047961580829025,13.067045838154131,77,7,0.0,49359,37509370438222,46,20.4,-185.24856567382812,0.8614999651908875,16,0.0,0.0,1604812540,,,,0,,3,-0.46,16.4,3799.71826171875,16.444631576538086,,,C,437294355638139,
Raw,1732346709434,430171239000000,18,,-1415951756195574616,0.6406936645507812,43.63933112472296,-20.047961580829025,13.067045838154131,77,25,0.0,16399,545113358407325,35,22.7,-117.71060943603516,0.6934999823570251,16,0.0,0.0,1561097980,,,,0,,5,0.03,18.4,-1558.5579833984375,11.919339179992676,,,I,437294355638139,
Raw,1732346709434,430171239000000,18,,-1415951756195574616,0.6406936645507812,43.63933112472296,-20.047961580829025,13.067045838154131,77,16,0.0,16399,545113309337020,80,16.4,-63.248207092285156,1.9300000667572021,16,0.0,0.0,1561097980,,,,0,,5,0.03,12.099999999999998,-1558.5579833984375,11.919339179992676,,,I,437294355638139,
Raw,1732346709434,430171239000000,18,,-1415951756195574616,0.6406936645507812,43.63933112472296,-20.047961580829025,13.067045838154131,77,14,0.0,16399,545113360757935,70,17.8,280.24322509765625,0.9965000152587891,16,0.0,0.0,1561097980,,,,0,,5,0.03,13.5,-1558.5579833984375,11.919339179992676,,,I,437294355638139,
Raw,1732346709434,430171239000000,18,,-1415951756195574616,0.6406936645507812,43.63933112472296,-20.047961580829025,13.067045838154131,77,10,0.0,16399,545113310456886,80,16.5,-203.50425720214844,1.8415000438690186,16,0.0,0.0,1561097980,,,,0,,5,0.03,12.2,-1558.5579833984375,11.919339179992676,,,I,437294355638139,
Raw,1732346709434,430171239000000,18,,-1415951756195574616,0.6406936645507812,43.63933112472296,-20.047961580829025,13.067045838154131,77,8,0.0,16399,545113299331131,61,18.7,329.65496826171875,1.6050000190734863,16,0.0,0.0,1561097980,,,,0,,5,0.03,14.399999999999999,-1558.5579833984375,11.919339179992676,,,I,437294355638139,
Raw,1732346709434,430171239000000,18,,-1415951756195574616,0.6406936645507812,43.63933112472296,-20.047961580829025,13.067045838154131,77,7,0.0,16399,545113311810203,70,17.6,-195.75546264648438,1.753000020980835,16,0.0,0.0,1561097980,,,,0,,5,0.03,13.3,-1558.5579833984375,11.919339179992676,,,I,437294355638139,
Raw,1732346709434,430171239000000,18,,-1415951756195574616,0.6406936645507812,43.63933112472296,-20.047961580829025,13.067045838154131,77,19,0.0,23567,545127352143209,70,17.6,-401.41497802734375,1.7604999542236328,16,0.0,0.0,1575420030,,,,0,,6,0.09,13.3,-1454.4854736328125,13.944958686828613,,,C,437294355638139,
Raw,1732346709434,430171239000000,18,,-1415951756195574616,0.6406936645507812,43.63933112472296,-20.047961580829025,13.067045838154131,77,21,0.0,23567,545127355980860,61,18.4,-65.63228607177734,1.0190000534057617,16,0.0,0.0,1575420030,,,,0,,6,0.09,14.099999999999998,-1454.4854736328125,13.944958686828613,,,C,437294355638139,
Fix,GPS,22.4942117100,88.3688177300,-44.855072021484375,0.0,3.7900925,,1732346710000,0.41725293,,437309378034076,3.779921,0,,,
Status,1732346710000,43,0,1,3,1575420030,19.70,226.0,42.0,1,1,1,16.1
Status,1732346710000,43,1,1,4,1575420030,24.80,340.0,58.0,1,1,1,21.199999
Status,1732346710000,43,2,1,7,1575420030,14.50,288.0,14.0,1,1,0,10.9
Status,1732346710000,43,3,1,8,1575420030,21.60,165.0,31.0,1,1,0,18.0
Status,1732346710000,43,4,1,9,1575420030,20.10,323.0,29.0,1,1,1,16.5
Status,1732346710000,43,5,1,16,1575420030,24.70,28.0,56.0,1,1,0,21.1
Status,1732346710000,43,6,1,26,1575420030,17.40,37.0,25.0,1,1,1,13.799999
Status,1732346710000,43,7,1,27,1575420030,18.20,123.0,42.0,1,1,1,14.6
Status,1732346710000,43,8,1,31,1575420030,15.10,61.0,21.0,1,1,1,11.5
Status,1732346710000,43,9,1,28,1575420030,0.00,0.0,0.0,0,1,0,0.0
Status,1732346710000,43,10,3,9,1600875010,16.20,4.0,41.0,1,1,1,12.200001
Status,1732346710000,43,11,3,7,1604812540,23.20,326.0,76.0,1,1,0,19.2
Status,1732346710000,43,12,3,8,1605374980,18.20,331.0,24.0,1,1,1,14.200001
Status,1732346710000,43,13,3,6,1599750020,0.00,157.0,48.0,0,1,0,0.0
Status,1732346710000,43,14,3,16,1601437440,0.00,0.0,0.0,0,1,0,0.0
Status,1732346710000,43,15,3,11,1602000000,0.00,246.0,13.0,0,1,0,0.0
Status,1732346710000,43,16,3,19,1603687550,0.00,0.0,0.0,0,1,0,0.0
Status,1732346710000,43,17,5,25,1561097980,23.00,286.0,45.0,1,1,1,18.7
Status,1732346710000,43,18,5,24,1561097980,20.20,15.0,48.0,1,1,1,15.900001
Status,1732346710000,43,19,5,16,1561097980,16.40,42.0,44.0,0,1,0,12.099999
Status,1732346710000,43,20,5,14,1561097980,18.30,189.0,65.0,1,1,0,13.999999
Status,1732346710000,43,21,5,10,1561097980,16.50,160.0,53.0,1,1,0,12.2
Status,1732346710000,43,22,5,9,1561097980,20.60,12.0,52.0,1,1,0,16.3
Status,1732346710000,43,23,5,8,1561097980,18.70,180.0,11.0,1,1,0,14.400001
Status,1732346710000,43,24,5,7,1561097980,17.60,140.0,57.0,1,1,0,13.3
Status,1732346710000,43,25,5,6,1561097980,19.70,33.0,48.0,1,1,0,15.400001
Status,1732346710000,43,26,5,3,1561097980,20.30,133.0,52.0,0,1,0,15.999999
Status,1732346710000,43,27,5,1,1561097980,0.00,105.0,21.0,0,1,0,0.0
Status,1732346710000,43,28,5,2,1561097980,0.00,191.0,62.0,0,1,0,0.0
Status,1732346710000,43,29,5,4,1561097980,0.00,98.0,7.0,0,1,0,0.0
Status,1732346710000,43,30,5,5,1561097980,0.00,236.0,47.0,0,1,0,0.0
Status,1732346710000,43,31,5,11,1561097980,0.00,172.0,4.0,0,1,0,0.0
Status,1732346710000,43,32,5,12,1561097980,0.00,123.0,14.0,0,1,0,0.0
Status,1732346710000,43,33,5,13,1561097980,0.00,188.0,18.0,0,1,0,0.0
Status,1732346710000,43,34,5,23,1561097980,0.00,253.0,4.0,0,1,0,0.0
Status,1732346710000,43,35,5,26,1561097980,0.00,52.0,9.0,0,1,0,0.0
Status,1732346710000,43,36,4,194,1575420030,22.20,59.0,38.0,1,1,1,18.6
Status,1732346710000,43,37,4,196,1575420030,16.50,137.0,27.0,1,1,0,12.9
Status,1732346710000,43,38,6,7,1575420030,16.30,122.0,28.0,1,1,0,11.999999
Status,1732346710000,43,39,6,19,1575420030,20.50,329.0,40.0,1,1,0,16.2
Status,1732346710000,43,40,6,21,1575420030,18.40,253.0,75.0,1,1,0,14.099999
Status,1732346710000,43,41,6,27,1575420030,19.40,32.0,44.0,1,1,0,15.099999
Status,1732346710000,43,42,6,29,1575420030,27.40,52.0,73.0,0,1,0,23.099998
Raw,1732346710434,430172239000000,18,,-1415951756195574636,0.6135330200195312,43.263426050543785,-20.746515371121223,13.78466405126854,77,3,0.0,16399,545128362126409,53,19.7,405.50628662109375,0.9194999933242798,16,0.0,0.0,1575420030,,,,0,,1,0.03,16.099999999999998,0.0,0.0,,,C,437295359142930,
Raw,1732346710434,430172239000000,18,,-1415951756195574636,0.6135330200195312,43.263426050543785,-20.746515371121223,13.78466405126854,77,4,0.0,16399,545128365385166,27,24.8,-375.2591247558594,0.6240000128746033,16,0.0,0.0,1575420030,,,,0,,1,0.03,21.2,0.0,0.0,,,C,437295359142930,
Raw,1732346710434,430172239000000,18,,-1415951756195574636,0.6135330200195312,43.263426050543785,-20.746515371121223,13.78466405126854,77,7,0.0,16399,545128352195199,106,14.5,-276.89630126953125,2.7845001220703125,16,0.0,0.0,1575420030,,,,0,,1,0.03,10.9,0.0,0.0,,,C,437295359142930,
Raw,1732346710434,430172239000000,18,,-1415951756195574636,0.6135330200195312,43.263426050543785,-20.746515371121223,13.78466405126854,77,8,0.0,16399,545128360144956,40,21.6,-603.1358032226562,0.7864999771118164,16,0.0,0.0,1575420030,,,,0,,1,0.03,18.0,0.0,0.0,,,C,437295359142930,
Raw,1732346710434,430172239000000,18,,-1415951756195574636,0.6135330200195312,43.263426050543785,-20.746515371121223,13.78466405126854,77,26,0.0,16399,545128357668058,70,17.4,604.0111694335938,1.1019999980926514,16,0.0,0.0,1575420030,,,,0,,1,0.03,13.799999999999999,0.0,0.0,,,C,437295359142930,
Raw,1732346710434,430172239000000,18,,-1415951756195574636,0.6135330200195312,43.263426050543785,-20.746515371121223,13.78466405126854,77,27,0.0,16399,545128362683360,61,18.2,-362.6426696777344,1.8294999599456787,16,0.0,0.0,1575420030,,,,0,,1,0.03,14.6,0.0,0.0,,,C,437295359142930,
Raw,1732346710434,430172239000000,18,,-1415951756195574636,0.6135330200195312,43.263426050543785,-20.746515371121223,13.78466405126854,77,31,0.0,16399,545128355804070,92,15.1,336.5628967285156,2.7890000343322754,16,0.0,0.0,1575420030,,,,0,,1,0.03,11.5,0.0,0.0,,,C,437295359142930,
Raw,1732346710434,430172239000000,18,,-1415951756195574636,0.6135330200195312,43.263426050543785,-20.746515371121223,13.78466405126854,77,194,0.0,16399,545128298627353,35,22.2,99.39990234375,0.8134999871253967,16,0.0,0.0,1575420030,,,,0,,4,0.03,18.599999999999998,0.0,0.0,,,C,437295359142930,
Raw,1732346710434,430172239000000,18,,-1415951756195574636,0.6135330200195312,43.263426050543785,-20.746515371121223,13.78466405126854,77,196,0.0,16399,545128311521049,80,16.5,-22.159698486328125,1.9329999685287476,16,0.0,0.0,1575420030,,,,0,,4,0.03,12.9,0.0,0.0,,,C,437295359142930,
Raw,1732346710434,430172239000000,18,,-1415951756195574636,0.6135330200195312,43.263426050543785,-20.746515371121223,13.78466405126854,77,7,0.0,49359,37510370438741,31,23.2,-186.31336975097656,0.6814999580383301,16,0.0,0.0,1604812540,,,,0,,3,-0.5,19.2,3799.699951171875,16.462182998657227,,,C,437295359142930,
Raw,1732346710434,430172239000000,18,,-1415951756195574636,0.6135330200195312,43.263426050543785,-20.746515371121223,13.78466405126854,77,25,0.0,16399,545114358407737,31,23.0,-117.2689208984375,0.6934999823570251,16,0.0,0.0,1561097980,,,,0,,5,-0.04,18.7,-1558.558837890625,11.947248458862305,,,I,437295359142930,
Raw,1732346710434,430172239000000,18,,-1415951756195574636,0.6135330200195312,43.263426050543785,-20.746515371121223,13.78466405126854,77,14,0.0,16399,545114360757050,61,18.3,278.8989562988281,0.9965000152587891,16,0.0,0.0,1561097980,,,,0,,5,-0.04,14.0,-1558.558837890625,11.947248458862305,,,I,437295359142930,
Raw,1732346710434,430172239000000,18,,-1415951756195574636,0.6135330200195312,43.263426050543785,-20.746515371121223,13.78466405126854,77,3,0.0,16399,545114312243163,46,20.3,-10.677395820617676,7.534799575805664,16,0.0,0.0,1561097980,,,,0,,5,-0.04,16.0,-1558.558837890625,11.947248458862305,,,I,437295359142930,
Raw,1732346710434,430172239000000,18,,-1415951756195574636,0.6135330200195312,43.263426050543785,-20.746515371121223,13.78466405126854,77,19,0.0,23567,545128352144538,46,20.5,-401.3864440917969,0.8704999685287476,16,0.0,0.0,1575420030,,,,0,,6,0.04,16.2,-1454.4923095703125,13.968118667602539,,,C,437295359142930,
Fix,GPS,22.4942094100,88.3688166100,-45.239837646484375,0.0,3.7900925,,1732346711000,0.29732138,,437310380086732,3.774762,0,,,
Status,1732346711000,43,0,1,3,1575420030,22.90,226.0,42.0,1,1,1,19.3
Status,1732346711000,43,1,1,4,1575420030,23.40,340.0,58.0,1,1,1,19.8
Status,1732346711000,43,2,1,7,1575420030,18.80,288.0,14.0,1,1,0,15.199999
Status,1732346711000,43,3,1,8,1575420030,17.60,165.0,31.0,1,1,0,14.0
Status,1732346711000,43,4,1,9,1575420030,20.10,323.0,29.0,1,1,1,16.5
Status,1732346711000,43,5,1,16,1575420030,24.70,28.0,56.0,1,1,0,21.1
Status,1732346711000,43,6,1,26,1575420030,17.40,37.0,25.0,1,1,1,13.799999
Status,1732346711000,43,7,1,27,1575420030,18.20,123.0,42.0,1,1,1,14.6
Status,1732346711000,43,8,1,31,1575420030,15.10,61.0,21.0,1,1,1,11.5
Status,1732346711000,43,9,1,28,1575420030,0.00,0.0,0.0,0,1,0,0.0
Status,1732346711000,43,10,3,9,1600875010,16.20,4.0,41.0,1,1,1,12.200001
Status,1732346711000,43,11,3,7,1604812540,23.50,326.0,76.0,1,1,0,19.5
Status,1732346711000,43,12,3,8,1605374980,14.20,331.0,24.0,1,1,1,10.2
Status,1732346711000,43,13,3,6,1599750020,0.00,157.0,48.0,0,1,0,0.0
Status,1732346711000,43,14,3,16,1601437440,0.00,0.0,0.0,0,1,0,0.0
Status,1732346711000,43,15,3,11,1602000000,0.00,246.0,13.0,0,1,0,0.0
Status,1732346711000,43,16,3,19,1603687550,0.00,0.0,0.0,0,1,0,0.0
Status,1732346711000,43,17,5,25,1561097980,27.00,286.0,45.0,1,1,1,22.7
Status,1732346711000,43,18,5,24,1561097980,14.30,15.0,48.0,1,1,1,10.0
Status,1732346711000,43,19,5,16,1561097980,18.20,42.0,44.0,0,1,0,13.900001
Status,1732346711000,43,20,5,14,1561097980,18.30,189.0,65.0,1,1,0,13.999999
Status,1732346711000,43,21,5,10,1561097980,16.10,160.0,53.0,1,1,0,11.8
Status,1732346711000,43,22,5,9,1561097980,20.60,12.0,52.0,1,1,0,16.3
Status,1732346711000,43,23,5,8,1561097980,17.00,180.0,11.0,1,1,0,12.7
Status,1732346711000,43,24,5,7,1561097980,17.60,140.0,57.0,1,1,0,13.3
Status,1732346711000,43,25,5,6,1561097980,19.70,33.0,48.0,1,1,0,15.400001
Status,1732346711000,43,26,5,3,1561097980,20.30,133.0,52.0,1,1,0,15.999999
Status,1732346711000,43,27,5,1,1561097980,0.00,105.0,21.0,0,1,0,0.0
Status,1732346711000,43,28,5,2,1561097980,0.00,191.0,62.0,0,1,0,0.0
Status,1732346711000,43,29,5,4,1561097980,0.00,98.0,7.0,0,1,0,0.0
Status,1732346711000,43,30,5,5,1561097980,0.00,236.0,47.0,0,1,0,0.0
Status,1732346711000,43,31,5,11,1561097980,0.00,172.0,4.0,0,1,0,0.0
Status,1732346711000,43,32,5,12,1561097980,0.00,123.0,14.0,0,1,0,0.0
Status,1732346711000,43,33,5,13,1561097980,0.00,188.0,18.0,0,1,0,0.0
Status,1732346711000,43,34,5,23,1561097980,0.00,253.0,4.0,0,1,0,0.0
Status,1732346711000,43,35,5,26,1561097980,0.00,52.0,9.0,0,1,0,0.0
Status,1732346711000,43,36,4,194,1575420030,23.20,59.0,38.0,1,1,1,19.6
Status,1732346711000,43,37,4,196,1575420030,16.50,137.0,27.0,1,1,0,12.9
Status,1732346711000,43,38,6,7,1575420030,16.30,122.0,28.0,1,1,0,11.999999
Status,1732346711000,43,39,6,19,1575420030,18.60,329.0,40.0,1,1,0,14.3
Status,1732346711000,43,40,6,21,1575420030,20.60,253.0,75.0,1,1,0,16.3
Status,1732346711000,43,41,6,27,1575420030,14.20,32.0,44.0,1,1,0,9.9
Status,1732346711000,43,42,6,29,1575420030,15.30,52.0,73.0,0,1,0,11.0
Raw,1732346711434,430173239000000,18,,-1415951756195574657,0.39427947998046875,42.553951061563566,-21.11519070617552,13.727011111669277,77,3,0.0,16399,545129362125118,35,22.9,404.33599853515625,0.7294999957084656,16,0.0,0.0,1575420030,,,,0,,1,0.03,19.299999999999997,0.0,0.0,,,C,437296353339857,
Raw,1732346711434,430173239000000,18,,-1415951756195574657,0.39427947998046875,42.553951061563566,-21.11519070617552,13.727011111669277,77,4,0.0,16399,545129365386449,31,23.4,-376.5436096191406,0.6739999651908875,16,0.0,0.0,1575420030,,,,0,,1,0.03,19.799999999999997,0.0,0.0,,,C,437296353339857,
Raw,1732346711434,430173239000000,18,,-1415951756195574657,0.39427947998046875,42.553951061563566,-21.11519070617552,13.727011111669277,77,7,0.0,16399,545129352196217,61,18.8,-277.8382873535156,1.0145000219345093,16,0.0,0.0,1575420030,,,,0,,1,0.03,15.200000000000001,0.0,0.0,,,C,437296353339857,
Raw,1732346711434,430173239000000,18,,-1415951756195574657,0.39427947998046875,42.553951061563566,-21.11519070617552,13.727011111669277,77,8,0.0,16399,545129360146850,70,17.6,-604.0111694335938,1.0764999389648438,16,0.0,0.0,1575420030,,,,0,,1,0.03,14.000000000000002,0.0,0.0,,,C,437296353339857,
Raw,1732346711434,430173239000000,18,,-1415951756195574657,0.39427947998046875,42.553951061563566,-21.11519070617552,13.727011111669277,77,194,0.0,16399,545129298627009,31,23.2,99.14300537109375,0.7534999847412109,16,0.0,0.0,1575420030,,,,0,,4,0.03,19.599999999999998,0.0,0.0,,,C,437296353339857,
Raw,1732346711434,430173239000000,18,,-1415951756195574657,0.39427947998046875,42.553951061563566,-21.11519070617552,13.727011111669277,77,7,0.0,49359,37511370439396,31,23.5,-187.1913604736328,0.6814999580383301,16,0.0,0.0,1604812540,,,,0,,3,-0.48,19.5,3799.68994140625,16.47954750061035,,,C,437296353339857,
Raw,1732346711434,430173239000000,18,,-1415951756195574657,0.39427947998046875,42.553951061563566,-21.11519070617552,13.727011111669277,77,8,0.0,49359,37511360436686,106,14.2,-724.8707885742188,3.5164999961853027,16,0.0,0.0,1605374980,,,,0,,3,-0.48,10.2,3799.68994140625,16.47954750061035,,,C,437296353339857,
Raw,1732346711434,430173239000000,18,,-1415951756195574657,0.39427947998046875,42.553951061563566,-21.11519070617552,13.727011111669277,77,25,0.0,16399,545115358408121,19,27.0,-118.27297973632812,0.06920000165700912,16,0.0,1920.3757538518662,1561097980,,,,0,,5,-0.02,22.7,-1558.5645751953125,11.975126266479492,,,I,437296353339857,
Raw,1732346711434,430173239000000,18,,-1415951756195574657,0.39427947998046875,42.553951061563566,-21.11519070617552,13.727011111669277,77,24,0.0,16399,545115359311956,106,14.3,263.61260986328125,3.5450000762939453,16,0.0,0.0,1561097980,,,,0,,5,-0.02,10.0,-1558.5645751953125,11.975126266479492,,,I,437296353339857,
Raw,1732346711434,430173239000000,18,,-1415951756195574657,0.39427947998046875,42.553951061563566,-21.11519070617552,13.727011111669277,77,16,0.0,16399,545115309337396,61,18.2,-63.286617279052734,1.7600001096725464,16,0.0,0.0,1561097980,,,,0,,5,-0.02,13.899999999999999,-1558.5645751953125,11.975126266479492,,,I,437296353339857,
Raw,1732346711434,430173239000000,18,,-1415951756195574657,0.39427947998046875,42.553951061563566,-21.11519070617552,13.727011111669277,77,10,0.0,16399,545115310458321,80,16.1,-203.87872314453125,1.93149995803833,16,0.0,0.0,1561097980,,,,0,,5,-0.02,11.8,-1558.5645751953125,11.975126266479492,,,I,437296353339857,
Raw,1732346711434,430173239000000,18,,-1415951756195574657,0.39427947998046875,42.553951061563566,-21.11519070617552,13.727011111669277,77,8,0.0,16399,545115299328983,70,17.0,327.8210144042969,1.8550000190734863,16,0.0,0.0,1561097980,,,,0,,5,-0.02,12.7,-1558.5645751953125,11.975126266479492,,,I,437296353339857,
Raw,1732346711434,430173239000000,18,,-1415951756195574657,0.39427947998046875,42.553951061563566,-21.11519070617552,13.727011111669277,77,19,0.0,23567,545129352145884,61,18.6,-401.662353515625,1.0205000638961792,16,0.0,0.0,1575420030,,,,0,,6,0.06,14.3,-1454.502685546875,13.991277694702148,,,C,437296353339857,
Raw,1732346711434,430173239000000,18,,-1415951756195574657,0.39427947998046875,42.553951061563566,-21.11519070617552,13.727011111669277,77,21,0.0,23567,545129355981322,46,20.6,-65.7845230102539,1.61899995803833,16,0.0,0.0,1575420030,,,,0,,6,0.06,16.3,-1454.502685546875,13.991277694702148,,,C,437296353339857,
Raw,1732346711434,430173239000000,18,,-1415951756195574657,0.39427947998046875,42.553951061563566,-21.11519070617552,13.727011111669277,77,27,0.0,23567,545129351348975,106,14.2,382.4141540527344,3.5450000762939453,16,0.0,0.0,1575420030,,,,0,,6,0.06,9.899999999999999,-1454.502685546875,13.991277694702148,,,C,437296353339857,
Raw,1732346711434,430173239000000,18,,-1415951756195574657,0.39427947998046875,42.553951061563566,-21.11519070617552,13.727011111669277,77,29,0.0,23567,545129356477242,92,15.3,-64.64276123046875,2.7805001735687256,16,0.0,0.0,1575420030,,,,0,,6,0.06,11.0,-1454.502685546875,13.991277694702148,,,C,437296353339857,
Fix,GPS,22.4942099500,88.3688119000,-46.455169677734375,0.0,3.7900925,,1732346712000,0.286007,,437311383143398,3.9254048,0,,,
Status,1732346712000,43,0,1,3,1575420030,25.40,226.0,42.0,1,1,1,21.8
Status,1732346712000,43,1,1,4,1575420030,20.00,340.0,58.0,1,1,1,16.4
Status,1732346712000,43,2,1,7,1575420030,19.80,288.0,14.0,1,1,0,16.199999
Status,1732346712000,43,3,1,8,1575420030,17.60,165.0,31.0,1,1,0,14.0
Status,1732346712000,43,4,1,9,1575420030,20.10,323.0,29.0,1,1,1,16.5
Status,1732346712000,43,5,1,16,1575420030,24.70,28.0,56.0,1,1,0,21.1
Status,1732346712000,43,6,1,26,1575420030,16.10,37.0,25.0,1,1,1,12.5
Status,1732346712000,43,7,1,27,1575420030,18.20,123.0,42.0,1,1,1,14.6
Status,1732346712000,43,8,1,31,1575420030,15.80,61.0,21.0,1,1,1,12.200001
Status,1732346712000,43,9,1,28,1575420030,0.00,0.0,0.0,0,1,0,0.0
Status,1732346712000,43,10,3,9,1600875010,16.20,4.0,41.0,1,1,1,12.200001
Status,1732346712000,43,11,3,7,1604812540,24.20,326.0,76.0,1,1,0,20.2
Status,1732346712000,43,12,3,8,1605374980,14.20,331.0,24.0,1,1,1,10.2
Status,1732346712000,43,13,3,6,1599750020,0.00,157.0,48.0,0,1,0,0.0
Status,1732346712000,43,14,3,16,1601437440,0.00,0.0,0.0,0,1,0,0.0
Status,1732346712000,43,15,3,11,1602000000,0.00,246.0,13.0,0,1,0,0.0
Status,1732346712000,43,16,3,19,1603687550,0.00,0.0,0.0,0,1,0,0.0
Status,1732346712000,43,17,5,25,1561097980,29.30,286.0,45.0,1,1,1,25.0
Status,1732346712000,43,18,5,24,1561097980,14.30,15.0,48.0,1,1,1,10.0
Status,1732346712000,43,19,5,16,1561097980,19.20,42.0,44.0,0,1,0,14.900001
Status,1732346712000,43,20,5,14,1561097980,17.40,189.0,65.0,1,1,0,13.099999
Status,1732346712000,43,21,5,10,1561097980,16.10,160.0,53.0,1,1,0,11.8
Status,1732346712000,43,22,5,9,1561097980,20.60,12.0,52.0,1,1,0,16.3
Status,1732346712000,43,23,5,8,1561097980,17.00,180.0,11.0,1,1,0,12.7
Status,1732346712000,43,24,5,7,1561097980,17.60,140.0,57.0,1,1,0,13.3
Status,1732346712000,43,25,5,6,1561097980,19.70,33.0,48.0,1,1,0,15.400001
Status,1732346712000,43,26,5,3,1561097980,20.30,133.0,52.0,1,1,0,15.999999
Status,1732346712000,43,27,5,1,1561097980,0.00,105.0,21.0,0,1,0,0.0
Status,1732346712000,43,28,5,2,1561097980,0.00,191.0,62.0,0,1,0,0.0
Status,1732346712000,43,29,5,4,1561097980,0.00,98.0,7.0,0,1,0,0.0
Status,1732346712000,43,30,5,5,1561097980,0.00,236.0,47.0,0,1,0,0.0
Status,1732346712000,43,31,5,11,1561097980,0.00,172.0,4.0,0,1,0,0.0
Status,1732346712000,43,32,5,12,1561097980,0.00,123.0,14.0,0,1,0,0.0
Status,1732346712000,43,33,5,13,1561097980,0.00,188.0,18.0,0,1,0,0.0
Status,1732346712000,43,34,5,23,1561097980,0.00,253.0,4.0,0,1,0,0.0
Status,1732346712000,43,35,5,26,1561097980,0.00,52.0,9.0,0,1,0,0.0
Status,1732346712000,43,36,4,194,1575420030,23.10,59.0,38.0,1,1,1,19.5
Status,1732346712000,43,37,4,196,1575420030,16.80,137.0,27.0,1,1,0,13.199999
Status,1732346712000,43,38,6,7,1575420030,14.80,122.0,28.0,1,1,0,10.5
Status,1732346712000,43,39,6,19,1575420030,18.60,329.0,40.0,1,1,0,14.3
Status,1732346712000,43,40,6,21,1575420030,24.10,253.0,75.0,1,1,0,19.8
Status,1732346712000,43,41,6,27,1575420030,14.20,32.0,44.0,1,1,0,9.9
Status,1732346712000,43,42,6,29,1575420030,15.30,52.0,73.0,0,1,0,11.0
Fix,GPS,22.4942108800,88.3688149300,-45.8204345703125,0.0,3.7900925,,1732346713000,0.29206163,,437312380955794,4.0334415,0,,,
Raw,1732346712434,430174239000000,18,,-1415951756195574687,0.9793872833251953,45.174929255153984,-23.67146163863102,15.563446593782418,77,3,0.0,16399,545130362123749,24,25.4,404.171630859375,0.09549999982118607,16,0.0,1902.9177342976868,1575420030,,,,0,,1,0.07,21.799999999999997,0.0,0.0,,,C,437297360619388,
Raw,1732346712434,430174239000000,18,,-1415951756195574687,0.9793872833251953,45.174929255153984,-23.67146163863102,15.563446593782418,77,4,0.0,16399,545130365387691,46,20.0,-376.31524658203125,0.9239999651908875,16,0.0,0.0,1575420030,,,,0,,1,0.07,16.4,0.0,0.0,,,C,437297360619388,
Raw,1732346712434,430174239000000,18,,-1415951756195574687,0.9793872833251953,45.174929255153984,-23.67146163863102,15.563446593782418,77,7,0.0,16399,545130352196926,53,19.8,-277.61944580078125,0.934499979019165,16,0.0,0.0,1575420030,,,,0,,1,0.07,16.2,0.0,0.0,,,C,437297360619388,
Raw,1732346712434,430174239000000,18,,-1415951756195574687,0.9793872833251953,45.174929255153984,-23.67146163863102,15.563446593782418,77,26,0.0,16399,545130357664097,80,16.1,602.6410522460938,2.0320000648498535,16,0.0,0.0,1575420030,,,,0,,1,0.07,12.500000000000002,0.0,0.0,,,C,437297360619388,
Raw,1732346712434,430174239000000,18,,-1415951756195574687,0.9793872833251953,45.174929255153984,-23.67146163863102,15.563446593782418,77,31,0.0,16399,545130355801785,92,15.8,335.5448303222656,2.0290000438690186,16,0.0,0.0,1575420030,,,,0,,1,0.07,12.200000000000001,0.0,0.0,,,C,437297360619388,
Raw,1732346712434,430174239000000,18,,-1415951756195574687,0.9793872833251953,45.174929255153984,-23.67146163863102,15.563446593782418,77,194,0.0,16399,545130298626680,31,23.1,98.47697448730469,0.7534999847412109,16,0.0,0.0,1575420030,,,,0,,4,0.07,19.5,0.0,0.0,,,C,437297360619388,
Raw,1732346712434,430174239000000,18,,-1415951756195574687,0.9793872833251953,45.174929255153984,-23.67146163863102,15.563446593782418,77,196,0.0,16399,545130311521413,80,16.8,-21.845714569091797,1.9329999685287476,16,0.0,0.0,1575420030,,,,0,,4,0.07,13.200000000000001,0.0,0.0,,,C,437297360619388,
Raw,1732346712434,430174239000000,18,,-1415951756195574687,0.9793872833251953,45.174929255153984,-23.67146163863102,15.563446593782418,77,7,0.0,49359,37512370440124,27,24.2,-187.24742126464844,0.6315000057220459,16,0.0,0.0,1604812540,,,,0,,3,-0.46,20.2,3799.687255859375,16.49837303161621,,,C,437297360619388,
Raw,1732346712434,430174239000000,18,,-1415951756195574687,0.9793872833251953,45.174929255153984,-23.67146163863102,15.563446593782418,77,25,0.0,16399,545116358408515,16,29.3,-118.70198059082031,0.05790000408887863,16,0.0,1920.3757538518662,1561097980,,,,0,,5,0.03,25.0,-1558.572021484375,12.003567695617676,,,I,437297360619388,
Raw,1732346712434,430174239000000,18,,-1415951756195574687,0.9793872833251953,45.174929255153984,-23.67146163863102,15.563446593782418,77,16,0.0,16399,545116309337607,53,19.2,-64.68850708007812,0.9299999475479126,16,0.0,0.0,1561097980,,,,0,,5,0.03,14.899999999999999,-1558.572021484375,12.003567695617676,,,I,437297360619388,
Raw,1732346712434,430174239000000,18,,-1415951756195574687,0.9793872833251953,45.174929255153984,-23.67146163863102,15.563446593782418,77,14,0.0,16399,545116360755088,70,17.4,278.78375244140625,1.8264999389648438,16,0.0,0.0,1561097980,,,,0,,5,0.03,13.099999999999998,-1558.572021484375,12.003567695617676,,,I,437297360619388,
Raw,1732346712434,430174239000000,18,,-1415951756195574687,0.9793872833251953,45.174929255153984,-23.67146163863102,15.563446593782418,77,7,0.0,23567,545130347905147,106,14.8,340.89208984375,4.189000129699707,16,0.0,0.0,1575420030,,,,0,,6,0.09,10.5,-1454.5076904296875,14.015377044677734,,,C,437297360619388,
Raw,1732346712434,430174239000000,18,,-1415951756195574687,0.9793872833251953,45.174929255153984,-23.67146163863102,15.563446593782418,77,21,0.0,23567,545130355981533,27,24.1,-66.38394927978516,0.6389999985694885,16,0.0,0.0,1575420030,,,,0,,6,0.09,19.8,-1454.5076904296875,14.015377044677734,,,C,437297360619388,
Status,1732346713000,43,0,1,3,1575420030,24.80,226.0,42.0,1,1,1,21.199999
Status,1732346713000,43,1,1,4,1575420030,21.40,340.0,58.0,1,1,1,17.8
Status,1732346713000,43,2,1,7,1575420030,19.00,288.0,14.0,1,1,0,15.4
Status,1732346713000,43,3,1,8,1575420030,17.60,165.0,31.0,1,1,0,14.0
Status,1732346713000,43,4,1,9,1575420030,20.10,323.0,29.0,1,1,1,16.5
Status,1732346713000,43,5,1,16,1575420030,24.70,28.0,56.0,1,1,0,21.1
Status,1732346713000,43,6,1,26,1575420030,16.10,37.0,25.0,1,1,1,12.5
Status,1732346713000,43,7,1,27,1575420030,18.20,123.0,42.0,1,1,1,14.6
Status,1732346713000,43,8,1,31,1575420030,15.80,61.0,21.0,1,1,1,12.200001
Status,1732346713000,43,9,1,28,1575420030,0.00,0.0,0.0,0,1,0,0.0
Status,1732346713000,43,10,3,9,1600875010,16.20,4.0,41.0,0,1,1,12.200001
Status,1732346713000,43,11,3,7,1604812540,23.40,326.0,76.0,1,1,0,19.4
Status,1732346713000,43,12,3,8,1605374980,14.20,331.0,24.0,1,1,1,10.2
Status,1732346713000,43,13,3,6,1599750020,0.00,157.0,48.0,0,1,0,0.0
Status,1732346713000,43,14,3,16,1601437440,0.00,0.0,0.0,0,1,0,0.0
Status,1732346713000,43,15,3,11,1602000000,0.00,246.0,13.0,0,1,0,0.0
Status,1732346713000,43,16,3,19,1603687550,0.00,0.0,0.0,0,1,0,0.0
Status,1732346713000,43,17,5,25,1561097980,29.30,286.0,45.0,1,1,1,25.0
Status,1732346713000,43,18,5,24,1561097980,14.30,15.0,48.0,1,1,1,10.0
Status,1732346713000,43,19,5,16,1561097980,18.30,42.0,44.0,0,1,0,13.999999
Status,1732346713000,43,20,5,14,1561097980,17.40,189.0,65.0,1,1,0,13.099999
Status,1732346713000,43,21,5,10,1561097980,16.10,160.0,53.0,1,1,0,11.8
Status,1732346713000,43,22,5,9,1561097980,20.60,12.0,52.0,1,1,0,16.3
Status,1732346713000,43,23,5,8,1561097980,17.00,180.0,11.0,1,1,0,12.7
Status,1732346713000,43,24,5,7,1561097980,17.60,140.0,57.0,1,1,0,13.3
Status,1732346713000,43,25,5,6,1561097980,19.70,33.0,48.0,0,1,0,15.400001
Status,1732346713000,43,26,5,3,1561097980,19.60,133.0,52.0,1,1,0,15.3
Status,1732346713000,43,27,5,1,1561097980,0.00,105.0,21.0,0,1,0,0.0
Status,1732346713000,43,28,5,2,1561097980,0.00,191.0,62.0,0,1,0,0.0
Status,1732346713000,43,29,5,4,1561097980,0.00,98.0,7.0,0,1,0,0.0
Status,1732346713000,43,30,5,5,1561097980,0.00,236.0,47.0,0,1,0,0.0
Status,1732346713000,43,31,5,11,1561097980,0.00,172.0,4.0,0,1,0,0.0
Status,1732346713000,43,32,5,12,1561097980,0.00,123.0,14.0,0,1,0,0.0
Status,1732346713000,43,33,5,13,1561097980,0.00,188.0,18.0,0,1,0,0.0
Status,1732346713000,43,34,5,23,1561097980,0.00,253.0,4.0,0,1,0,0.0
Status,1732346713000,43,35,5,26,1561097980,0.00,52.0,9.0,0,1,0,0.0
Status,1732346713000,43,36,4,194,1575420030,21.70,59.0,38.0,1,1,1,18.1
Status,1732346713000,43,37,4,196,1575420030,16.80,137.0,27.0,1,1,0,13.199999
Status,1732346713000,43,38,6,7,1575420030,14.80,122.0,28.0,1,1,0,10.5
Status,1732346713000,43,39,6,19,1575420030,18.60,329.0,40.0,1,1,0,14.3
Status,1732346713000,43,40,6,21,1575420030,22.90,253.0,75.0,1,1,0,18.599998
Status,1732346713000,43,41,6,27,1575420030,14.20,32.0,44.0,1,1,0,9.9
Status,1732346713000,43,42,6,29,1575420030,16.80,52.0,73.0,0,1,0,12.499999
Raw,1732346713434,430175239000000,18,,-1415951756195574710,0.25673866271972656,46.20915206032805,-25.171914105620427,15.902089021133644,77,3,0.0,16399,545131362122417,27,24.8,404.5738525390625,0.6195000410079956,16,0.0,0.0,1575420030,,,,0,,1,0.07,21.2,0.0,0.0,,,C,437298362197460,
Raw,1732346713434,430175239000000,18,,-1415951756195574710,0.25673866271972656,46.20915206032805,-25.171914105620427,15.902089021133644,77,4,0.0,16399,545131365389015,40,21.4,-376.47698974609375,0.793999969959259,16,0.0,0.0,1575420030,,,,0,,1,0.07,17.799999999999997,0.0,0.0,,,C,437298362197460,
Raw,1732346713434,430175239000000,18,,-1415951756195574710,0.25673866271972656,46.20915206032805,-25.171914105620427,15.902089021133644,77,7,0.0,16399,545131352197786,53,19.0,-277.2102966308594,1.0145000219345093,16,0.0,0.0,1575420030,,,,0,,1,0.07,15.4,0.0,0.0,,,C,437298362197460,
Raw,1732346713434,430175239000000,18,,-1415951756195574710,0.25673866271972656,46.20915206032805,-25.171914105620427,15.902089021133644,77,194,0.0,16399,545131298626320,40,21.7,98.74339294433594,0.8134999871253967,16,0.0,0.0,1575420030,,,,0,,4,0.07,18.099999999999998,0.0,0.0,,,C,437298362197460,
Raw,1732346713434,430175239000000,18,,-1415951756195574710,0.25673866271972656,46.20915206032805,-25.171914105620427,15.902089021133644,77,7,0.0,49359,37513370440651,31,23.4,-186.22930908203125,0.6814999580383301,16,0.0,0.0,1604812540,,,,0,,3,-0.48,19.4,3799.662841796875,16.517553329467773,,,C,437298362197460,
Raw,1732346713434,430175239000000,18,,-1415951756195574710,0.25673866271972656,46.20915206032805,-25.171914105620427,15.902089021133644,77,25,0.0,16399,545117358408922,16,29.3,-118.49372100830078,0.05790000408887863,16,0.0,1920.3757538518662,1561097980,,,,0,,5,0.0,25.0,-1558.5775146484375,12.032119750976562,,,I,437298362197460,
Raw,1732346713434,430175239000000,18,,-1415951756195574710,0.25673866271972656,46.20915206032805,-25.171914105620427,15.902089021133644,77,16,0.0,16399,545117309337800,61,18.3,-63.9875602722168,1.0099999904632568,16,0.0,0.0,1561097980,,,,0,,5,0.0,14.0,-1558.5775146484375,12.032119750976562,,,I,437298362197460,
Raw,1732346713434,430175239000000,18,,-1415951756195574710,0.25673866271972656,46.20915206032805,-25.171914105620427,15.902089021133644,77,3,0.0,16399,545117312243172,53,19.6,1.7763652801513672,8.3858003616333,16,0.0,0.0,1561097980,,,,0,,5,0.0,15.3,-1558.5775146484375,12.032119750976562,,,I,437298362197460,
Raw,1732346713434,430175239000000,18,,-1415951756195574710,0.25673866271972656,46.20915206032805,-25.171914105620427,15.902089021133644,77,21,0.0,23567,545131355981796,35,22.9,-66.35540771484375,0.6889999508857727,16,0.0,0.0,1575420030,,,,0,,6,0.06,18.599999999999998,-1454.5078125,14.039552688598633,,,C,437298362197460,
Raw,1732346713434,430175239000000,18,,-1415951756195574710,0.25673866271972656,46.20915206032805,-25.171914105620427,15.902089021133644,77,29,0.0,23567,545131356477674,80,16.8,-65.0614013671875,1.8504999876022339,16,0.0,0.0,1575420030,,,,0,,6,0.06,12.5,-1454.5078125,14.039552688598633,,,C,437298362197460,
Fix,GPS,22.4942102400,88.3688145000,-45.049774169921875,0.0,3.7900925,,1732346714000,0.33286634,,437313381406210,3.9922729,0,,,
Status,1732346714000,43,0,1,3,1575420030,27.40,226.0,42.0,1,1,1,23.8
Status,1732346714000,43,1,1,4,1575420030,21.30,340.0,58.0,1,1,1,17.699999
Status,1732346714000,43,2,1,7,1575420030,20.60,288.0,14.0,1,1,0,17.0
Status,1732346714000,43,3,1,8,1575420030,15.40,165.0,31.0,1,1,0,11.799999
Status,1732346714000,43,4,1,9,1575420030,14.00,323.0,29.0,1,1,1,10.4
Status,1732346714000,43,5,1,16,1575420030,24.70,28.0,56.0,1,1,0,21.1
Status,1732346714000,43,6,1,26,1575420030,16.10,37.0,25.0,1,1,1,12.5
Status,1732346714000,43,7,1,27,1575420030,18.20,123.0,42.0,1,1,1,14.6
Status,1732346714000,43,8,1,31,1575420030,15.80,61.0,21.0,1,1,1,12.200001
Status,1732346714000,43,9,1,28,1575420030,0.00,0.0,0.0,0,1,0,0.0
Status,1732346714000,43,10,3,9,1600875010,16.20,4.0,41.0,0,1,1,12.200001
Status,1732346714000,43,11,3,7,1604812540,22.80,326.0,76.0,1,1,0,18.8
Status,1732346714000,43,12,3,8,1605374980,14.10,331.0,24.0,1,1,1,10.1
Status,1732346714000,43,13,3,6,1599750020,0.00,157.0,48.0,0,1,0,0.0
Status,1732346714000,43,14,3,16,1601437440,0.00,0.0,0.0,0,1,0,0.0
Status,1732346714000,43,15,3,11,1602000000,0.00,246.0,13.0,0,1,0,0.0
Status,1732346714000,43,16,3,19,1603687550,0.00,0.0,0.0,0,1,0,0.0
Status,1732346714000,43,17,5,25,1561097980,27.20,286.0,45.0,1,1,1,22.900002
Status,1732346714000,43,18,5,24,1561097980,14.30,15.0,48.0,1,1,1,10.0
Status,1732346714000,43,19,5,16,1561097980,19.70,42.0,44.0,0,1,0,15.400001
Status,1732346714000,43,20,5,14,1561097980,15.60,189.0,65.0,1,1,0,11.3
Status,1732346714000,43,21,5,10,1561097980,16.20,160.0,53.0,1,1,0,11.900001
Status,1732346714000,43,22,5,9,1561097980,13.20,12.0,52.0,1,1,0,8.9
Status,1732346714000,43,23,5,8,1561097980,16.00,180.0,11.0,1,1,0,11.7
Status,1732346714000,43,24,5,7,1561097980,17.60,140.0,57.0,1,1,0,13.3
Status,1732346714000,43,25,5,6,1561097980,19.70,33.0,48.0,0,1,0,15.400001
Status,1732346714000,43,26,5,3,1561097980,19.60,133.0,52.0,1,1,0,15.3
Status,1732346714000,43,27,5,1,1561097980,0.00,105.0,21.0,0,1,0,0.0
Status,1732346714000,43,28,5,2,1561097980,0.00,191.0,62.0,0,1,0,0.0
Status,1732346714000,43,29,5,4,1561097980,0.00,98.0,7.0,0,1,0,0.0
Status,1732346714000,43,30,5,5,1561097980,0.00,236.0,47.0,0,1,0,0.0
Status,1732346714000,43,31,5,11,1561097980,0.00,172.0,4.0,0,1,0,0.0
Status,1732346714000,43,32,5,12,1561097980,0.00,123.0,14.0,0,1,0,0.0
Status,1732346714000,43,33,5,13,1561097980,0.00,188.0,18.0,0,1,0,0.0
Status,1732346714000,43,34,5,23,1561097980,0.00,253.0,4.0,0,1,0,0.0
Status,1732346714000,43,35,5,26,1561097980,0.00,52.0,9.0,0,1,0,0.0
Status,1732346714000,43,36,4,194,1575420030,21.10,59.0,38.0,1,1,1,17.5
Status,1732346714000,43,37,4,196,1575420030,17.20,137.0,27.0,1,1,0,13.6
Status,1732346714000,43,38,6,7,1575420030,15.60,122.0,28.0,1,1,0,11.3
Status,1732346714000,43,39,6,19,1575420030,14.70,329.0,40.0,1,1,0,10.4
Status,1732346714000,43,40,6,21,1575420030,23.60,253.0,75.0,1,1,0,19.3
Status,1732346714000,43,41,6,27,1575420030,14.20,32.0,44.0,1,1,0,9.9
Status,1732346714000,43,42,6,29,1575420030,19.00,52.0,73.0,0,1,0,14.7
Raw,1732346714434,430176239000000,18,,-1415951756195574731,0.3355083465576172,47.29245483758859,-24.590972502977632,16.769587062961552,77,3,0.0,16399,545132362121047,19,27.4,404.57781982421875,0.04519999772310257,16,0.0,1902.9177342976868,1575420030,,,,0,,1,0.07,23.799999999999997,0.0,0.0,,,C,437299353201939,
Raw,1732346714434,430176239000000,18,,-1415951756195574731,0.3355083465576172,47.29245483758859,-24.590972502977632,16.769587062961552,77,4,0.0,16399,545132365390280,40,21.3,-376.9527282714844,0.8539999723434448,16,0.0,0.0,1575420030,,,,0,,1,0.07,17.7,0.0,0.0,,,C,437299353201939,
Raw,1732346714434,430176239000000,18,,-1415951756195574731,0.3355083465576172,47.29245483758859,-24.590972502977632,16.769587062961552,77,7,0.0,16399,545132352198782,46,20.6,-278.05712890625,0.8644999861717224,16,0.0,0.0,1575420030,,,,0,,1,0.07,17.0,0.0,0.0,,,C,437299353201939,
Raw,1732346714434,430176239000000,18,,-1415951756195574731,0.3355083465576172,47.29245483758859,-24.590972502977632,16.769587062961552,77,8,0.0,16399,545132360152888,92,15.4,-604.8770141601562,2.756500005722046,16,0.0,0.0,1575420030,,,,0,,1,0.07,11.8,0.0,0.0,,,C,437299353201939,
Raw,1732346714434,430176239000000,18,,-1415951756195574731,0.3355083465576172,47.29245483758859,-24.590972502977632,16.769587062961552,77,9,0.0,16399,545132359171844,106,14.0,-589.1587524414062,5.255000114440918,16,0.0,0.0,1575420030,,,,0,,1,0.07,10.4,0.0,0.0,,,C,437299353201939,
Raw,1732346714434,430176239000000,18,,-1415951756195574731,0.3355083465576172,47.29245483758859,-24.590972502977632,16.769587062961552,77,194,0.0,16399,545132298625966,40,21.1,98.372314453125,0.8734999895095825,16,0.0,0.0,1575420030,,,,0,,4,0.07,17.5,0.0,0.0,,,C,437299353201939,
Raw,1732346714434,430176239000000,18,,-1415951756195574731,0.3355083465576172,47.29245483758859,-24.590972502977632,16.769587062961552,77,196,0.0,16399,545132311521431,70,17.2,-22.454652786254883,1.9329999685287476,16,0.0,0.0,1575420030,,,,0,,4,0.07,13.6,0.0,0.0,,,C,437299353201939,
Raw,1732346714434,430176239000000,18,,-1415951756195574731,0.3355083465576172,47.29245483758859,-24.590972502977632,16.769587062961552,77,7,0.0,49359,37514370441328,35,22.8,-186.78973388671875,0.7414999604225159,16,0.0,0.0,1604812540,,,,0,,3,-0.46,18.8,3799.64697265625,16.535493850708008,,,C,437299353201939,
Raw,1732346714434,430176239000000,18,,-1415951756195574731,0.3355083465576172,47.29245483758859,-24.590972502977632,16.769587062961552,77,8,0.0,49359,37514360443921,106,14.1,-725.645751953125,2.8565001487731934,16,0.0,0.0,1605374980,,,,0,,3,-0.46,10.1,3799.64697265625,16.535493850708008,,,C,437299353201939,
Raw,1732346714434,430176239000000,18,,-1415951756195574731,0.3355083465576172,47.29245483758859,-24.590972502977632,16.769587062961552,77,25,0.0,16399,545118358409308,19,27.2,-118.38361358642578,0.06920000165700912,16,0.0,1920.3757538518662,1561097980,,,,0,,5,0.01,22.9,-1558.579833984375,12.06005573272705,,,I,437299353201939,
Raw,1732346714434,430176239000000,18,,-1415951756195574731,0.3355083465576172,47.29245483758859,-24.590972502977632,16.769587062961552,77,16,0.0,16399,545118309338068,53,19.7,-64.59248352050781,0.8600000143051147,16,0.0,0.0,1561097980,,,,0,,5,0.01,15.399999999999999,-1558.579833984375,12.06005573272705,,,I,437299353201939,
Raw,1732346714434,430176239000000,18,,-1415951756195574731,0.3355083465576172,47.29245483758859,-24.590972502977632,16.769587062961552,77,14,0.0,16399,545118360753266,92,15.6,279.5903015136719,2.006500005722046,16,0.0,0.0,1561097980,,,,0,,5,0.01,11.3,-1558.579833984375,12.06005573272705,,,I,437299353201939,
Raw,1732346714434,430176239000000,18,,-1415951756195574731,0.3355083465576172,47.29245483758859,-24.590972502977632,16.769587062961552,77,10,0.0,16399,545118310460311,80,16.2,-205.27101135253906,2.68149995803833,16,0.0,0.0,1561097980,,,,0,,5,0.01,11.899999999999999,-1558.579833984375,12.06005573272705,,,I,437299353201939,
Raw,1732346714434,430176239000000,18,,-1415951756195574731,0.3355083465576172,47.29245483758859,-24.590972502977632,16.769587062961552,77,9,0.0,16399,545118309465771,122,13.2,-49.421363830566406,5.240000247955322,16,0.0,0.0,1561097980,,,,0,,5,0.01,8.899999999999999,-1558.579833984375,12.06005573272705,,,I,437299353201939,
Raw,1732346714434,430176239000000,18,,-1415951756195574731,0.3355083465576172,47.29245483758859,-24.590972502977632,16.769587062961552,77,8,0.0,16399,545118299325736,80,16.0,327.446533203125,2.695000171661377,16,0.0,0.0,1561097980,,,,0,,5,0.01,11.7,-1558.579833984375,12.06005573272705,,,I,437299353201939,
Raw,1732346714434,430176239000000,18,,-1415951756195574731,0.3355083465576172,47.29245483758859,-24.590972502977632,16.769587062961552,77,7,0.0,23567,545132347902903,92,15.6,339.27459716796875,2.0290000438690186,16,0.0,0.0,1575420030,,,,0,,6,0.09,11.3,-1454.5074462890625,14.062918663024902,,,C,437299353201939,
Raw,1732346714434,430176239000000,18,,-1415951756195574731,0.3355083465576172,47.29245483758859,-24.590972502977632,16.769587062961552,77,19,0.0,23567,545132352149918,106,14.7,-402.2427673339844,2.7805001735687256,16,0.0,0.0,1575420030,,,,0,,6,0.09,10.399999999999999,-1454.5074462890625,14.062918663024902,,,C,437299353201939,
Raw,1732346714434,430176239000000,18,,-1415951756195574731,0.3355083465576172,47.29245483758859,-24.590972502977632,16.769587062961552,77,21,0.0,23567,545132355982002,31,23.6,-65.87966918945312,0.6889999508857727,16,0.0,0.0,1575420030,,,,0,,6,0.09,19.3,-1454.5074462890625,14.062918663024902,,,C,437299353201939,
Raw,1732346714434,430176239000000,18,,-1415951756195574731,0.3355083465576172,47.29245483758859,-24.590972502977632,16.769587062961552,77,29,0.0,23567,545132356477899,53,19.0,-63.06332015991211,0.9404999613761902,16,0.0,0.0,1575420030,,,,0,,6,0.09,14.7,-1454.5074462890625,14.062918663024902,,,C,437299353201939,
Fix,GPS,22.4942124600,88.3688144200,-44.288543701171875,0.0,3.7900925,,1732346715000,0.3,,437314388048085,3.9355366,0,,,
Status,1732346715000,43,0,1,3,1575420030,26.90,226.0,42.0,1,1,1,23.3
Status,1732346715000,43,1,1,4,1575420030,18.80,340.0,58.0,1,1,1,15.199999
Status,1732346715000,43,2,1,7,1575420030,18.70,288.0,14.0,1,1,0,15.1
Status,1732346715000,43,3,1,8,1575420030,15.40,165.0,31.0,1,1,0,11.799999
Status,1732346715000,43,4,1,9,1575420030,19.80,323.0,29.0,1,1,1,16.199999
Status,1732346715000,43,5,1,16,1575420030,24.70,28.0,56.0,0,1,0,21.1
Status,1732346715000,43,6,1,26,1575420030,16.10,37.0,25.0,1,1,1,12.5
Status,1732346715000,43,7,1,27,1575420030,18.20,123.0,42.0,1,1,1,14.6
Status,1732346715000,43,8,1,31,1575420030,16.20,61.0,21.0,1,1,1,12.6
Status,1732346715000,43,9,1,28,1575420030,0.00,0.0,0.0,0,1,0,0.0
Status,1732346715000,43,10,3,9,1600875010,16.20,4.0,41.0,0,1,1,12.200001
Status,1732346715000,43,11,3,7,1604812540,23.10,326.0,76.0,1,1,0,19.1
Status,1732346715000,43,12,3,8,1605374980,14.10,331.0,24.0,1,1,1,10.1
Status,1732346715000,43,13,3,6,1599750020,0.00,157.0,48.0,0,1,0,0.0
Status,1732346715000,43,14,3,16,1601437440,0.00,0.0,0.0,0,1,0,0.0
Status,1732346715000,43,15,3,11,1602000000,0.00,246.0,13.0,0,1,0,0.0
Status,1732346715000,43,16,3,19,1603687550,0.00,0.0,0.0,0,1,0,0.0
Status,1732346715000,43,17,5,25,1561097980,28.80,286.0,45.0,1,1,1,24.5
Status,1732346715000,43,18,5,24,1561097980,14.30,15.0,48.0,1,1,1,10.0
Status,1732346715000,43,19,5,16,1561097980,20.30,42.0,44.0,0,1,0,15.999999
Status,1732346715000,43,20,5,14,1561097980,15.60,189.0,65.0,1,1,0,11.3
Status,1732346715000,43,21,5,10,1561097980,16.20,160.0,53.0,1,1,0,11.900001
Status,1732346715000,43,22,5,9,1561097980,18.60,12.0,52.0,1,1,0,14.3
Status,1732346715000,43,23,5,8,1561097980,16.00,180.0,11.0,1,1,0,11.7
Status,1732346715000,43,24,5,7,1561097980,17.60,140.0,57.0,1,1,0,13.3
Status,1732346715000,43,25,5,6,1561097980,19.70,33.0,48.0,0,1,0,15.400001
Status,1732346715000,43,26,5,3,1561097980,19.60,133.0,52.0,1,1,0,15.3
Status,1732346715000,43,27,5,1,1561097980,0.00,105.0,21.0,0,1,0,0.0
Status,1732346715000,43,28,5,2,1561097980,0.00,191.0,62.0,0,1,0,0.0
Status,1732346715000,43,29,5,4,1561097980,0.00,98.0,7.0,0,1,0,0.0
Status,1732346715000,43,30,5,5,1561097980,0.00,236.0,47.0,0,1,0,0.0
Status,1732346715000,43,31,5,11,1561097980,0.00,172.0,4.0,0,1,0,0.0
Status,1732346715000,43,32,5,12,1561097980,0.00,123.0,14.0,0,1,0,0.0
Status,1732346715000,43,33,5,13,1561097980,0.00,188.0,18.0,0,1,0,0.0
Status,1732346715000,43,34,5,23,1561097980,0.00,253.0,4.0,0,1,0,0.0
Status,1732346715000,43,35,5,26,1561097980,0.00,52.0,9.0,0,1,0,0.0
Status,1732346715000,43,36,4,194,1575420030,19.80,59.0,38.0,1,1,1,16.199999
Status,1732346715000,43,37,4,196,1575420030,19.40,137.0,27.0,1,1,0,15.799999
Status,1732346715000,43,38,6,7,1575420030,15.60,122.0,28.0,1,1,0,11.3
Status,1732346715000,43,39,6,19,1575420030,14.70,329.0,40.0,1,1,0,10.4
Status,1732346715000,43,40,6,21,1575420030,22.30,253.0,75.0,1,1,0,18.0
Status,1732346715000,43,41,6,27,1575420030,14.20,32.0,44.0,1,1,0,9.9
Status,1732346715000,43,42,6,29,1575420030,19.10,52.0,73.0,0,1,0,14.8
Raw,1732346715434,430177239000000,18,,-1415951756195574751,0.45735931396484375,46.793495130259544,-24.471322811103697,16.559051321989994,77,3,0.0,16399,545133362119720,21,26.9,403.75689697265625,0.06360000371932983,16,0.0,1902.9177342976868,1575420030,,,,0,,1,0.12,23.299999999999997,0.0,0.0,,,C,437300351426001,
Raw,1732346715434,430177239000000,18,,-1415951756195574751,0.45735931396484375,46.793495130259544,-24.471322811103697,16.559051321989994,77,4,0.0,16399,545133365391467,61,18.8,-377.3904113769531,1.0040000677108765,16,0.0,0.0,1575420030,,,,0,,1,0.12,15.200000000000001,0.0,0.0,,,C,437300351426001,
Raw,1732346715434,430177239000000,18,,-1415951756195574751,0.45735931396484375,46.793495130259544,-24.471322811103697,16.559051321989994,77,7,0.0,16399,545133352199833,61,18.7,-278.8658752441406,1.0145000219345093,16,0.0,0.0,1575420030,,,,0,,1,0.12,15.1,0.0,0.0,,,C,437300351426001,
Raw,1732346715434,430177239000000,18,,-1415951756195574751,0.45735931396484375,46.793495130259544,-24.471322811103697,16.559051321989994,77,9,0.0,16399,545133359173793,53,19.8,-590.21484375,0.9449999928474426,16,0.0,0.0,1575420030,,,,0,,1,0.12,16.2,0.0,0.0,,,C,437300351426001,
Raw,1732346715434,430177239000000,18,,-1415951756195574751,0.45735931396484375,46.793495130259544,-24.471322811103697,16.559051321989994,77,31,0.0,16399,545133355798485,80,16.2,335.7922058105469,2.7790000438690186,16,0.0,0.0,1575420030,,,,0,,1,0.12,12.6,0.0,0.0,,,C,437300351426001,
Raw,1732346715434,430177239000000,18,,-1415951756195574751,0.45735931396484375,46.793495130259544,-24.471322811103697,16.559051321989994,77,194,0.0,16399,545133298625669,53,19.8,97.52550506591797,0.9434999823570251,16,0.0,0.0,1575420030,,,,0,,4,0.12,16.2,0.0,0.0,,,C,437300351426001,
Raw,1732346715434,430177239000000,18,,-1415951756195574751,0.45735931396484375,46.793495130259544,-24.471322811103697,16.559051321989994,77,196,0.0,16399,545133311521483,53,19.4,-21.950374603271484,0.9329999685287476,16,0.0,0.0,1575420030,,,,0,,4,0.12,15.799999999999999,0.0,0.0,,,C,437300351426001,
Raw,1732346715434,430177239000000,18,,-1415951756195574751,0.45735931396484375,46.793495130259544,-24.471322811103697,16.559051321989994,77,7,0.0,49359,37515370441846,31,23.1,-186.799072265625,0.6814999580383301,16,0.0,0.0,1604812540,,,,0,,3,-0.44,19.1,3799.629638671875,16.554391860961914,,,C,437300351426001,
Raw,1732346715434,430177239000000,18,,-1415951756195574751,0.45735931396484375,46.793495130259544,-24.471322811103697,16.559051321989994,77,25,0.0,16399,545119358409703,17,28.8,-119.22931671142578,0.059300001710653305,16,0.0,1920.3757538518662,1561097980,,,,0,,5,0.03,24.5,-1558.580078125,12.088476181030273,,,I,437300351426001,
Raw,1732346715434,430177239000000,18,,-1415951756195574751,0.45735931396484375,46.793495130259544,-24.471322811103697,16.559051321989994,77,16,0.0,16399,545119309338232,46,20.3,-65.59109497070312,0.8600000143051147,16,0.0,0.0,1561097980,,,,0,,5,0.03,16.0,-1558.580078125,12.088476181030273,,,I,437300351426001,
Raw,1732346715434,430177239000000,18,,-1415951756195574751,0.45735931396484375,46.793495130259544,-24.471322811103697,16.559051321989994,77,9,0.0,16399,545119309465974,61,18.6,-51.591407775878906,1.0099999904632568,16,0.0,0.0,1561097980,,,,0,,5,0.03,14.3,-1558.580078125,12.088476181030273,,,I,437300351426001,
Raw,1732346715434,430177239000000,18,,-1415951756195574751,0.45735931396484375,46.793495130259544,-24.471322811103697,16.559051321989994,77,21,0.0,23567,545133355982230,35,22.3,-67.2497787475586,0.7489999532699585,16,0.0,0.0,1575420030,,,,0,,6,0.12,18.0,-1454.5069580078125,14.086869239807129,,,C,437300351426001,
Raw,1732346715434,430177239000000,18,,-1415951756195574751,0.45735931396484375,46.793495130259544,-24.471322811103697,16.559051321989994,77,29,0.0,23567,545133356478113,53,19.1,-64.4239273071289,0.9404999613761902,16,0.0,0.0,1575420030,,,,0,,6,0.12,14.8,-1454.5069580078125,14.086869239807129,,,C,437300351426001,
Fix,GPS,22.4942129100,88.3688128000,-45.12799072265625,0.0,3.7900925,,1732346716000,0.3,,437315382028918,3.897673,0,,,
Status,1732346716000,43,0,1,3,1575420030,25.90,226.0,42.0,1,1,1,22.3
Status,1732346716000,43,1,1,4,1575420030,19.60,340.0,58.0,1,1,1,16.0
Status,1732346716000,43,2,1,7,1575420030,17.80,288.0,14.0,1,1,0,14.199999
Status,1732346716000,43,3,1,8,1575420030,16.80,165.0,31.0,1,1,0,13.199999
Status,1732346716000,43,4,1,9,1575420030,19.60,323.0,29.0,1,1,1,16.0
Status,1732346716000,43,5,1,16,1575420030,24.70,28.0,56.0,0,1,0,21.1
Status,1732346716000,43,6,1,26,1575420030,16.10,37.0,25.0,1,1,1,12.5
Status,1732346716000,43,7,1,27,1575420030,18.20,123.0,42.0,1,1,1,14.6
Status,1732346716000,43,8,1,31,1575420030,19.90,61.0,21.0,1,1,1,16.3
Status,1732346716000,43,9,1,28,1575420030,0.00,0.0,0.0,0,1,0,0.0
Status,1732346716000,43,10,3,9,1600875010,16.20,4.0,41.0,0,1,1,12.200001
Status,1732346716000,43,11,3,7,1604812540,22.00,326.0,76.0,1,1,0,18.0
Status,1732346716000,43,12,3,8,1605374980,14.10,331.0,24.0,1,1,1,10.1
Status,1732346716000,43,13,3,6,1599750020,0.00,157.0,48.0,0,1,0,0.0
Status,1732346716000,43,14,3,16,1601437440,0.00,0.0,0.0,0,1,0,0.0
Status,1732346716000,43,15,3,11,1602000000,0.00,246.0,13.0,0,1,0,0.0
Status,1732346716000,43,16,3,19,1603687550,0.00,0.0,0.0,0,1,0,0.0
Status,1732346716000,43,17,5,25,1561097980,28.50,286.0,45.0,1,1,1,24.2
Status,1732346716000,43,18,5,24,1561097980,14.90,15.0,48.0,1,1,1,10.599999
Status,1732346716000,43,19,5,16,1561097980,20.30,42.0,44.0,0,1,0,15.999999
Status,1732346716000,43,20,5,14,1561097980,17.10,189.0,65.0,1,1,0,12.8
Status,1732346716000,43,21,5,10,1561097980,18.00,160.0,53.0,1,1,0,13.7
Status,1732346716000,43,22,5,9,1561097980,18.40,12.0,52.0,1,1,0,14.099999
Status,1732346716000,43,23,5,8,1561097980,18.50,180.0,11.0,1,1,0,14.2
Status,1732346716000,43,24,5,7,1561097980,13.70,140.0,57.0,0,1,0,9.4
Status,1732346716000,43,25,5,6,1561097980,19.70,33.0,48.0,0,1,0,15.400001
Status,1732346716000,43,26,5,3,1561097980,19.60,133.0,52.0,1,1,0,15.3
Status,1732346716000,43,27,5,1,1561097980,0.00,105.0,21.0,0,1,0,0.0
Status,1732346716000,43,28,5,2,1561097980,0.00,191.0,62.0,0,1,0,0.0
Status,1732346716000,43,29,5,4,1561097980,0.00,98.0,7.0,0,1,0,0.0
Status,1732346716000,43,30,5,5,1561097980,0.00,236.0,47.0,0,1,0,0.0
Status,1732346716000,43,31,5,11,1561097980,0.00,172.0,4.0,0,1,0,0.0
Status,1732346716000,43,32,5,12,1561097980,0.00,123.0,14.0,0,1,0,0.0
Status,1732346716000,43,33,5,13,1561097980,0.00,188.0,18.0,0,1,0,0.0
Status,1732346716000,43,34,5,23,1561097980,0.00,253.0,4.0,0,1,0,0.0
Status,1732346716000,43,35,5,26,1561097980,0.00,52.0,9.0,0,1,0,0.0
Status,1732346716000,43,36,4,194,1575420030,21.70,59.0,38.0,1,1,1,18.1
Status,1732346716000,43,37,4,196,1575420030,18.80,137.0,27.0,1,1,0,15.199999
Status,1732346716000,43,38,6,7,1575420030,15.60,122.0,28.0,1,1,0,11.3
Status,1732346716000,43,39,6,19,1575420030,14.70,329.0,40.0,1,1,0,10.4
Status,1732346716000,43,40,6,21,1575420030,22.40,253.0,75.0,1,1,0,18.099998
Status,1732346716000,43,41,6,27,1575420030,14.20,32.0,44.0,1,1,0,9.9
Status,1732346716000,43,42,6,29,1575420030,19.50,52.0,73.0,0,1,0,15.2
Raw,1732346716434,430178239000000,18,,-1415951756195574782,0.2841300964355469,46.562137868022546,-27.068964145495265,16.499871447140496,77,3,0.0,16399,545134362118389,24,25.9,404.3269958496094,0.09549999982118607,16,0.0,1902.9177342976868,1575420030,,,,0,,1,0.12,22.299999999999997,0.0,0.0,,,C,437301355591574,
Raw,1732346716434,430178239000000,18,,-1415951756195574782,0.2841300964355469,46.562137868022546,-27.068964145495265,16.499871447140496,77,4,0.0,16399,545134365392752,53,19.6,-376.30572509765625,0.9239999651908875,16,0.0,0.0,1575420030,,,,0,,1,0.12,16.0,0.0,0.0,,,C,437301355591574,
Raw,1732346716434,430178239000000,18,,-1415951756195574782,0.2841300964355469,46.562137868022546,-27.068964145495265,16.499871447140496,77,7,0.0,16399,545134352200670,70,17.8,-278.6660461425781,1.094499945640564,16,0.0,0.0,1575420030,,,,0,,1,0.12,14.200000000000001,0.0,0.0,,,C,437301355591574,
Raw,1732346716434,430178239000000,18,,-1415951756195574782,0.2841300964355469,46.562137868022546,-27.068964145495265,16.499871447140496,77,8,0.0,16399,545134360156932,80,16.8,-603.8018188476562,1.9165000915527344,16,0.0,0.0,1575420030,,,,0,,1,0.12,13.200000000000001,0.0,0.0,,,C,437301355591574,
Raw,1732346716434,430178239000000,18,,-1415951756195574782,0.2841300964355469,46.562137868022546,-27.068964145495265,16.499871447140496,77,9,0.0,16399,545134359175801,53,19.6,-590.27197265625,0.9449999928474426,16,0.0,0.0,1575420030,,,,0,,1,0.12,16.0,0.0,0.0,,,C,437301355591574,
Raw,1732346716434,430178239000000,18,,-1415951756195574782,0.2841300964355469,46.562137868022546,-27.068964145495265,16.499871447140496,77,31,0.0,16399,545134355797322,53,19.9,335.2118225097656,0.9389999508857727,16,0.0,0.0,1575420030,,,,0,,1,0.12,16.299999999999997,0.0,0.0,,,C,437301355591574,
Raw,1732346716434,430178239000000,18,,-1415951756195574782,0.2841300964355469,46.562137868022546,-27.068964145495265,16.499871447140496,77,194,0.0,16399,545134298625422,40,21.7,98.02027893066406,0.8134999871253967,16,0.0,0.0,1575420030,,,,0,,4,0.12,18.099999999999998,0.0,0.0,,,C,437301355591574,
Raw,1732346716434,430178239000000,18,,-1415951756195574782,0.2841300964355469,46.562137868022546,-27.068964145495265,16.499871447140496,77,196,0.0,16399,545134311521536,61,18.8,-21.741052627563477,1.0130000114440918,16,0.0,0.0,1575420030,,,,0,,4,0.12,15.200000000000001,0.0,0.0,,,C,437301355591574,
Raw,1732346716434,430178239000000,18,,-1415951756195574782,0.2841300964355469,46.562137868022546,-27.068964145495265,16.499871447140496,77,7,0.0,49359,37516370442531,35,22.0,-186.60292053222656,0.7414999604225159,16,0.0,0.0,1604812540,,,,0,,3,-0.43,18.0,3799.624267578125,16.573610305786133,,,C,437301355591574,
