# 
# Header Description:
# 
# Version: v3.1.0.3 Platform: 14 Manufacturer: vivo Model: I2012 GNSS Hardware Model Name: qcom;
# 
# Raw,utcTimeMillis,TimeNanos,LeapSecond,TimeUncertaintyNanos,FullBiasNanos,BiasNanos,BiasUncertaintyNanos,DriftNanosPerSecond,DriftUncertaintyNanosPerSecond,HardwareClockDiscontinuityCount,Svid,TimeOffsetNanos,State,ReceivedSvTimeNanos,ReceivedSvTimeUncertaintyNanos,Cn0DbHz,PseudorangeRateMetersPerSecond,PseudorangeRateUncertaintyMetersPerSecond,AccumulatedDeltaRangeState,AccumulatedDeltaRangeMeters,AccumulatedDeltaRangeUncertaintyMeters,CarrierFrequencyHz,CarrierCycles,CarrierPhase,CarrierPhaseUncertainty,MultipathIndicator,SnrInDb,ConstellationType,AgcDb,BasebandCn0DbHz,FullInterSignalBiasNanos,FullInterSignalBiasUncertaintyNanos,SatelliteInterSignalBiasNanos,SatelliteInterSignalBiasUncertaintyNanos,CodeType,ChipsetElapsedRealtimeNanos,IsFullTracking
# 
# UncalAccel,utcTimeMillis,elapsedRealtimeNanos,UncalAccelXMps2,UncalAccelYMps2,UncalAccelZMps2,BiasXMps2,BiasYMps2,BiasZMps2
# 
# Accel,utcTimeMillis,elapsedRealtimeNanos,AccelXMps2,AccelYMps2,AccelZMps2
# 
# UncalGyro,utcTimeMillis,elapsedRealtimeNanos,UncalGyroXRadPerSec,UncalGyroYRadPerSec,UncalGyroZRadPerSec,DriftXRadPerSec,DriftYRadPerSec,DriftZRadPerSec
# 
# Gyro,utcTimeMillis,elapsedRealtimeNanos,GyroXRadPerSec,GyroYRadPerSec,GyroZRadPerSec
# 
# UncalMag,utcTimeMillis,elapsedRealtimeNanos,UncalMagXMicroT,UncalMagYMicroT,UncalMagZMicroT,BiasXMicroT,BiasYMicroT,BiasZMicroT
# 
# Mag,utcTimeMillis,elapsedRealtimeNanos,MagXMicroT,MagYMicroT,MagZMicroT
# 
# Pressure,utcTimeMillis,elapsedRealtimeNanos,PressureHpa
# 
# OrientationDeg,utcTimeMillis,elapsedRealtimeNanos,yawDeg,rollDeg,pitchDeg
# 
# Fix,Provider,LatitudeDegrees,LongitudeDegrees,AltitudeMeters,SpeedMps,AccuracyMeters,BearingDegrees,UnixTimeMillis,SpeedAccuracyMps,BearingAccuracyDegrees,elapsedRealtimeNanos,VerticalAccuracyMeters,MockLocation,NumberOfUsedSignals,VerticalSpeedAccuracyMps,SolutionType
# 
# Nav,Svid,Type,Status,MessageId,Sub-messageId,Data(Bytes)
# 
# Status,UnixTimeMillis,SignalCount,SignalIndex,ConstellationType,Svid,CarrierFrequencyHz,Cn0DbHz,AzimuthDegrees,ElevationDegrees,UsedInFix,HasAlmanacData,HasEphemerisData,BasebandCn0DbHz
# 
# Agc,utcTimeMillis,TimeNanos,LeapSecond,TimeUncertaintyNanos,FullBiasNanos,BiasNanos,BiasUncertaintyNanos,DriftNanosPerSecond,DriftUncertaintyNanosPerSecond,HardwareClockDiscontinuityCount,AgcDb,CarrierFrequencyHz,ConstellationType
# 
Status,,43,0,1,3,1575420030,24.20,233.0,46.0,1,1,1,20.6
Status,,43,1,1,4,1575420030,17.80,337.0,52.0,1,1,1,14.199999
Status,,43,2,1,8,1575420030,20.50,168.0,26.0,0,1,0,16.9
Status,,43,3,1,9,1575420030,23.00,322.0,24.0,1,1,1,19.4
Status,,43,4,1,16,1575420030,16.80,29.0,63.0,1,1,0,13.199999
Status,,43,5,1,26,1575420030,16.10,36.0,30.0,1,1,1,12.5
Status,,43,6,1,27,1575420030,19.90,130.0,39.0,1,1,1,16.3
Status,,43,7,1,31,1575420030,17.30,56.0,23.0,1,1,1,13.699999
Status,,43,8,1,7,1575420030,0.00,284.0,11.0,0,1,0,0.0
Status,,43,9,1,28,1575420030,0.00,75.0,2.0,0,1,0,0.0
Status,,43,10,3,9,1600875010,21.40,357.0,46.0,1,1,1,17.4
Status,,43,11,3,7,1604812540,23.70,337.0,69.0,1,1,0,19.7
Status,,43,12,3,8,1605374980,28.50,331.0,18.0,1,1,1,24.5
Status,,43,13,3,6,1599750020,0.00,151.0,54.0,0,1,0,0.0
Status,,43,14,3,16,1601437440,0.00,35.0,4.0,0,1,0,0.0
Status,,43,15,3,11,1602000000,0.00,240.0,9.0,0,1,0,0.0
Status,,43,16,5,25,1561097980,18.50,279.0,43.0,1,1,1,14.2
Status,,43,17,5,10,1561097980,22.80,160.0,50.0,1,1,0,18.5
Status,,43,18,5,7,1561097980,19.40,140.0,54.0,0,1,0,15.099999
Status,,43,19,5,5,1561097980,21.20,236.0,47.0,1,1,0,16.900002
Status,,43,20,5,3,1561097980,19.40,133.0,52.0,1,1,0,15.099999
Status,,43,21,5,1,1561097980,0.00,105.0,21.0,0,1,0,0.0
Status,,43,22,5,2,1561097980,0.00,191.0,63.0,0,1,0,0.0
Status,,43,23,5,4,1561097980,0.00,98.0,7.0,0,1,0,0.0
Status,,43,24,5,6,1561097980,0.00,32.0,47.0,0,1,0,0.0
Status,,43,25,5,8,1561097980,0.00,180.0,14.0,0,1,0,0.0
Status,,43,26,5,9,1561097980,0.00,11.0,51.0,0,1,0,0.0
Status,,43,27,5,11,1561097980,0.00,175.0,1.0,0,1,0,0.0
Status,,43,28,5,12,1561097980,0.00,127.0,11.0,0,1,0,0.0
Status,,43,29,5,13,1561097980,0.00,188.0,21.0,0,1,0,0.0
Status,,43,30,5,14,1561097980,0.00,192.0,71.0,0,1,0,0.0
Status,,43,31,5,16,1561097980,0.00,39.0,44.0,0,1,0,0.0
Status,,43,32,5,21,1561097980,0.00,0.0,0.0,0,1,0,0.0
Status,,43,33,5,23,1561097980,0.00,248.0,2.0,0,1,0,0.0
Status,,43,34,5,24,1561097980,0.00,9.0,51.0,0,1,1,0.0
Status,,43,35,5,26,1561097980,0.00,49.0,12.0,0,1,0,0.0
Status,,43,36,4,194,1575420030,21.50,60.0,39.0,1,1,1,17.9
Status,,43,37,4,196,1575420030,19.40,136.0,28.0,1,1,0,15.799999
Status,,43,38,6,19,1575420030,19.80,327.0,37.0,1,1,0,15.499999
Status,,43,39,6,21,1575420030,19.50,236.0,72.0,1,1,0,15.2
Status,,43,40,6,29,1575420030,18.30,36.0,71.0,0,1,0,13.999999
Status,,43,41,6,7,1575420030,0.00,118.0,32.0,0,1,0,0.0
Status,,43,42,6,27,1575420030,0.00,33.0,48.0,0,1,0,0.0
Raw,1732345970446,429432252000000,18,,-1415951756194929802,0.6774802207946777,112.02661698916927,14.291959658123403,20.57076671437665,74,3,0.0,16399,544388375424146,27,24.2,354.9167175292969,0.7039999961853027,16,0.0,0.0,1575420030,,,,0,,1,4.18,20.599999999999998,0.0,0.0,,,C,436555366464775,
Raw,1732345970446,429432252000000,18,,-1415951756194929802,0.6774802207946777,112.02661698916927,14.291959658123403,20.57076671437665,74,8,0.0,16399,544388371000654,46,20.5,-611.08056640625,0.8869999647140503,16,0.0,0.0,1575420030,,,,0,,1,4.18,16.9,0.0,0.0,,,C,436555366464775,
Raw,1732345970446,429432252000000,18,,-1415951756194929802,0.6774802207946777,112.02661698916927,14.291959658123403,20.57076671437665,74,9,0.0,16399,544388370060803,31,23.0,-593.0216674804688,0.7565000057220459,16,0.0,0.0,1575420030,,,,0,,1,4.18,19.4,0.0,0.0,,,C,436555366464775,
Raw,1732345970446,429432252000000,18,,-1415951756194929802,0.6774802207946777,112.02661698916927,14.291959658123403,20.57076671437665,74,27,0.0,16399,544388374077733,53,19.9,-415.5538024902344,0.9524999856948853,16,0.0,0.0,1575420030,,,,0,,1,4.18,16.299999999999997,0.0,0.0,,,C,436555366464775,
Raw,1732345970446,429432252000000,18,,-1415951756194929802,0.6774802207946777,112.02661698916927,14.291959658123403,20.57076671437665,74,194,0.0,16399,544388311248800,40,21.5,113.48163604736328,0.8269999623298645,16,0.0,0.0,1575420030,,,,0,,4,4.18,17.9,0.0,0.0,,,C,436555366464775,
Raw,1732345970446,429432252000000,18,,-1415951756194929802,0.6774802207946777,112.02661698916927,14.291959658123403,20.57076671437665,74,7,0.0,49359,36770382211642,31,23.7,-286.0223388671875,0.7204999923706055,16,0.0,0.0,1604812540,,,,0,,3,3.07,19.7,3803.451171875,13.214512825012207,,,C,436555366464775,
Raw,1732345970446,429432252000000,18,,-1415951756194929802,0.6774802207946777,112.02661698916927,14.291959658123403,20.57076671437665,74,8,0.0,49359,36770370973102,17,28.5,-745.9031372070312,0.062300000339746475,16,0.0,1867.4108932046968,1605374980,,,,0,,3,3.07,24.5,3803.451171875,13.214512825012207,,,C,436555366464775,
Raw,1732345970446,429432252000000,18,,-1415951756194929802,0.6774802207946777,112.02661698916927,14.291959658123403,20.57076671437665,74,25,0.0,16399,544374370453540,61,18.5,-134.9269561767578,1.0264999866485596,16,0.0,0.0,1561097980,,,,0,,5,3.61,14.2,-1543.96728515625,12.979399681091309,,,I,436555366464775,
Raw,1732345970446,429432252000000,18,,-1415951756194929802,0.6774802207946777,112.02661698916927,14.291959658123403,20.57076671437665,74,7,0.0,16399,544374323674924,53,19.4,-202.65928649902344,0.968999981880188,16,0.0,0.0,1561097980,,,,0,,5,3.61,15.099999999999998,-1543.96728515625,12.979399681091309,,,I,436555366464775,
Raw,1732345970446,429432252000000,18,,-1415951756194929802,0.6774802207946777,112.02661698916927,14.291959658123403,20.57076671437665,74,19,0.0,23567,544388363510288,53,19.8,-401.0343933105469,0.8809999823570251,16,0.0,0.0,1575420030,,,,0,,6,4.1,15.5,-1474.4703369140625,13.301068305969238,,,C,436555366464775,
Fix,GPS,22.4942977200,88.3686986600,-49.36328125,0.0,4.811405,,1732345971000,0.49648768,,436570379560868,7.2826495,0,,,
Status,1732345971000,43,0,1,3,1575420030,25.10,233.0,46.0,1,1,1,21.5
Status,1732345971000,43,1,1,4,1575420030,16.20,337.0,52.0,1,1,1,12.6
Status,1732345971000,43,2,1,8,1575420030,19.80,168.0,26.0,1,1,0,16.199999
Status,1732345971000,43,3,1,9,1575420030,25.70,322.0,24.0,1,1,1,22.1
Status,1732345971000,43,4,1,16,1575420030,16.80,29.0,63.0,1,1,0,13.199999
Status,1732345971000,43,5,1,26,1575420030,16.10,36.0,30.0,1,1,1,12.5
Status,1732345971000,43,6,1,27,1575420030,21.10,130.0,39.0,1,1,1,17.5
Status,1732345971000,43,7,1,31,1575420030,17.30,56.0,23.0,1,1,1,13.699999
Status,1732345971000,43,8,1,7,1575420030,0.00,284.0,11.0,0,1,0,0.0
Status,1732345971000,43,9,1,28,1575420030,0.00,75.0,2.0,0,1,0,0.0
Status,1732345971000,43,10,3,9,1600875010,15.80,357.0,46.0,1,1,1,11.8
Status,1732345971000,43,11,3,7,1604812540,20.80,337.0,69.0,1,1,0,16.8
Status,1732345971000,43,12,3,8,1605374980,28.30,331.0,18.0,1,1,1,24.3
Status,1732345971000,43,13,3,6,1599750020,0.00,151.0,54.0,0,1,0,0.0
Status,1732345971000,43,14,3,16,1601437440,0.00,35.0,4.0,0,1,0,0.0
Status,1732345971000,43,15,3,11,1602000000,0.00,240.0,9.0,0,1,0,0.0
Status,1732345971000,43,16,5,25,1561097980,20.80,279.0,43.0,1,1,1,16.5
Status,1732345971000,43,17,5,10,1561097980,22.80,160.0,50.0,1,1,0,18.5
Status,1732345971000,43,18,5,9,1561097980,16.40,11.0,51.0,0,1,0,12.099999
Status,1732345971000,43,19,5,7,1561097980,18.10,140.0,54.0,1,1,0,13.8
Status,1732345971000,43,20,5,5,1561097980,21.20,236.0,47.0,1,1,0,16.900002
Status,1732345971000,43,21,5,3,1561097980,19.40,133.0,52.0,1,1,0,15.099999
Status,1732345971000,43,22,5,1,1561097980,0.00,105.0,21.0,0,1,0,0.0
Status,1732345971000,43,23,5,2,1561097980,0.00,191.0,63.0,0,1,0,0.0
Status,1732345971000,43,24,5,4,1561097980,0.00,98.0,7.0,0,1,0,0.0
Status,1732345971000,43,25,5,6,1561097980,0.00,32.0,47.0,0,1,0,0.0
Status,1732345971000,43,26,5,8,1561097980,0.00,180.0,14.0,0,1,0,0.0
Status,1732345971000,43,27,5,11,1561097980,0.00,175.0,1.0,0,1,0,0.0
Status,1732345971000,43,28,5,12,1561097980,0.00,127.0,11.0,0,1,0,0.0
Status,1732345971000,43,29,5,13,1561097980,0.00,188.0,21.0,0,1,0,0.0
Status,1732345971000,43,30,5,14,1561097980,0.00,192.0,71.0,0,1,0,0.0
Status,1732345971000,43,31,5,16,1561097980,0.00,39.0,44.0,0,1,0,0.0
Status,1732345971000,43,32,5,21,1561097980,0.00,0.0,0.0,0,1,0,0.0
Status,1732345971000,43,33,5,23,1561097980,0.00,248.0,2.0,0,1,0,0.0
Status,1732345971000,43,34,5,24,1561097980,0.00,9.0,51.0,0,1,1,0.0
Status,1732345971000,43,35,5,26,1561097980,0.00,49.0,12.0,0,1,0,0.0
Status,1732345971000,43,36,4,194,1575420030,22.30,60.0,39.0,1,1,1,18.699999
Status,1732345971000,43,37,4,196,1575420030,19.40,136.0,28.0,1,1,0,15.799999
Status,1732345971000,43,38,6,19,1575420030,22.40,327.0,37.0,1,1,0,18.099998
Status,1732345971000,43,39,6,21,1575420030,19.50,236.0,72.0,1,1,0,15.2
Status,1732345971000,43,40,6,29,1575420030,18.30,36.0,71.0,0,1,0,13.999999
Status,1732345971000,43,41,6,7,1575420030,0.00,118.0,32.0,0,1,0,0.0
Status,1732345971000,43,42,6,27,1575420030,0.00,33.0,48.0,0,1,0,0.0
Raw,1732345971446,429433252000000,18,,-1415951756194929786,0.6068215370178223,78.64391955081373,15.2801667031551,18.099727398920244,74,3,0.0,16399,544389375422967,24,25.1,358.0185241699219,0.6389999985694885,16,0.0,0.0,1575420030,,,,0,,1,4.07,21.5,0.0,0.0,,,C,436556370788368,
Raw,1732345971446,429433252000000,18,,-1415951756194929786,0.6068215370178223,78.64391955081373,15.2801667031551,18.099727398920244,74,4,0.0,16399,544389376773548,80,16.2,-408.10382080078125,1.940500020980835,16,0.0,0.0,1575420030,,,,0,,1,4.07,12.6,0.0,0.0,,,C,436556370788368,
Raw,1732345971446,429433252000000,18,,-1415951756194929786,0.6068215370178223,78.64391955081373,15.2801667031551,18.099727398920244,74,8,0.0,16399,544389371002625,53,19.8,-608.2737426757812,0.9329999685287476,16,0.0,0.0,1575420030,,,,0,,1,4.07,16.2,0.0,0.0,,,C,436556370788368,
Raw,1732345971446,429433252000000,18,,-1415951756194929786,0.6068215370178223,78.64391955081373,15.2801667031551,18.099727398920244,74,9,0.0,16399,544389370062794,24,25.7,-590.2310791015625,0.10750000178813934,16,0.0,1902.9177342976868,1575420030,,,,0,,1,4.07,22.099999999999998,0.0,0.0,,,C,436556370788368,
Raw,1732345971446,429433252000000,18,,-1415951756194929786,0.6068215370178223,78.64391955081373,15.2801667031551,18.099727398920244,74,27,0.0,16399,544389374079137,40,21.1,-411.624267578125,0.8675000071525574,16,0.0,0.0,1575420030,,,,0,,1,4.07,17.5,0.0,0.0,,,C,436556370788368,
Raw,1732345971446,429433252000000,18,,-1415951756194929786,0.6068215370178223,78.64391955081373,15.2801667031551,18.099727398920244,74,194,0.0,16399,544389311248439,35,22.3,116.88788604736328,0.8029999732971191,16,0.0,0.0,1575420030,,,,0,,4,4.07,18.7,0.0,0.0,,,C,436556370788368,
Raw,1732345971446,429433252000000,18,,-1415951756194929786,0.6068215370178223,78.64391955081373,15.2801667031551,18.099727398920244,74,9,0.0,49359,36771378652463,92,15.8,391.70819091796875,2.7835001945495605,16,0.0,0.0,1600875010,,,,0,,3,2.66,11.8,3803.43798828125,13.239766120910645,,,C,436556370788368,
Raw,1732345971446,429433252000000,18,,-1415951756194929786,0.6068215370178223,78.64391955081373,15.2801667031551,18.099727398920244,74,7,0.0,49359,36771382212566,46,20.8,-282.6224365234375,0.8495000004768372,16,0.0,0.0,1604812540,,,,0,,3,2.66,16.8,3803.43798828125,13.239766120910645,,,C,436556370788368,
Raw,1732345971446,429433252000000,18,,-1415951756194929786,0.6068215370178223,78.64391955081373,15.2801667031551,18.099727398920244,74,8,0.0,49359,36771370975642,17,28.3,-742.8275146484375,0.04729999974370003,16,0.0,1867.4108932046968,1605374980,,,,0,,3,2.66,24.3,3803.43798828125,13.239766120910645,,,C,436556370788368,
Raw,1732345971446,429433252000000,18,,-1415951756194929786,0.6068215370178223,78.64391955081373,15.2801667031551,18.099727398920244,74,25,0.0,16399,544375370454007,46,20.8,-132.47845458984375,0.8014999628067017,16,0.0,0.0,1561097980,,,,0,,5,3.57,16.5,-1543.9686279296875,13.005732536315918,,,I,436556370788368,
Raw,1732345971446,429433252000000,18,,-1415951756194929786,0.6068215370178223,78.64391955081373,15.2801667031551,18.099727398920244,74,9,0.0,16399,544375321731888,80,16.4,-22.708669662475586,1.8280000686645508,16,0.0,0.0,1561097980,,,,0,,5,3.57,12.099999999999998,-1543.9686279296875,13.005732536315918,,,I,436556370788368,
Raw,1732345971446,429433252000000,18,,-1415951756194929786,0.6068215370178223,78.64391955081373,15.2801667031551,18.099727398920244,74,7,0.0,16399,544375323675602,61,18.1,-198.59764099121094,1.0010000467300415,16,0.0,0.0,1561097980,,,,0,,5,3.57,13.8,-1543.9686279296875,13.005732536315918,,,I,436556370788368,
Raw,1732345971446,429433252000000,18,,-1415951756194929786,0.6068215370178223,78.64391955081373,15.2801667031551,18.099727398920244,74,19,0.0,23567,544389363511616,35,22.4,-397.86602783203125,0.7489999532699585,16,0.0,0.0,1575420030,,,,0,,6,4.03,18.099999999999998,-1474.4715576171875,13.32695198059082,,,C,436556370788368,
Fix,GPS,22.4943011600,88.3686967200,-49.51202392578125,0.0,4.0988016,,1732345972000,0.19849433,,436571381174514,6.630909,0,,,
Status,1732345972000,43,0,1,3,1575420030,24.00,233.0,46.0,1,1,1,20.4
Status,1732345972000,43,1,1,4,1575420030,16.20,337.0,52.0,1,1,1,12.6
Status,1732345972000,43,2,1,8,1575420030,19.60,168.0,26.0,1,1,0,16.0
Status,1732345972000,43,3,1,9,1575420030,25.80,322.0,24.0,1,1,1,22.199999
Status,1732345972000,43,4,1,16,1575420030,16.80,29.0,63.0,1,1,0,13.199999
Status,1732345972000,43,5,1,26,1575420030,16.10,36.0,30.0,1,1,1,12.5
Status,1732345972000,43,6,1,27,1575420030,21.00,130.0,39.0,1,1,1,17.4
Status,1732345972000,43,7,1,31,1575420030,17.30,56.0,23.0,1,1,1,13.699999
Status,1732345972000,43,8,1,7,1575420030,0.00,284.0,11.0,0,1,0,0.0
Status,1732345972000,43,9,1,28,1575420030,0.00,75.0,2.0,0,1,0,0.0
Status,1732345972000,43,10,3,9,1600875010,15.80,357.0,46.0,1,1,1,11.8
Status,1732345972000,43,11,3,7,1604812540,21.90,337.0,69.0,1,1,0,17.9
Status,1732345972000,43,12,3,8,1605374980,28.80,331.0,18.0,1,1,1,24.8
Status,1732345972000,43,13,3,6,1599750020,0.00,151.0,54.0,0,1,0,0.0
Status,1732345972000,43,14,3,16,1601437440,0.00,35.0,4.0,0,1,0,0.0
Status,1732345972000,43,15,3,11,1602000000,0.00,240.0,9.0,0,1,0,0.0
Status,1732345972000,43,16,5,25,1561097980,19.60,279.0,43.0,1,1,1,15.3
Status,1732345972000,43,17,5,24,1561097980,21.30,9.0,51.0,0,1,1,17.0
Status,1732345972000,43,18,5,10,1561097980,22.80,160.0,50.0,1,1,0,18.5
Status,1732345972000,43,19,5,9,1561097980,18.30,11.0,51.0,1,1,0,13.999999
Status,1732345972000,43,20,5,7,1561097980,20.10,140.0,54.0,1,1,0,15.8
Status,1732345972000,43,21,5,5,1561097980,21.20,236.0,47.0,1,1,0,16.900002
Status,1732345972000,43,22,5,3,1561097980,19.40,133.0,52.0,1,1,0,15.099999
Status,1732345972000,43,23,5,1,1561097980,0.00,105.0,21.0,0,1,0,0.0
Status,1732345972000,43,24,5,2,1561097980,0.00,191.0,63.0,0,1,0,0.0
Status,1732345972000,43,25,5,4,1561097980,0.00,98.0,7.0,0,1,0,0.0
Status,1732345972000,43,26,5,6,1561097980,0.00,32.0,47.0,0,1,0,0.0
Status,1732345972000,43,27,5,8,1561097980,0.00,180.0,14.0,0,1,0,0.0
Status,1732345972000,43,28,5,11,1561097980,0.00,175.0,1.0,0,1,0,0.0
Status,1732345972000,43,29,5,12,1561097980,0.00,127.0,11.0,0,1,0,0.0
Status,1732345972000,43,30,5,13,1561097980,0.00,188.0,21.0,0,1,0,0.0
Status,1732345972000,43,31,5,14,1561097980,0.00,192.0,71.0,0,1,0,0.0
Status,1732345972000,43,32,5,16,1561097980,0.00,39.0,44.0,0,1,0,0.0
Status,1732345972000,43,33,5,21,1561097980,0.00,0.0,0.0,0,1,0,0.0
Status,1732345972000,43,34,5,23,1561097980,0.00,248.0,2.0,0,1,0,0.0
Status,1732345972000,43,35,5,26,1561097980,0.00,49.0,12.0,0,1,0,0.0
Status,1732345972000,43,36,4,194,1575420030,23.40,60.0,39.0,1,1,1,19.8
Status,1732345972000,43,37,4,196,1575420030,16.50,136.0,28.0,1,1,0,12.9
Status,1732345972000,43,38,6,19,1575420030,21.30,327.0,37.0,1,1,0,17.0
Status,1732345972000,43,39,6,21,1575420030,16.80,236.0,72.0,1,1,0,12.499999
Status,1732345972000,43,40,6,29,1575420030,18.30,36.0,71.0,0,1,0,13.999999
Status,1732345972000,43,41,6,7,1575420030,0.00,118.0,32.0,0,1,0,0.0
Status,1732345972000,43,42,6,27,1575420030,0.00,33.0,48.0,0,1,0,0.0
Raw,1732345972446,429434252000000,18,,-1415951756194929770,0.6330204010009766,62.40172660909593,26.02716326373785,12.791950956691096,74,3,0.0,16399,544390375421797,27,24.0,357.3905334472656,0.6889999508857727,16,0.0,0.0,1575420030,,,,0,,1,4.13,20.4,0.0,0.0,,,C,436557370697379,
Raw,1732345972446,429434252000000,18,,-1415951756194929770,0.6330204010009766,62.40172660909593,26.02716326373785,12.791950956691096,74,8,0.0,16399,544390371004705,53,19.6,-609.5106201171875,0.9329999685287476,16,0.0,0.0,1575420030,,,,0,,1,4.13,16.0,0.0,0.0,,,C,436557370697379,
Raw,1732345972446,429434252000000,18,,-1415951756194929770,0.6330204010009766,62.40172660909593,26.02716326373785,12.791950956691096,74,9,0.0,16399,544390370064739,24,25.8,-590.8763427734375,0.10750000178813934,16,0.0,1902.9177342976868,1575420030,,,,0,,1,4.13,22.2,0.0,0.0,,,C,436557370697379,
Raw,1732345972446,429434252000000,18,,-1415951756194929770,0.6330204010009766,62.40172660909593,26.02716326373785,12.791950956691096,74,27,0.0,16399,544390374080514,40,21.0,-412.9943542480469,0.8675000071525574,16,0.0,0.0,1575420030,,,,0,,1,4.13,17.4,0.0,0.0,,,C,436557370697379,
Raw,1732345972446,429434252000000,18,,-1415951756194929770,0.6330204010009766,62.40172660909593,26.02716326373785,12.791950956691096,74,194,0.0,16399,544390311248086,31,23.4,116.48827362060547,0.6829999685287476,16,0.0,0.0,1575420030,,,,0,,4,4.13,19.799999999999997,0.0,0.0,,,C,436557370697379,
Raw,1732345972446,429434252000000,18,,-1415951756194929770,0.6330204010009766,62.40172660909593,26.02716326373785,12.791950956691096,74,196,0.0,16399,544390323821317,80,16.5,-22.349992752075195,2.5810000896453857,16,0.0,0.0,1575420030,,,,0,,4,4.13,12.9,0.0,0.0,,,C,436557370697379,
Raw,1732345972446,429434252000000,18,,-1415951756194929770,0.6330204010009766,62.40172660909593,26.02716326373785,12.791950956691096,74,7,0.0,49359,36772382213526,40,21.9,-283.36968994140625,0.7894999980926514,16,0.0,0.0,1604812540,,,,0,,3,2.74,17.9,3803.424072265625,13.264719009399414,,,C,436557370697379,
Raw,1732345972446,429434252000000,18,,-1415951756194929770,0.6330204010009766,62.40172660909593,26.02716326373785,12.791950956691096,74,8,0.0,49359,36772370978028,17,28.8,-743.4847412109375,0.04729999974370003,16,0.0,1867.4108932046968,1605374980,,,,0,,3,2.74,24.8,3803.424072265625,13.264719009399414,,,C,436557370697379,
Raw,1732345972446,429434252000000,18,,-1415951756194929770,0.6330204010009766,62.40172660909593,26.02716326373785,12.791950956691096,74,25,0.0,16399,544376370454417,53,19.6,-133.52505493164062,0.9314999580383301,16,0.0,0.0,1561097980,,,,0,,5,3.61,15.3,-1543.9730224609375,13.031778335571289,,,I,436557370697379,
Raw,1732345972446,429434252000000,18,,-1415951756194929770,0.6330204010009766,62.40172660909593,26.02716326373785,12.791950956691096,74,24,0.0,16399,544376372320789,40,21.3,266.0707092285156,2.2144999504089355,16,0.0,0.0,1561097980,,,,0,,5,3.61,17.0,-1543.9730224609375,13.031778335571289,,,I,436557370697379,
Raw,1732345972446,429434252000000,18,,-1415951756194929770,0.6330204010009766,62.40172660909593,26.02716326373785,12.791950956691096,74,9,0.0,16399,544376321731999,61,18.3,-21.316383361816406,0.9980000257492065,16,0.0,0.0,1561097980,,,,0,,5,3.61,14.0,-1543.9730224609375,13.031778335571289,,,I,436557370697379,
Raw,1732345972446,429434252000000,18,,-1415951756194929770,0.6330204010009766,62.40172660909593,26.02716326373785,12.791950956691096,74,7,0.0,16399,544376323676256,46,20.1,-198.5304412841797,0.8510000109672546,16,0.0,0.0,1561097980,,,,0,,5,3.61,15.8,-1543.9730224609375,13.031778335571289,,,I,436557370697379,
Raw,1732345972446,429434252000000,18,,-1415951756194929770,0.6330204010009766,62.40172660909593,26.02716326373785,12.791950956691096,74,19,0.0,23567,544390363512958,40,21.3,-399.1219787597656,0.8089999556541443,16,0.0,0.0,1575420030,,,,0,,6,4.06,17.0,-1474.47412109375,13.352629661560059,,,C,436557370697379,
Raw,1732345972446,429434252000000,18,,-1415951756194929770,0.6330204010009766,62.40172660909593,26.02716326373785,12.791950956691096,74,21,0.0,23567,544390368125089,80,16.8,-106.69766235351562,2.615499973297119,16,0.0,0.0,1575420030,,,,0,,6,4.06,12.5,-1474.47412109375,13.352629661560059,,,C,436557370697379,
Fix,GPS,22.4942981900,88.3686991700,-49.103057861328125,0.0,3.8728175,,1732345973000,0.12727922,,436572389458368,6.2950525,0,,,
Status,1732345973000,43,0,1,3,1575420030,24.70,233.0,46.0,1,1,1,21.1
Status,1732345973000,43,1,1,4,1575420030,17.10,337.0,52.0,1,1,1,13.5
Status,1732345973000,43,2,1,8,1575420030,20.10,168.0,26.0,1,1,0,16.5
Status,1732345973000,43,3,1,9,1575420030,27.10,322.0,24.0,1,1,1,23.5
Status,1732345973000,43,4,1,16,1575420030,16.80,29.0,63.0,1,1,0,13.199999
Status,1732345973000,43,5,1,26,1575420030,16.10,36.0,30.0,1,1,1,12.5
Status,1732345973000,43,6,1,27,1575420030,20.30,130.0,39.0,1,1,1,16.699999
Status,1732345973000,43,7,1,31,1575420030,17.30,56.0,23.0,1,1,1,13.699999
Status,1732345973000,43,8,1,7,1575420030,0.00,284.0,11.0,0,1,0,0.0
Status,1732345973000,43,9,1,28,1575420030,0.00,75.0,2.0,0,1,0,0.0
Status,1732345973000,43,10,3,9,1600875010,17.90,357.0,46.0,1,1,1,13.9
Status,1732345973000,43,11,3,7,1604812540,21.40,337.0,69.0,1,1,0,17.4
Status,1732345973000,43,12,3,8,1605374980,29.20,331.0,18.0,1,1,1,25.2
Status,1732345973000,43,13,3,6,1599750020,0.00,151.0,54.0,0,1,0,0.0
Status,1732345973000,43,14,3,16,1601437440,0.00,35.0,4.0,0,1,0,0.0
Status,1732345973000,43,15,3,11,1602000000,0.00,240.0,9.0,0,1,0,0.0
Status,1732345973000,43,16,5,25,1561097980,18.60,279.0,43.0,1,1,1,14.3
Status,1732345973000,43,17,5,24,1561097980,21.30,9.0,51.0,1,1,1,17.0
Status,1732345973000,43,18,5,10,1561097980,22.80,160.0,50.0,1,1,0,18.5
Status,1732345973000,43,19,5,9,1561097980,17.80,11.0,51.0,1,1,0,13.499999
Status,1732345973000,43,20,5,7,1561097980,19.20,140.0,54.0,1,1,0,14.900001
Status,1732345973000,43,21,5,5,1561097980,21.20,236.0,47.0,1,1,0,16.900002
Status,1732345973000,43,22,5,3,1561097980,19.40,133.0,52.0,1,1,0,15.099999
Status,1732345973000,43,23,5,1,1561097980,0.00,105.0,21.0,0,1,0,0.0
Status,1732345973000,43,24,5,2,1561097980,0.00,191.0,63.0,0,1,0,0.0
Status,1732345973000,43,25,5,4,1561097980,0.00,98.0,7.0,0,1,0,0.0
Status,1732345973000,43,26,5,6,1561097980,0.00,32.0,47.0,0,1,0,0.0
Status,1732345973000,43,27,5,8,1561097980,0.00,180.0,14.0,0,1,0,0.0
Status,1732345973000,43,28,5,11,1561097980,0.00,175.0,1.0,0,1,0,0.0
Status,1732345973000,43,29,5,12,1561097980,0.00,127.0,11.0,0,1,0,0.0
Status,1732345973000,43,30,5,13,1561097980,0.00,188.0,21.0,0,1,0,0.0
Status,1732345973000,43,31,5,14,1561097980,0.00,192.0,71.0,0,1,0,0.0
Status,1732345973000,43,32,5,16,1561097980,0.00,39.0,44.0,0,1,0,0.0
Status,1732345973000,43,33,5,21,1561097980,0.00,0.0,0.0,0,1,0,0.0
Status,1732345973000,43,34,5,23,1561097980,0.00,248.0,2.0,0,1,0,0.0
Status,1732345973000,43,35,5,26,1561097980,0.00,49.0,12.0,0,1,0,0.0
Status,1732345973000,43,36,4,194,1575420030,22.10,60.0,39.0,1,1,1,18.5
Status,1732345973000,43,37,4,196,1575420030,16.50,136.0,28.0,1,1,0,12.9
Status,1732345973000,43,38,6,19,1575420030,21.80,327.0,37.0,1,1,0,17.5
Status,1732345973000,43,39,6,21,1575420030,17.50,236.0,72.0,1,1,0,13.2
Status,1732345973000,43,40,6,29,1575420030,18.30,36.0,71.0,0,1,0,13.999999
Status,1732345973000,43,41,6,7,1575420030,0.00,118.0,32.0,0,1,0,0.0
Status,1732345973000,43,42,6,27,1575420030,0.00,33.0,48.0,0,1,0,0.0
Raw,1732345973446,429435252000000,18,,-1415951756194929745,0.0932765007019043,55.47359251067974,23.455416206298196,12.505315784907141,74,3,0.0,16399,544391375420562,27,24.7,356.32489013671875,0.6389999985694885,16,0.0,0.0,1575420030,,,,0,,1,4.13,21.099999999999998,0.0,0.0,,,C,436558376774149,
Raw,1732345973446,429435252000000,18,,-1415951756194929745,0.0932765007019043,55.47359251067974,23.455416206298196,12.505315784907141,74,4,0.0,16399,544391376776293,70,17.1,-406.36260986328125,1.940500020980835,16,0.0,0.0,1575420030,,,,0,,1,4.13,13.500000000000002,0.0,0.0,,,C,436558376774149,
Raw,1732345973446,429435252000000,18,,-1415951756194929745,0.0932765007019043,55.47359251067974,23.455416206298196,12.505315784907141,74,8,0.0,16399,544391371006665,46,20.1,-610.5382080078125,0.9329999685287476,16,0.0,0.0,1575420030,,,,0,,1,4.13,16.5,0.0,0.0,,,C,436558376774149,
Raw,1732345973446,429435252000000,18,,-1415951756194929745,0.0932765007019043,55.47359251067974,23.455416206298196,12.505315784907141,74,9,0.0,16399,544391370066729,19,27.1,-591.99072265625,0.05719999969005585,16,0.0,1902.9177342976868,1575420030,,,,0,,1,4.13,23.5,0.0,0.0,,,C,436558376774149,
Raw,1732345973446,429435252000000,18,,-1415951756194929745,0.0932765007019043,55.47359251067974,23.455416206298196,12.505315784907141,74,27,0.0,16399,544391374081843,46,20.3,-413.1941833496094,0.9375,16,0.0,0.0,1575420030,,,,0,,1,4.13,16.7,0.0,0.0,,,C,436558376774149,
Raw,1732345973446,429435252000000,18,,-1415951756194929745,0.0932765007019043,55.47359251067974,23.455416206298196,12.505315784907141,74,194,0.0,16399,544391311247773,35,22.1,114.9373779296875,0.8029999732971191,16,0.0,0.0,1575420030,,,,0,,4,4.13,18.5,0.0,0.0,,,C,436558376774149,
Raw,1732345973446,429435252000000,18,,-1415951756194929745,0.0932765007019043,55.47359251067974,23.455416206298196,12.505315784907141,74,9,0.0,49359,36773378649836,70,17.9,392.41046142578125,1.8535000085830688,16,0.0,0.0,1600875010,,,,0,,3,2.71,13.899999999999999,3803.422119140625,13.289131164550781,,,C,436558376774149,
Raw,1732345973446,429435252000000,18,,-1415951756194929745,0.0932765007019043,55.47359251067974,23.455416206298196,12.505315784907141,74,7,0.0,49359,36773382214467,40,21.4,-283.6218566894531,0.7894999980926514,16,0.0,0.0,1604812540,,,,0,,3,2.71,17.4,3803.422119140625,13.289131164550781,,,C,436558376774149,
Raw,1732345973446,429435252000000,18,,-1415951756194929745,0.0932765007019043,55.47359251067974,23.455416206298196,12.505315784907141,74,8,0.0,49359,36773370980586,16,29.2,-744.568115234375,0.045900002121925354,16,0.0,1867.4108932046968,1605374980,,,,0,,3,2.71,25.2,3803.422119140625,13.289131164550781,,,C,436558376774149,
Raw,1732345973446,429435252000000,18,,-1415951756194929745,0.0932765007019043,55.47359251067974,23.455416206298196,12.505315784907141,74,25,0.0,16399,544377370454919,61,18.6,-133.9667510986328,1.0115000009536743,16,0.0,0.0,1561097980,,,,0,,5,3.61,14.3,-1543.9727783203125,13.057260513305664,,,I,436558376774149,
Raw,1732345973446,429435252000000,18,,-1415951756194929745,0.0932765007019043,55.47359251067974,23.455416206298196,12.505315784907141,74,24,0.0,16399,544377372319884,40,21.3,265.177734375,0.8044999837875366,16,0.0,0.0,1561097980,,,,0,,5,3.61,17.0,-1543.9727783203125,13.057260513305664,,,I,436558376774149,
Raw,1732345973446,429435252000000,18,,-1415951756194929745,0.0932765007019043,55.47359251067974,23.455416206298196,12.505315784907141,74,9,0.0,16399,544377321732087,70,17.8,-21.72926902770996,0.9980000257492065,16,0.0,0.0,1561097980,,,,0,,5,3.61,13.5,-1543.9727783203125,13.057260513305664,,,I,436558376774149,
Raw,1732345973446,429435252000000,18,,-1415951756194929745,0.0932765007019043,55.47359251067974,23.455416206298196,12.505315784907141,74,7,0.0,16399,544377323676923,53,19.2,-200.77728271484375,0.9210000038146973,16,0.0,0.0,1561097980,,,,0,,5,3.61,14.899999999999999,-1543.9727783203125,13.057260513305664,,,I,436558376774149,
Raw,1732345973446,429435252000000,18,,-1415951756194929745,0.0932765007019043,55.47359251067974,23.455416206298196,12.505315784907141,74,19,0.0,23567,544391363514261,40,21.8,-399.58819580078125,0.7489999532699585,16,0.0,0.0,1575420030,,,,0,,6,4.06,17.5,-1474.47265625,13.378118515014648,,,C,436558376774149,
Raw,1732345973446,429435252000000,18,,-1415951756194929745,0.0932765007019043,55.47359251067974,23.455416206298196,12.505315784907141,74,21,0.0,23567,544391368125476,70,17.5,-107.51592254638672,1.1004999876022339,16,0.0,0.0,1575420030,,,,0,,6,4.06,13.2,-1474.47265625,13.378118515014648,,,C,436558376774149,
Fix,GPS,22.4943032500,88.3687027200,-48.95263671875,0.0,3.8076682,,1732345974000,0.10630146,,436573379321961,5.9693446,0,,,
Status,1732345974000,43,0,1,3,1575420030,24.00,233.0,46.0,1,1,1,20.4
Status,1732345974000,43,1,1,4,1575420030,17.10,337.0,52.0,1,1,1,13.5
Status,1732345974000,43,2,1,8,1575420030,21.80,168.0,26.0,1,1,0,18.199999
Status,1732345974000,43,3,1,9,1575420030,26.50,322.0,24.0,1,1,1,22.9
Status,1732345974000,43,4,1,16,1575420030,16.80,29.0,63.0,1,1,0,13.199999
Status,1732345974000,43,5,1,26,1575420030,16.10,36.0,30.0,1,1,1,12.5
Status,1732345974000,43,6,1,27,1575420030,22.00,130.0,39.0,1,1,1,18.4
Status,1732345974000,43,7,1,31,1575420030,17.30,56.0,23.0,1,1,1,13.699999
Status,1732345974000,43,8,1,7,1575420030,0.00,284.0,11.0,0,1,0,0.0
Status,1732345974000,43,9,1,28,1575420030,0.00,75.0,2.0,0,1,0,0.0
Status,1732345974000,43,10,3,9,1600875010,19.30,357.0,46.0,1,1,1,15.299999
Status,1732345974000,43,11,3,7,1604812540,20.90,337.0,69.0,1,1,0,16.9
Status,1732345974000,43,12,3,8,1605374980,28.60,331.0,18.0,1,1,1,24.6
Status,1732345974000,43,13,3,6,1599750020,0.00,151.0,54.0,0,1,0,0.0
Status,1732345974000,43,14,3,16,1601437440,0.00,35.0,4.0,0,1,0,0.0
Status,1732345974000,43,15,3,11,1602000000,0.00,240.0,9.0,0,1,0,0.0
Status,1732345974000,43,16,5,25,1561097980,19.70,279.0,43.0,1,1,1,15.400001
Status,1732345974000,43,17,5,24,1561097980,22.60,9.0,51.0,1,1,1,18.3
Status,1732345974000,43,18,5,10,1561097980,22.80,160.0,50.0,1,1,0,18.5
Status,1732345974000,43,19,5,9,1561097980,17.90,11.0,51.0,1,1,0,13.599999
Status,1732345974000,43,20,5,7,1561097980,19.00,140.0,54.0,1,1,0,14.7
Status,1732345974000,43,21,5,6,1561097980,14.70,32.0,47.0,0,1,0,10.4
Status,1732345974000,43,22,5,5,1561097980,21.20,236.0,47.0,1,1,0,16.900002
Status,1732345974000,43,23,5,3,1561097980,19.40,133.0,52.0,1,1,0,15.099999
Status,1732345974000,43,24,5,1,1561097980,0.00,105.0,21.0,0,1,0,0.0
Status,1732345974000,43,25,5,2,1561097980,0.00,191.0,63.0,0,1,0,0.0
Status,1732345974000,43,26,5,4,1561097980,0.00,98.0,7.0,0,1,0,0.0
Status,1732345974000,43,27,5,8,1561097980,0.00,180.0,14.0,0,1,0,0.0
Status,1732345974000,43,28,5,11,1561097980,0.00,175.0,1.0,0,1,0,0.0
Status,1732345974000,43,29,5,12,1561097980,0.00,127.0,11.0,0,1,0,0.0
Status,1732345974000,43,30,5,13,1561097980,0.00,188.0,21.0,0,1,0,0.0
Status,1732345974000,43,31,5,14,1561097980,0.00,192.0,71.0,0,1,0,0.0
Status,1732345974000,43,32,5,16,1561097980,0.00,39.0,44.0,0,1,0,0.0
Status,1732345974000,43,33,5,21,1561097980,0.00,0.0,0.0,0,1,0,0.0
Status,1732345974000,43,34,5,23,1561097980,0.00,248.0,2.0,0,1,0,0.0
Status,1732345974000,43,35,5,26,1561097980,0.00,49.0,12.0,0,1,0,0.0
Status,1732345974000,43,36,4,194,1575420030,21.20,60.0,39.0,1,1,1,17.6
Status,1732345974000,43,37,4,196,1575420030,16.50,136.0,28.0,1,1,0,12.9
Status,1732345974000,43,38,6,19,1575420030,20.70,327.0,37.0,1,1,0,16.400002
Status,1732345974000,43,39,6,21,1575420030,17.50,236.0,72.0,1,1,0,13.2
Status,1732345974000,43,40,6,29,1575420030,18.30,36.0,71.0,0,1,0,13.999999
Status,1732345974000,43,41,6,7,1575420030,0.00,118.0,32.0,0,1,0,0.0
Status,1732345974000,43,42,6,27,1575420030,0.00,33.0,48.0,0,1,0,0.0
Raw,1732345974446,429436252000000,18,,-1415951756194929728,0.7884054183959961,51.24883318785578,19.228461794257747,12.401045989285448,74,3,0.0,16399,544392375419433,27,24.0,356.92431640625,0.6889999508857727,16,0.0,0.0,1575420030,,,,0,,1,4.02,20.4,0.0,0.0,,,C,436559375442899,
Raw,1732345974446,429436252000000,18,,-1415951756194929728,0.7884054183959961,51.24883318785578,19.228461794257747,12.401045989285448,74,8,0.0,16399,544392371008734,40,21.8,-609.348876953125,0.8029999732971191,16,0.0,0.0,1575420030,,,,0,,1,4.02,18.2,0.0,0.0,,,C,436559375442899,
Raw,1732345974446,429436252000000,18,,-1415951756194929728,0.7884054183959961,51.24883318785578,19.228461794257747,12.401045989285448,74,9,0.0,16399,544392370068721,21,26.5,-591.3973388671875,0.07559999823570251,16,0.0,1902.9177342976868,1575420030,,,,0,,1,4.02,22.9,0.0,0.0,,,C,436559375442899,
Raw,1732345974446,429436252000000,18,,-1415951756194929728,0.7884054183959961,51.24883318785578,19.228461794257747,12.401045989285448,74,27,0.0,16399,544392374083239,35,22.0,-412.90875244140625,0.8075000047683716,16,0.0,0.0,1575420030,,,,0,,1,4.02,18.4,0.0,0.0,,,C,436559375442899,
Raw,1732345974446,429436252000000,18,,-1415951756194929728,0.7884054183959961,51.24883318785578,19.228461794257747,12.401045989285448,74,194,0.0,16399,544392311247400,40,21.2,115.44165802001953,0.8629999756813049,16,0.0,0.0,1575420030,,,,0,,4,4.02,17.599999999999998,0.0,0.0,,,C,436559375442899,
Raw,1732345974446,429436252000000,18,,-1415951756194929728,0.7884054183959961,51.24883318785578,19.228461794257747,12.401045989285448,74,196,0.0,16399,544392323821440,80,16.5,-24.11020851135254,1.9210000038146973,16,0.0,0.0,1575420030,,,,0,,4,4.02,12.9,0.0,0.0,,,C,436559375442899,
Raw,1732345974446,429436252000000,18,,-1415951756194929728,0.7884054183959961,51.24883318785578,19.228461794257747,12.401045989285448,74,9,0.0,49359,36774378648731,53,19.3,393.5340576171875,0.9434999823570251,16,0.0,0.0,1600875010,,,,0,,3,2.62,15.3,3803.41748046875,13.313641548156738,,,C,436559375442899,
Raw,1732345974446,429436252000000,18,,-1415951756194929728,0.7884054183959961,51.24883318785578,19.228461794257747,12.401045989285448,74,7,0.0,49359,36774382215315,46,20.9,-283.40704345703125,0.8495000004768372,16,0.0,0.0,1604812540,,,,0,,3,2.62,16.9,3803.41748046875,13.313641548156738,,,C,436559375442899,
Raw,1732345974446,429436252000000,18,,-1415951756194929728,0.7884054183959961,51.24883318785578,19.228461794257747,12.401045989285448,74,8,0.0,49359,36774370983079,17,28.6,-743.9556884765625,0.04729999974370003,16,0.0,1867.4108932046968,1605374980,,,,0,,3,2.62,24.6,3803.41748046875,13.313641548156738,,,C,436559375442899,
Raw,1732345974446,429436252000000,18,,-1415951756194929728,0.7884054183959961,51.24883318785578,19.228461794257747,12.401045989285448,74,25,0.0,16399,544378370455341,53,19.7,-133.75550842285156,0.8614999651908875,16,0.0,0.0,1561097980,,,,0,,5,3.57,15.399999999999999,-1543.9769287109375,13.083152770996094,,,I,436559375442899,
Raw,1732345974446,429436252000000,18,,-1415951756194929728,0.7884054183959961,51.24883318785578,19.228461794257747,12.401045989285448,74,24,0.0,16399,544378372319032,35,22.6,265.8018493652344,0.7444999814033508,16,0.0,0.0,1561097980,,,,0,,5,3.57,18.3,-1543.9769287109375,13.083152770996094,,,I,436559375442899,
Raw,1732345974446,429436252000000,18,,-1415951756194929728,0.7884054183959961,51.24883318785578,19.228461794257747,12.401045989285448,74,9,0.0,16399,544378321732128,70,17.9,-21.325986862182617,0.9980000257492065,16,0.0,0.0,1561097980,,,,0,,5,3.57,13.599999999999998,-1543.9769287109375,13.083152770996094,,,I,436559375442899,
Raw,1732345974446,429436252000000,18,,-1415951756194929728,0.7884054183959961,51.24883318785578,19.228461794257747,12.401045989285448,74,7,0.0,16399,544378323677563,53,19.0,-199.76907348632812,0.9210000038146973,16,0.0,0.0,1561097980,,,,0,,5,3.57,14.7,-1543.9769287109375,13.083152770996094,,,I,436559375442899,
Raw,1732345974446,429436252000000,18,,-1415951756194929728,0.7884054183959961,51.24883318785578,19.228461794257747,12.401045989285448,74,6,0.0,16399,544378323286504,106,14.7,-23.889713287353516,4.1710004806518555,16,0.0,0.0,1561097980,,,,0,,5,3.57,10.399999999999999,-1543.9769287109375,13.083152770996094,,,I,436559375442899,
Raw,1732345974446,429436252000000,18,,-1415951756194929728,0.7884054183959961,51.24883318785578,19.228461794257747,12.401045989285448,74,19,0.0,23567,544392363515589,46,20.7,-399.3312683105469,0.8089999556541443,16,0.0,0.0,1575420030,,,,0,,6,3.96,16.4,-1474.4715576171875,13.403717041015625,,,C,436559375442899,
Fix,GPS,22.4943084600,88.3687028900,-48.8095703125,0.0,3.7900925,,1732345975000,0.1,,436574381401179,5.6748137,0,,,
Status,1732345975000,43,0,1,3,1575420030,25.00,233.0,46.0,1,1,1,21.4
Status,1732345975000,43,1,1,4,1575420030,17.10,337.0,52.0,1,1,1,13.5
Status,1732345975000,43,2,1,8,1575420030,19.20,168.0,26.0,1,1,0,15.6
Status,1732345975000,43,3,1,9,1575420030,26.80,322.0,24.0,1,1,1,23.199999
Status,1732345975000,43,4,1,16,1575420030,16.80,29.0,63.0,0,1,0,13.199999
Status,1732345975000,43,5,1,26,1575420030,16.10,36.0,30.0,0,1,1,12.5
Status,1732345975000,43,6,1,27,1575420030,22.30,130.0,39.0,1,1,1,18.699999
Status,1732345975000,43,7,1,31,1575420030,17.30,56.0,23.0,1,1,1,13.699999
Status,1732345975000,43,8,1,7,1575420030,0.00,284.0,11.0,0,1,0,0.0
Status,1732345975000,43,9,1,28,1575420030,0.00,75.0,2.0,0,1,0,0.0
Status,1732345975000,43,10,3,9,1600875010,19.10,357.0,46.0,1,1,1,15.1
Status,1732345975000,43,11,3,7,1604812540,20.80,337.0,69.0,1,1,0,16.8
Status,1732345975000,43,12,3,8,1605374980,28.80,331.0,18.0,1,1,1,24.8
Status,1732345975000,43,13,3,6,1599750020,0.00,151.0,54.0,0,1,0,0.0
Status,1732345975000,43,14,3,16,1601437440,0.00,35.0,4.0,0,1,0,0.0
Status,1732345975000,43,15,3,11,1602000000,0.00,240.0,9.0,0,1,0,0.0
Status,1732345975000,43,16,5,25,1561097980,20.90,279.0,43.0,1,1,1,16.599998
Status,1732345975000,43,17,5,24,1561097980,21.60,9.0,51.0,1,1,1,17.3
Status,1732345975000,43,18,5,10,1561097980,22.80,160.0,50.0,0,1,0,18.5
Status,1732345975000,43,19,5,9,1561097980,17.90,11.0,51.0,1,1,0,13.599999
Status,1732345975000,43,20,5,7,1561097980,19.20,140.0,54.0,1,1,0,14.900001
Status,1732345975000,43,21,5,6,1561097980,14.70,32.0,47.0,1,1,0,10.4
Status,1732345975000,43,22,5,5,1561097980,21.20,236.0,47.0,0,1,0,16.900002
Status,1732345975000,43,23,5,3,1561097980,19.40,133.0,52.0,0,1,0,15.099999
Status,1732345975000,43,24,5,1,1561097980,0.00,105.0,21.0,0,1,0,0.0
Status,1732345975000,43,25,5,2,1561097980,0.00,191.0,63.0,0,1,0,0.0
Status,1732345975000,43,26,5,4,1561097980,0.00,98.0,7.0,0,1,0,0.0
Status,1732345975000,43,27,5,8,1561097980,0.00,180.0,14.0,0,1,0,0.0
Status,1732345975000,43,28,5,11,1561097980,0.00,175.0,1.0,0,1,0,0.0
Status,1732345975000,43,29,5,12,1561097980,0.00,127.0,11.0,0,1,0,0.0
Status,1732345975000,43,30,5,13,1561097980,0.00,188.0,21.0,0,1,0,0.0
Status,1732345975000,43,31,5,14,1561097980,0.00,192.0,71.0,0,1,0,0.0
Status,1732345975000,43,32,5,16,1561097980,0.00,39.0,44.0,0,1,0,0.0
Status,1732345975000,43,33,5,21,1561097980,0.00,0.0,0.0,0,1,0,0.0
Status,1732345975000,43,34,5,23,1561097980,0.00,248.0,2.0,0,1,0,0.0
Status,1732345975000,43,35,5,26,1561097980,0.00,49.0,12.0,0,1,0,0.0
Status,1732345975000,43,36,4,194,1575420030,21.40,60.0,39.0,1,1,1,17.8
Status,1732345975000,43,37,4,196,1575420030,16.50,136.0,28.0,1,1,0,12.9
Status,1732345975000,43,38,6,19,1575420030,20.60,327.0,37.0,1,1,0,16.3
Status,1732345975000,43,39,6,21,1575420030,15.80,236.0,72.0,1,1,0,11.5
Status,1732345975000,43,40,6,27,1575420030,14.40,33.0,48.0,0,1,0,10.099999
Status,1732345975000,43,41,6,29,1575420030,18.30,36.0,71.0,0,1,0,13.999999
Status,1732345975000,43,42,6,7,1575420030,0.00,118.0,32.0,0,1,0,0.0
Raw,1732345975446,429437252000000,18,,-1415951756194929711,0.6192669868469238,48.482936108484864,21.175738460520027,12.17462535003878,74,3,0.0,16399,544393375418184,24,25.0,356.9483642578125,0.11499999463558197,16,0.0,1902.9177342976868,1575420030,,,,0,,1,4.05,21.4,0.0,0.0,,,C,436560377530294,
Raw,1732345975446,429437252000000,18,,-1415951756194929711,0.6192669868469238,48.482936108484864,21.175738460520027,12.17462535003878,74,4,0.0,16399,544393376779021,70,17.1,-407.5995178222656,1.940500020980835,16,0.0,0.0,1575420030,,,,0,,1,4.05,13.500000000000002,0.0,0.0,,,C,436560377530294,
Raw,1732345975446,429437252000000,18,,-1415951756194929711,0.6192669868469238,48.482936108484864,21.175738460520027,12.17462535003878,74,8,0.0,16399,544393371010787,53,19.2,-609.9959106445312,1.0130000114440918,16,0.0,0.0,1575420030,,,,0,,1,4.05,15.6,0.0,0.0,,,C,436560377530294,
Raw,1732345975446,429437252000000,18,,-1415951756194929711,0.6192669868469238,48.482936108484864,21.175738460520027,12.17462535003878,74,9,0.0,16399,544393370070685,21,26.8,-591.5638427734375,0.07559999823570251,16,0.0,1902.9177342976868,1575420030,,,,0,,1,4.05,23.2,0.0,0.0,,,C,436560377530294,
Raw,1732345975446,429437252000000,18,,-1415951756194929711,0.6192669868469238,48.482936108484864,21.175738460520027,12.17462535003878,74,27,0.0,16399,544393374084646,35,22.3,-412.8992004394531,0.8075000047683716,16,0.0,0.0,1575420030,,,,0,,1,4.05,18.7,0.0,0.0,,,C,436560377530294,
Raw,1732345975446,429437252000000,18,,-1415951756194929711,0.6192669868469238,48.482936108484864,21.175738460520027,12.17462535003878,74,194,0.0,16399,544393311246938,40,21.4,114.87078094482422,0.8029999732971191,16,0.0,0.0,1575420030,,,,0,,4,4.05,17.799999999999997,0.0,0.0,,,C,436560377530294,
Raw,1732345975446,429437252000000,18,,-1415951756194929711,0.6192669868469238,48.482936108484864,21.175738460520027,12.17462535003878,74,9,0.0,49359,36775378647212,53,19.1,391.65203857421875,0.9434999823570251,16,0.0,0.0,1600875010,,,,0,,3,2.65,15.100000000000001,3803.4208984375,13.3382568359375,,,C,436560377530294,
Raw,1732345975446,429437252000000,18,,-1415951756194929711,0.6192669868469238,48.482936108484864,21.175738460520027,12.17462535003878,74,7,0.0,49359,36775382216190,46,20.8,-284.3597717285156,0.8495000004768372,16,0.0,0.0,1604812540,,,,0,,3,2.65,16.8,3803.4208984375,13.3382568359375,,,C,436560377530294,
Raw,1732345975446,429437252000000,18,,-1415951756194929711,0.6192669868469238,48.482936108484864,21.175738460520027,12.17462535003878,74,8,0.0,49359,36775370985555,17,28.8,-744.10693359375,0.04729999974370003,16,0.0,1867.4108932046968,1605374980,,,,0,,3,2.65,24.8,3803.4208984375,13.3382568359375,,,C,436560377530294,
Raw,1732345975446,429437252000000,18,,-1415951756194929711,0.6192669868469238,48.482936108484864,21.175738460520027,12.17462535003878,74,25,0.0,16399,544379370455791,46,20.9,-133.5154571533203,0.8014999628067017,16,0.0,0.0,1561097980,,,,0,,5,3.61,16.599999999999998,-1543.9755859375,13.109150886535645,,,I,436560377530294,
Raw,1732345975446,429437252000000,18,,-1415951756194929711,0.6192669868469238,48.482936108484864,21.175738460520027,12.17462535003878,74,24,0.0,16399,544379372318124,40,21.6,265.7442626953125,0.8044999837875366,16,0.0,0.0,1561097980,,,,0,,5,3.61,17.3,-1543.9755859375,13.109150886535645,,,I,436560377530294,
Raw,1732345975446,429437252000000,18,,-1415951756194929711,0.6192669868469238,48.482936108484864,21.175738460520027,12.17462535003878,74,7,0.0,16399,544379323678279,53,19.2,-200.39320373535156,0.9210000038146973,16,0.0,0.0,1561097980,,,,0,,5,3.61,14.899999999999999,-1543.9755859375,13.109150886535645,,,I,436560377530294,
Raw,1732345975446,429437252000000,18,,-1415951756194929711,0.6192669868469238,48.482936108484864,21.175738460520027,12.17462535003878,74,19,0.0,23567,544393363516942,46,20.6,-398.7984313964844,0.8689999580383301,16,0.0,0.0,1575420030,,,,0,,6,4.0,16.3,-1474.4652099609375,13.42945384979248,,,C,436560377530294,
Raw,1732345975446,429437252000000,18,,-1415951756194929711,0.6192669868469238,48.482936108484864,21.175738460520027,12.17462535003878,74,21,0.0,23567,544393368126214,92,15.8,-108.34370422363281,1.940500020980835,16,0.0,0.0,1575420030,,,,0,,6,4.0,11.5,-1474.4652099609375,13.42945384979248,,,C,436560377530294,
Raw,1732345975446,429437252000000,18,,-1415951756194929711,0.6192669868469238,48.482936108484864,21.175738460520027,12.17462535003878,74,27,0.0,23567,544393364625871,106,14.4,367.0098876953125,5.040500164031982,16,0.0,0.0,1575420030,,,,0,,6,4.0,10.100000000000001,-1474.4652099609375,13.42945384979248,,,C,436560377530294,
Fix,GPS,22.4943099500,88.3687041600,-49.021942138671875,0.0,3.7900925,,1732345976000,0.09899495,,436575387144825,5.7969127,0,,,
Status,1732345976000,43,0,1,3,1575420030,24.80,233.0,46.0,1,1,1,21.199999
Status,1732345976000,43,1,1,4,1575420030,19.50,337.0,52.0,1,1,1,15.9
Status,1732345976000,43,2,1,8,1575420030,21.60,168.0,26.0,1,1,0,18.0
Status,1732345976000,43,3,1,9,1575420030,26.00,322.0,24.0,1,1,1,22.4
Status,1732345976000,43,4,1,16,1575420030,16.80,29.0,63.0,0,1,0,13.199999
Status,1732345976000,43,5,1,26,1575420030,16.10,36.0,30.0,0,1,1,12.5
Status,1732345976000,43,6,1,27,1575420030,21.30,130.0,39.0,1,1,1,17.699999
Status,1732345976000,43,7,1,31,1575420030,17.30,56.0,23.0,0,1,1,13.699999
Status,1732345976000,43,8,1,7,1575420030,0.00,284.0,11.0,0,1,0,0.0
Status,1732345976000,43,9,1,28,1575420030,0.00,75.0,2.0,0,1,0,0.0
Status,1732345976000,43,10,3,9,1600875010,19.10,357.0,46.0,1,1,1,15.1
Status,1732345976000,43,11,3,7,1604812540,19.80,337.0,69.0,1,1,0,15.799999
Status,1732345976000,43,12,3,8,1605374980,29.10,331.0,18.0,1,1,1,25.1
Status,1732345976000,43,13,3,6,1599750020,0.00,151.0,54.0,0,1,0,0.0
Status,1732345976000,43,14,3,16,1601437440,0.00,35.0,4.0,0,1,0,0.0
Status,1732345976000,43,15,3,11,1602000000,0.00,240.0,9.0,0,1,0,0.0
Status,1732345976000,43,16,5,26,1561097980,14.40,49.0,12.0,0,1,0,10.099999
Status,1732345976000,43,17,5,25,1561097980,21.30,279.0,43.0,1,1,1,17.0
Status,1732345976000,43,18,5,24,1561097980,22.30,9.0,51.0,1,1,1,18.0
Status,1732345976000,43,19,5,10,1561097980,22.80,160.0,50.0,0,1,0,18.5
Status,1732345976000,43,20,5,9,1561097980,16.40,11.0,51.0,1,1,0,12.099999
Status,1732345976000,43,21,5,7,1561097980,20.80,140.0,54.0,1,1,0,16.5
Status,1732345976000,43,22,5,6,1561097980,14.70,32.0,47.0,1,1,0,10.4
Status,1732345976000,43,23,5,5,1561097980,21.20,236.0,47.0,0,1,0,16.900002
Status,1732345976000,43,24,5,3,1561097980,19.40,133.0,52.0,0,1,0,15.099999
Status,1732345976000,43,25,5,1,1561097980,0.00,105.0,21.0,0,1,0,0.0
Status,1732345976000,43,26,5,2,1561097980,0.00,191.0,63.0,0,1,0,0.0
Status,1732345976000,43,27,5,4,1561097980,0.00,98.0,7.0,0,1,0,0.0
Status,1732345976000,43,28,5,8,1561097980,0.00,180.0,14.0,0,1,0,0.0
Status,1732345976000,43,29,5,11,1561097980,0.00,175.0,1.0,0,1,0,0.0
Status,1732345976000,43,30,5,12,1561097980,0.00,127.0,11.0,0,1,0,0.0
Status,1732345976000,43,31,5,13,1561097980,0.00,188.0,21.0,0,1,0,0.0
Status,1732345976000,43,32,5,14,1561097980,0.00,192.0,71.0,0,1,0,0.0
Status,1732345976000,43,33,5,16,1561097980,0.00,39.0,44.0,0,1,0,0.0
Status,1732345976000,43,34,5,21,1561097980,0.00,0.0,0.0,0,1,0,0.0
Status,1732345976000,43,35,5,23,1561097980,0.00,248.0,2.0,0,1,0,0.0
Status,1732345976000,43,36,4,194,1575420030,21.30,60.0,39.0,1,1,1,17.699999
Status,1732345976000,43,37,4,196,1575420030,17.30,136.0,28.0,1,1,0,13.699999
Status,1732345976000,43,38,6,19,1575420030,20.00,327.0,37.0,1,1,0,15.7
Status,1732345976000,43,39,6,21,1575420030,15.80,236.0,72.0,1,1,0,11.5
Status,1732345976000,43,40,6,27,1575420030,14.40,33.0,48.0,1,1,0,10.099999
Status,1732345976000,43,41,6,29,1575420030,18.30,36.0,71.0,0,1,0,13.999999
Status,1732345976000,43,42,6,7,1575420030,0.00,118.0,32.0,0,1,0,0.0
Raw,1732345976446,429438252000000,18,,-1415951756194929696,0.7811985015869141,49.25702160107903,21.04934162350911,12.114043398706904,74,3,0.0,16399,544394375417010,27,24.8,357.2953796386719,0.6389999985694885,16,0.0,0.0,1575420030,,,,0,,1,4.07,21.2,0.0,0.0,,,C,436561368724565,
Raw,1732345976446,429438252000000,18,,-1415951756194929696,0.7811985015869141,49.25702160107903,21.04934162350911,12.114043398706904,74,4,0.0,16399,544394376780375,53,19.5,-407.8468933105469,0.9404999613761902,16,0.0,0.0,1575420030,,,,0,,1,4.07,15.9,0.0,0.0,,,C,436561368724565,
Raw,1732345976446,429438252000000,18,,-1415951756194929696,0.7811985015869141,49.25702160107903,21.04934162350911,12.114043398706904,74,8,0.0,16399,544394371012954,40,21.6,-609.6057739257812,0.8029999732971191,16,0.0,0.0,1575420030,,,,0,,1,4.07,18.0,0.0,0.0,,,C,436561368724565,
Raw,1732345976446,429438252000000,18,,-1415951756194929696,0.7811985015869141,49.25702160107903,21.04934162350911,12.114043398706904,74,9,0.0,16399,544394370072654,21,26.0,-591.9221801757812,0.07559999823570251,16,0.0,1902.9177342976868,1575420030,,,,0,,1,4.07,22.4,0.0,0.0,,,C,436561368724565,
Raw,1732345976446,429438252000000,18,,-1415951756194929696,0.7811985015869141,49.25702160107903,21.04934162350911,12.114043398706904,74,27,0.0,16399,544394374085989,40,21.3,-413.669921875,0.8675000071525574,16,0.0,0.0,1575420030,,,,0,,1,4.07,17.7,0.0,0.0,,,C,436561368724565,
Raw,1732345976446,429438252000000,18,,-1415951756194929696,0.7811985015869141,49.25702160107903,21.04934162350911,12.114043398706904,74,194,0.0,16399,544394311246573,40,21.3,115.47972106933594,0.8629999756813049,16,0.0,0.0,1575420030,,,,0,,4,4.07,17.7,0.0,0.0,,,C,436561368724565,
Raw,1732345976446,429438252000000,18,,-1415951756194929696,0.7811985015869141,49.25702160107903,21.04934162350911,12.114043398706904,74,196,0.0,16399,544394323821693,70,17.3,-24.871381759643555,1.9210000038146973,16,0.0,0.0,1575420030,,,,0,,4,4.07,13.700000000000001,0.0,0.0,,,C,436561368724565,
Raw,1732345976446,429438252000000,18,,-1415951756194929696,0.7811985015869141,49.25702160107903,21.04934162350911,12.114043398706904,74,7,0.0,49359,36776382217438,53,19.8,-283.724609375,0.9194999933242798,16,0.0,0.0,1604812540,,,,0,,3,2.69,15.8,3803.426513671875,13.362797737121582,,,C,436561368724565,
Raw,1732345976446,429438252000000,18,,-1415951756194929696,0.7811985015869141,49.25702160107903,21.04934162350911,12.114043398706904,74,8,0.0,49359,36776370988006,16,29.1,-744.4488525390625,0.045900002121925354,16,0.0,1867.4108932046968,1605374980,,,,0,,3,2.69,25.1,3803.426513671875,13.362797737121582,,,C,436561368724565,
Raw,1732345976446,429438252000000,18,,-1415951756194929696,0.7811985015869141,49.25702160107903,21.04934162350911,12.114043398706904,74,26,0.0,16399,544380360463583,1204,14.4,435.2478942871094,6.006500244140625,16,0.0,0.0,1561097980,,,,0,,5,3.61,10.100000000000001,-1543.9844970703125,13.135102272033691,,,I,436561368724565,
Raw,1732345976446,429438252000000,18,,-1415951756194929696,0.7811985015869141,49.25702160107903,21.04934162350911,12.114043398706904,74,25,0.0,16399,544380370456204,40,21.3,-134.56207275390625,0.8014999628067017,16,0.0,0.0,1561097980,,,,0,,5,3.61,17.0,-1543.9844970703125,13.135102272033691,,,I,436561368724565,
Raw,1732345976446,429438252000000,18,,-1415951756194929696,0.7811985015869141,49.25702160107903,21.04934162350911,12.114043398706904,74,24,0.0,16399,544380372317221,35,22.3,265.3985595703125,0.7444999814033508,16,0.0,0.0,1561097980,,,,0,,5,3.61,18.0,-1543.9844970703125,13.135102272033691,,,I,436561368724565,
Raw,1732345976446,429438252000000,18,,-1415951756194929696,0.7811985015869141,49.25702160107903,21.04934162350911,12.114043398706904,74,9,0.0,16399,544380321732261,80,16.4,-21.950115203857422,1.9179999828338623,16,0.0,0.0,1561097980,,,,0,,5,3.61,12.099999999999998,-1543.9844970703125,13.135102272033691,,,I,436561368724565,
Raw,1732345976446,429438252000000,18,,-1415951756194929696,0.7811985015869141,49.25702160107903,21.04934162350911,12.114043398706904,74,7,0.0,16399,544380323678914,46,20.8,-200.57565307617188,0.7910000085830688,16,0.0,0.0,1561097980,,,,0,,5,3.61,16.5,-1543.9844970703125,13.135102272033691,,,I,436561368724565,
Raw,1732345976446,429438252000000,18,,-1415951756194929696,0.7811985015869141,49.25702160107903,21.04934162350911,12.114043398706904,74,19,0.0,23567,544394363518258,46,20.0,-400.2161560058594,0.8689999580383301,16,0.0,0.0,1575420030,,,,0,,6,4.03,15.7,-1474.4671630859375,13.455228805541992,,,C,436561368724565,
Fix,GPS,22.4943049600,88.3687075700,-49.00555419921875,0.0,3.80634,,1732345977000,0.12727922,,436576381022220,5.8574557,0,,,
Status,1732345977000,43,0,1,3,1575420030,24.40,233.0,46.0,1,1,1,20.8
Status,1732345977000,43,1,1,4,1575420030,18.80,337.0,52.0,1,1,1,15.199999
Status,1732345977000,43,2,1,8,1575420030,20.10,168.0,26.0,1,1,0,16.5
Status,1732345977000,43,3,1,9,1575420030,26.90,322.0,24.0,1,1,1,23.3
Status,1732345977000,43,4,1,16,1575420030,16.80,29.0,63.0,0,1,0,13.199999
Status,1732345977000,43,5,1,26,1575420030,16.10,36.0,30.0,0,1,1,12.5
Status,1732345977000,43,6,1,27,1575420030,22.60,130.0,39.0,1,1,1,19.0
Status,1732345977000,43,7,1,31,1575420030,17.30,56.0,23.0,0,1,1,13.699999
Status,1732345977000,43,8,1,7,1575420030,0.00,284.0,11.0,0,1,0,0.0
Status,1732345977000,43,9,1,28,1575420030,0.00,75.0,2.0,0,1,0,0.0
Status,1732345977000,43,10,3,9,1600875010,16.50,357.0,46.0,1,1,1,12.5
Status,1732345977000,43,11,3,11,1602000000,12.30,240.0,9.0,0,1,0,8.3
Status,1732345977000,43,12,3,7,1604812540,19.70,337.0,69.0,1,1,0,15.700001
Status,1732345977000,43,13,3,8,1605374980,29.80,331.0,18.0,1,1,1,25.8
Status,1732345977000,43,14,3,6,1599750020,0.00,151.0,54.0,0,1,0,0.0
Status,1732345977000,43,15,3,16,1601437440,0.00,35.0,4.0,0,1,0,0.0
Status,1732345977000,43,16,5,26,1561097980,14.60,49.0,12.0,0,1,0,10.3
Status,1732345977000,43,17,5,25,1561097980,20.30,279.0,43.0,1,1,1,15.999999
Status,1732345977000,43,18,5,24,1561097980,21.80,9.0,51.0,1,1,1,17.5
Status,1732345977000,43,19,5,10,1561097980,22.80,160.0,50.0,0,1,0,18.5
Status,1732345977000,43,20,5,9,1561097980,18.30,11.0,51.0,1,1,0,13.999999
Status,1732345977000,43,21,5,7,1561097980,20.90,140.0,54.0,1,1,0,16.599998
Status,1732345977000,43,22,5,6,1561097980,15.70,32.0,47.0,1,1,0,11.4
Status,1732345977000,43,23,5,5,1561097980,21.20,236.0,47.0,0,1,0,16.900002
Status,1732345977000,43,24,5,3,1561097980,18.50,133.0,52.0,0,1,0,14.2
Status,1732345977000,43,25,5,1,1561097980,0.00,105.0,21.0,0,1,0,0.0
Status,1732345977000,43,26,5,2,1561097980,0.00,191.0,63.0,0,1,0,0.0
Status,1732345977000,43,27,5,4,1561097980,0.00,98.0,7.0,0,1,0,0.0
Status,1732345977000,43,28,5,8,1561097980,0.00,180.0,14.0,0,1,0,0.0
Status,1732345977000,43,29,5,11,1561097980,0.00,175.0,1.0,0,1,0,0.0
Status,1732345977000,43,30,5,12,1561097980,0.00,127.0,11.0,0,1,0,0.0
Status,1732345977000,43,31,5,13,1561097980,0.00,188.0,21.0,0,1,0,0.0
Status,1732345977000,43,32,5,14,1561097980,0.00,192.0,71.0,0,1,0,0.0
Status,1732345977000,43,33,5,16,1561097980,0.00,39.0,44.0,0,1,0,0.0
Status,1732345977000,43,34,5,21,1561097980,0.00,0.0,0.0,0,1,0,0.0
Status,1732345977000,43,35,5,23,1561097980,0.00,248.0,2.0,0,1,0,0.0
Status,1732345977000,43,36,4,194,1575420030,22.00,60.0,39.0,1,1,1,18.4
Status,1732345977000,43,37,4,196,1575420030,17.30,136.0,28.0,1,1,0,13.699999
Status,1732345977000,43,38,6,19,1575420030,20.20,327.0,37.0,1,1,0,15.900001
Status,1732345977000,43,39,6,21,1575420030,15.80,236.0,72.0,1,1,0,11.5
Status,1732345977000,43,40,6,27,1575420030,14.40,33.0,48.0,1,1,0,10.099999
Status,1732345977000,43,41,6,29,1575420030,18.30,36.0,71.0,0,1,0,13.999999
Status,1732345977000,43,42,6,7,1575420030,0.00,118.0,32.0,0,1,0,0.0
Raw,1732345977446,429439252000000,18,,-1415951756194929682,0.6243772506713867,49.68670691596344,20.422768515247554,12.186925926869717,74,3,0.0,16399,544395375415845,27,24.4,356.88629150390625,0.6389999985694885,16,0.0,0.0,1575420030,,,,0,,1,4.18,20.799999999999997,0.0,0.0,,,C,436562372856179,
Raw,1732345977446,429439252000000,18,,-1415951756194929682,0.6243772506713867,49.68670691596344,20.422768515247554,12.186925926869717,74,4,0.0,16399,544395376781731,61,18.8,-406.56243896484375,1.0205000638961792,16,0.0,0.0,1575420030,,,,0,,1,4.18,15.200000000000001,0.0,0.0,,,C,436562372856179,
Raw,1732345977446,429439252000000,18,,-1415951756194929682,0.6243772506713867,49.68670691596344,20.422768515247554,12.186925926869717,74,8,0.0,16399,544395371014921,46,20.1,-609.310791015625,0.9329999685287476,16,0.0,0.0,1575420030,,,,0,,1,4.18,16.5,0.0,0.0,,,C,436562372856179,
Raw,1732345977446,429439252000000,18,,-1415951756194929682,0.6243772506713867,49.68670691596344,20.422768515247554,12.186925926869717,74,9,0.0,16399,544395370074629,21,26.9,-591.7749633789062,0.07559999823570251,16,0.0,1902.9177342976868,1575420030,,,,0,,1,4.18,23.299999999999997,0.0,0.0,,,C,436562372856179,
Raw,1732345977446,429439252000000,18,,-1415951756194929682,0.6243772506713867,49.68670691596344,20.422768515247554,12.186925926869717,74,27,0.0,16399,544395374087453,35,22.6,-413.25128173828125,0.7475000023841858,16,0.0,0.0,1575420030,,,,0,,1,4.18,19.0,0.0,0.0,,,C,436562372856179,
Raw,1732345977446,429439252000000,18,,-1415951756194929682,0.6243772506713867,49.68670691596344,20.422768515247554,12.186925926869717,74,194,0.0,16399,544395311246181,35,22.0,115.11815643310547,0.8029999732971191,16,0.0,0.0,1575420030,,,,0,,4,4.18,18.4,0.0,0.0,,,C,436562372856179,
Raw,1732345977446,429439252000000,18,,-1415951756194929682,0.6243772506713867,49.68670691596344,20.422768515247554,12.186925926869717,74,9,0.0,49359,36777378644852,80,16.5,392.88800048828125,1.94350004196167,16,0.0,0.0,1600875010,,,,0,,3,2.74,12.5,3803.42333984375,13.386746406555176,,,C,436562372856179,
Raw,1732345977446,429439252000000,18,,-1415951756194929682,0.6243772506713867,49.68670691596344,20.422768515247554,12.186925926869717,74,11,0.0,49359,36777368319194,139,12.3,-463.2841796875,6.768500328063965,16,0.0,0.0,1602000000,,,,0,,3,2.74,8.3,3803.42333984375,13.386746406555176,,,C,436562372856179,
Raw,1732345977446,429439252000000,18,,-1415951756194929682,0.6243772506713867,49.68670691596344,20.422768515247554,12.186925926869717,74,7,0.0,49359,36777382218300,53,19.7,-283.5284729003906,0.9194999933242798,16,0.0,0.0,1604812540,,,,0,,3,2.74,15.7,3803.42333984375,13.386746406555176,,,C,436562372856179,
Raw,1732345977446,429439252000000,18,,-1415951756194929682,0.6243772506713867,49.68670691596344,20.422768515247554,12.186925926869717,74,8,0.0,49359,36777370990518,16,29.8,-744.2913818359375,0.045900002121925354,16,0.0,1867.4108932046968,1605374980,,,,0,,3,2.74,25.8,3803.42333984375,13.386746406555176,,,C,436562372856179,
Raw,1732345977446,429439252000000,18,,-1415951756194929682,0.6243772506713867,49.68670691596344,20.422768515247554,12.186925926869717,74,26,0.0,16399,544381360462125,1223,14.6,435.3343505859375,6.756500244140625,16,0.0,0.0,1561097980,,,,0,,5,3.71,10.3,-1543.9822998046875,13.160445213317871,,,I,436562372856179,
Raw,1732345977446,429439252000000,18,,-1415951756194929682,0.6243772506713867,49.68670691596344,20.422768515247554,12.186925926869717,74,25,0.0,16399,544381370456638,46,20.3,-133.6018829345703,0.8614999651908875,16,0.0,0.0,1561097980,,,,0,,5,3.71,16.0,-1543.9822998046875,13.160445213317871,,,I,436562372856179,
