     4.01           OBSERVATION DATA    M                   RINEX VERSION / TYPE
GnssLogger          vivo 14             20241126 080712 UTC PGM / RUN BY / DATE
Google GnssLogger                                           MARKER NAME
Unknown                                                     MARKER NUMBER
Unknown             Unknown                                 OBSERVER / AGENCY
Unknown             GnssLogger          v3.1.0.3            REC # / TYPE / VERS
Unknown             Unknown                                 ANT # / TYPE
        0.0000        0.0000        0.0000                  ANTENNA: DELTA H/E/N
G    6 C1C D1C S1C C5Q D5Q S5Q                              SYS / # / OBS TYPES
R    3 C1C D1C S1C                                          SYS / # / OBS TYPES
J    6 C1C D1C S1C C5Q D5Q S5Q                              SYS / # / OBS TYPES
C    9 C2I D2I S2I C5P D5P S5P C1P D1P S1P                  SYS / # / OBS TYPES
E    6 C1C D1C S1C C5Q D5Q S5Q                              SYS / # / OBS TYPES
  2024    11    26    08    07   12.0000000     GPS         TIME OF FIRST OBS
 9 R01  1 R02 -4 R03  5 R04  6 R12 -1 R13 -2 R14 -7 R22 -3  GLONASS SLOT / FRQ #
   R23  3                                                   GLONASS SLOT / FRQ #
vivo I2201 (Android 14) HW Year: 2018 HW Model:             COMMENT
qcom;MPSS.DE.2.0-00780.7-WAIPIO_GEN_PACK-1.10720.344;       COMMENT
                                                            END OF HEADER
> 2024 11 26 08 07 12.4111346  0 42                      
G03  23334762.46823     -2832.75023        21.20023  23332425.58523     -2117.35023        18.70023
G04  19990663.33925       357.91925        35.00025  19988322.26025       267.28225        30.00025
G07  23735429.39224      1693.20024        24.70024                                                
G08  20695177.71425      1945.95825        32.30025  20692839.63326      1453.18726        39.70026
G09  20952875.71423      2067.70023        22.30023  20950535.83323      1547.10923        22.70023
G16  22251759.81526     -3033.53526        38.90026                                                
G27  20979911.59727      -121.50127        42.90027  20977570.51825       -90.66225        33.80025
J02  41070320.89626      -411.05826        38.60026  41067989.11026      -306.88526        35.60026
R14  22587390.96224      1366.85024        23.90024
R02  19555431.84424     -1923.49824        28.10024
R13  20707804.37323      -960.60023        17.90023
R12  22370840.67727     -2317.15727        41.70027
R01  22840151.08025     -4320.96625        29.90025
R23  23238613.33025      2795.37525        32.10025
R03  20399025.33624      2259.63624        27.10024
C60  36513122.67926       -23.98726        36.60026                                                                                                
C59  38951616.54524       -51.35024        28.20024                                                                                                
C45  23548996.25724       741.67824        26.00024  23547120.45523       559.00023        18.70023  23549035.23024       749.60024        25.20024
C40  36513156.55526       749.41426        38.20026  36511282.85225       564.84725        30.60025  36513185.93525       756.43525        33.40025
C39  37313601.21927       421.21627        41.90027  37311727.51626       317.47726        35.80026  37313631.49827       425.18127        42.30027
C36  22708771.23225      -801.45125        32.20025  22706899.92824      -603.69224        25.60024  22708794.91625      -808.61625        34.90025
C30  24326864.75024       929.25024        24.00024  24325004.23823       700.46623        19.90023  24326892.33024       937.96424        24.90024
C29  24638655.50126      2523.91426        36.60026  24636782.09825      1902.15825        33.30025  24638672.88925      2547.24225        31.70025
C22  22267887.45025      -274.10725        33.70025  22266003.55424      -206.53124        23.70024  22267913.23224      -276.50024        26.70024
C19  23797384.80127     -2826.71127        41.80027  23795509.89925     -2130.12625        34.20025  23797407.58526     -2852.51826        38.50026
C16  37289193.61626       496.17826        39.30026                                                                                                
C13  40356435.90824     -1491.34824        27.80024                                                                                                
C10  36685005.68724       696.43724        25.10024                                                                                                
C09  37274556.54926       519.86126        36.50026                                                                                                
C07  36310594.28626       604.38226        38.10026                                                                                                
C06  36833709.94126       424.86426        38.60026                                                                                                
C03  36688688.33726        -1.43626        36.70026                                                                                                
C02  36181877.49525       -36.07625        32.90025                                                                                                
C01  39447017.28624         3.85024        29.00024                                                                                                
E04  24885587.05424      2054.40524        25.90024  24883689.36823      1534.95023        18.40023
E06  26995085.67923      2619.25023        17.60023  26993212.87522      1956.60022        17.10022
E19  23140866.29925      -619.28625        34.50025  23138966.81425      -462.50925        31.80025
E21  25488823.74226     -2108.86626        38.20026  25486928.45425     -1574.81525        35.20025
E29  26224756.66623     -2345.07423        20.90023  26222858.68023     -1751.10023        21.90023
E31  26010452.72623      1706.06323        23.10023  26008543.34824      1273.98924        23.60024
J04                                                  36950306.42323      -176.12623        20.00023
C21                                                  25428113.07123      1723.40123        22.00023  25429995.16823      2307.60023        18.10023
> 2024 11 26 08 07 13.4111346  0 42                      
G04  19990593.46725       356.73725        34.90025  19988254.48624       266.41324        29.10024
G07  23735117.58724      1692.21324        25.50024                                                
G08  20694807.74925      1944.86725        33.30025  20692469.66826      1452.34526        40.90026
G09  20952463.77824      2069.70024        23.50024  20950139.78723      1546.31823        21.90023
G16  22252333.89626     -3034.22626        38.70026                                                
G27  20979931.96227      -122.69327        42.90027  20977593.88125       -91.58825        34.40025
J02  41070403.01826      -411.50826        40.10026  41068067.93526      -307.31826        36.60026
R14  22587113.93323      1363.35023        23.10023
R02  19555803.56625     -1924.81125        31.40025
R12  22371275.95526     -2317.55126        41.00026
R01  22840950.30624     -4321.72524        28.60024
R23  23238100.66425      2794.67325        32.50025
R03  20398634.38624      2258.46924        25.80024
C60  36513125.95526       -24.38726        36.80026                                                                                                
C59  38951621.62024         2.60024        28.20024                                                                                                
C45  23548848.73823       740.30023        23.00023  23546978.03323       559.03023        21.40023  23548899.70324       748.77824        25.20024
C40  36513012.63426       748.80626        38.50026  36511139.53125       564.26725        31.70025  36513034.81925       755.65325        34.10025
C39  37313520.55427       420.71327        42.60027  37311646.85126       317.06326        37.10026  37313548.73427       424.59627        42.20027
C36  22708920.80825      -801.75025        32.70025  22707051.30224      -604.34524        25.50024  22708952.28626      -809.18726        36.20026
C30  24326684.85324       928.39024        25.50024  24324821.94323       699.85623        19.20023  24326713.33324       936.86224        25.60024
C29  24638172.51526      2523.38626        35.90026  24636297.31325      1901.57425        33.90025  24638186.90525      2546.47425        31.20025
C22  22267937.19425      -275.36325        33.00025  22266053.29923      -207.44223        23.40023  22267979.16524      -277.52124        23.70024
C19  23797926.80526     -2827.52326        40.70026  23796052.50225     -2130.77025        35.20025  23797951.38826     -2853.41326        36.70026
C16  37289098.86126       495.71526        39.00026                                                                                                
C13  40356724.58824     -1491.77824        26.70024                                                                                                
C10  36684862.06524       695.76924        25.80024                                                                                                
C09  37274457.89626       519.37326        37.20026                                                                                                
C07  36310477.04626       603.72426        39.00026                                                                                                
C06  36833628.07626       424.40226        39.50026                                                                                                
C03  36688689.81526        -1.97526        38.00026                                                                                                
C02  36181886.16825       -36.68725        33.60025                                                                                                
C01  39447012.76825       -11.10025        30.00025                                                                                                
E04  24885196.40424      2053.87424        24.10024  24883296.61923      1533.30023        17.90023
E06  26994587.70223      2618.63223        20.30023  26992708.60322      1954.20022        15.80022
E19  23140984.09726      -620.33826        35.80026  23139084.31225      -463.26225        31.50025
E21  25489226.04326     -2109.50126        38.10026  25487329.55626     -1575.28326        36.30026
E29  26225212.33023     -2345.77823        21.50023  26223303.55123     -1751.67823        22.20023
E31  26010129.22923      1705.20323        21.60023  26008217.15323      1273.38323        23.40023
G03                                                  23332959.49522     -2116.60022        16.30022
J03                                                  39148612.54622       -13.80022        13.90022
J04                                                  36950346.27423      -176.47323        20.60023
C21                                                  25427674.45423      1722.67823        22.00023  25429554.75223      2306.94623        19.00023
> 2024 11 26 08 07 14.4111347  0 41                      
G04  19990558.67125       357.83425        34.70025  19988216.69325       267.14925        30.90025
G07  23734830.96624      1693.94924        27.80024                                                
G08  20694465.96625      1946.02025        35.40025  20692129.38427      1453.07827        41.50027
G09  20952079.72423      2072.90023        22.60023  20949777.91823      1547.21623        21.20023
G16  22252943.95526     -3032.77626        37.20026                                                
G27  20979983.50727      -121.77027        42.60027  20977645.72525       -90.95525        33.90025
J02  41070511.22426      -409.86526        39.50026  41068176.14026      -306.23826        36.50026
R02  19556188.18025     -1924.07425        33.70025
R22  23477634.51921       929.55021        12.20021
R13  20708143.69822      -953.55022        15.90022
R12  22371742.71226     -2315.80726        40.50026
R01  22841775.01524     -4320.30324        28.60024
R23  23237607.18625      2796.18325        31.70025
R03  20398244.63624      2259.41824        28.50024
C60  36513161.01226       -22.93026        37.80026                                                                                                
C45  23548727.90223       741.20023        22.70023  23546871.58723       560.08023        20.70023  23548792.05824       750.00624        24.80024
C40  36512898.99326       750.14026        37.30026  36511024.99025       565.10025        32.80025  36512920.57825       756.84025        33.30025
C39  37313467.77127       422.33027        42.50027  37311596.16726       318.01126        37.70026  37313498.65027       425.95327        42.20027
C36  22709099.16525      -800.33425        31.90025  22707237.75424      -603.24224        27.30024  22709131.84225      -807.83825        35.30025
C30  24326541.23323       930.65023        23.10023  24324681.02123       700.25623        20.70023  24326565.81624       937.77324        24.60024
C29  24637715.61225      2524.93525        35.40025  24635842.50825      1902.61025        34.90025  24637738.09625      2547.92525        32.30025
C22  22268020.21725      -274.18825        33.30025  22266135.42223      -206.89223        21.20023  22268051.39624      -277.01024        26.00024
C19  23798497.59026     -2826.17326        39.80026  23796624.48726     -2129.99326        36.00026  23798523.67226     -2852.26626        36.70026
C16  37289032.88726       497.30726        37.00026                                                                                                
C13  40357039.65024     -1490.11124        26.70024                                                                                                
C10  36684755.31924       697.26224        26.70024                                                                                                
C09  37274388.02526       521.13226        35.60026                                                                                                
C07  36310390.98626       605.19926        39.50026                                                                                                
C06  36833577.39226       426.04426        39.70026                                                                                                
C03  36688722.47326        -0.34726        39.10026                                                                                                
C02  36181924.52225       -35.18525        34.20025                                                                                                
C01  39447044.82625       -14.10025        30.40025                                                                                                
E04  24884842.32923      2054.86123        21.70023  24882936.24923      1537.00023        18.60023
E06  26994124.50423      2620.04323        21.30023  26992249.90122      1957.45022        16.80022
E19  23141133.97325      -619.22825        35.20025  23139232.09025      -462.47625        31.50025
E21  25489656.82526     -2108.03426        38.50026  25487761.23726     -1574.16026        36.70026
E29  26225680.58623     -2344.49223        22.50023  26223779.90224     -1750.83324        24.20024
E31  26009829.41723      1706.51923        21.00023  26007921.53823      1274.32223        22.40023
G03                                                  23333531.77923     -2115.97623        20.20023
J04                                                  36950420.90323      -175.61823        19.20023
C21                                                  25427268.21623      1723.17123        19.80023  25429155.70923      2307.73923        22.10023
> 2024 11 26 08 07 15.4111347  0 41                      
G04  19990487.70426       358.98926        35.70026  19988149.32325       268.08825        30.90025
G07  23734503.67624      1695.97524        26.60024                                                
G08  20694095.80726      1947.30726        35.60026  20691758.92426      1454.19426        41.20026
G09  20951697.87223      2074.00023        23.10023  20949383.47523      1548.44923        20.20023
G16  22253520.53926     -3030.99426        38.20026                                                
G27  20980007.57427      -120.59127        42.80027  20977670.09225       -90.06825        34.60025
J02  41070588.65426      -407.89426        39.70026  41068253.57126      -304.60926        36.00026
R14  22586642.12423      1365.80023        17.50023
R02  19556543.81825     -1923.00025        33.20025
R12  22372167.00226     -2313.75426        40.30026
R01  22842603.72624     -4318.37024        28.20024
R23  23237085.93125      2798.00925        30.70025
R03  20397808.22224      2260.65324        27.60024
C60  36513164.09426       -20.84326        36.40026                                                                                                
C45  23548596.37724       745.14624        25.00024  23546727.77123       561.58323        21.80023  23548635.05023       752.02023        22.80023
C40  36512752.47926       751.90926        36.80026  36510881.17425       566.51725        32.50025  36512777.06225       758.71025        32.80025
C39  37313386.91127       424.20827        42.30027  37311514.70726       319.68826        37.50026  37313417.49027       428.04427        42.20027
C36  22709256.94025      -798.51625        32.00025  22707389.53224      -601.66424        25.40024  22709285.12025      -805.86825        35.40025
C30  24326373.73323       931.30023        22.50023  24324499.73023       701.66423        19.30023  24326380.32823       939.47423        22.60023
C29  24637229.73226      2526.97226        35.60026  24635356.92825      1904.26925        34.60025  24637254.01525      2550.09425        32.80025
C22  22268070.36725      -272.88225        32.80025  22266193.36623      -205.52023        22.50023  22268101.24524      -275.39424        23.90024
C19  23799041.19826     -2824.42126        39.00026  23797167.49526     -2128.51126        35.90026  23799066.08026     -2850.34926        36.50026
C16  37288937.93726       499.23926        38.00026                                                                                                
C13  40357324.83624     -1487.95424        25.60024                                                                                                
C10  36684624.39424       699.01624        28.70024                                                                                                
C09  37274287.67926       522.97426        35.60026                                                                                                
C07  36310276.25026       606.95726        39.10026                                                                                                
C06  36833495.93226       427.92726        39.40026                                                                                                
C03  36688721.35826         1.52526        39.10026                                                                                                
C02  36181929.70225       -32.75025        33.10025                                                                                                
C01  39447041.31325         7.10025        30.60025                                                                                                
E04  24884443.38924      2056.76724        25.60024  24882544.80423      1535.83723        20.20023
E06  26993626.03323      2622.11723        21.40023  26991743.33623      1952.97023        19.70023
E19  23141249.77725      -617.55925        35.40025  23139350.29225      -461.16825        31.90025
E21  25490059.53026     -2106.16026        38.70026  25488162.14426     -1572.73926        36.30026
E29  26226123.76324     -2342.64424        23.80024  26224225.77723     -1749.34623        23.40023
E31  26009507.52423      1708.13523        21.30023  26007596.34723      1275.69423        22.40023
G03                                                  23334069.09123     -2114.63423        19.30023
J03                                                  39148650.08522       -11.95022        14.50022
J04                                                  36950464.75723      -173.99423        19.40023
C21                                                  25426822.20823      1724.79023        19.10023  25428701.30723      2309.51923        19.30023
> 2024 11 26 08 07 16.4111347  0 42                      
G04  19990421.30725       357.89925        35.20025  19988080.22725       267.32825        30.20025
G07  23734181.55524      1695.57024        26.80024                                                
G08  20693725.41926      1946.14626        36.10026  20691388.23726      1453.36026        41.00026
G09  20951317.89224      2074.15024        24.10024  20948986.70623      1547.52223        22.20023
G16  22254094.49826     -3031.64926        38.20026                                                
G27  20980031.41427      -121.85327        42.60027  20977691.83425       -90.93925        35.10025
G31  24744720.77422     -1872.00022        15.60022                                                
J02  41070665.85726      -408.37826        39.80026  41068331.07326      -304.87526        35.70026
R02  19556898.32825     -1924.47525        31.50025
R13  20708558.55122      -954.40022        17.20022
R12  22372605.45526     -2314.14326        40.30026
R01  22843391.73624     -4319.16424        28.90024
R23  23236563.24925      2797.29825        31.00025
R03  20397361.08824      2259.29324        25.80024
C60  36513167.54726       -21.50026        36.80026                                                                                                
C59  38951666.21024       -32.25024        23.90024                                                                                                
C45  23548445.13824       742.50024        23.70024  23546584.32623       561.25123        21.50023  23548497.30224       751.59324        24.50024
C40  36512608.73426       751.16026        37.40026  36510736.53025       566.18225        32.10025  36512633.91725       758.10225        33.70025
C39  37313305.22427       423.65427        41.90027  37311433.32026       319.34126        37.10026  37313335.80327       427.62527        42.20027
C36  22709412.08925      -798.98725        32.20025  22707542.28324      -602.02824        26.30024  22709442.66726      -806.20726        35.50026
C30  24326192.21524       931.50024        24.10024  24324321.81023       700.89723        19.70023  24326210.50224       938.80324        24.50024
C29  24636744.22426      2526.37826        35.70026  24634871.72125      1903.94525        34.50025  24636767.00925      2549.60025        32.60025
C22  22268125.98525      -273.76325        31.30025  22266235.79323      -206.38723        19.50023  22268162.55924      -276.26024        23.50024
C19  23799581.28026     -2825.20526        39.10026  23797709.67626     -2129.09026        35.90026  23799608.26126     -2851.09926        36.10026
C16  37288840.96026       498.72326        39.10026                                                                                                
C13  40357610.09524     -1488.47124        25.80024                                                                                                
C10  36684492.04225       698.30225        30.30025                                                                                                
C09  37274186.50526       522.56126        36.00026                                                                                                
C07  36310157.38926       606.24526        38.90026                                                                                                
C06  36833412.74626       427.47126        39.10026                                                                                                
C03  36688719.71526         0.94326        39.10026                                                                                                
C02  36181935.85425       -33.29525        33.90025                                                                                                
C01  39447036.67224       -12.55024        28.20024                                                                                                
E04  24884050.81724      2056.00424        25.30024  24882157.32823      1535.32823        20.30023
E06  26993136.02823      2621.63823        21.70023  26991249.13423      1958.10023        18.30023
E19  23141367.75226      -618.44826        35.70026  23139467.06825      -461.89825        31.80025
E21  25490460.20926     -2106.62426        37.70026  25488562.82326     -1573.13826        36.10026
E29  26226579.30423     -2343.64323        22.60023  26224671.72524     -1750.02324        24.40024
E31  26009173.41122      1707.75022        17.40022  26007270.02923      1274.99923        22.90023
G03                                                  23334609.77323     -2114.40023        18.80023
J04                                                  36950511.68023      -174.58923        20.00023
C21                                                  25426393.36223      1722.65023        18.10023  25428288.64923      2308.65323        20.40023
> 2024 11 26 08 07 17.4111347  0 43                      
G03  23337503.35123     -2836.65023        18.10023  23335148.78123     -2115.25023        17.50023
G04  19990353.83525       356.74325        34.60025  19988012.15625       266.32625        30.50025
G07  23733859.26024      1694.91324        27.70024                                                
G08  20693357.85526      1945.08526        36.70026  20691018.27526      1452.47426        40.90026
G09  20950917.35023      2071.05023        22.50023  20948593.95923      1546.78923        19.30023
G16  22254673.97826     -3032.33826        38.50026                                                
G27  20980051.78127      -123.11227        42.00027  20977715.49825       -91.96025        34.50025
J02  41070745.28326      -408.92726        39.80026  41068409.00126      -305.44326        36.00026
R14  22586118.52423      1364.50023        19.40023
R02  19557271.55125     -1925.74725        30.90025
R13  20708727.31523      -948.50023        18.30023
R12  22373038.63626     -2314.64726        40.50026
R01  22844221.54325     -4319.90725        29.60025
R23  23236023.60425      2796.55825        31.60025
R03  20396954.25124      2257.29124        25.80024
C60  36513170.52726       -23.05026        36.60026                                                                                                
C45  23548308.71424       746.15024        24.30024  23546437.10923       560.46023        21.70023  23548359.07924       750.58924        25.60024
C40  36512465.71426       750.39326        37.90026  36510592.61125       565.44225        31.80025  36512491.19725       757.22225        33.20025
C39  37313223.36127       423.08627        42.00027  37311352.05726       318.79026        37.10026  37313254.24027       426.93327        42.20027
C36  22709566.16325      -799.66025        33.40025  22707696.65724      -602.57524        24.90024  22709595.24326      -807.00426        35.90026
C30  24326001.22823       927.75023        23.30023  24324141.01623       700.19023        19.40023  24326022.81324       937.68224        23.50024
C29  24636259.74125      2525.75725        35.00025  24634386.33825      1903.32525        33.30025  24636282.82525      2548.91125        32.50025
C22  22268174.53225      -275.12925        31.30025  22266292.73523      -207.56823        22.70023  22268212.30624      -277.39324        24.30024
C19  23800126.88426     -2826.05626        39.30026  23798252.58126     -2129.75026        35.80026  23800152.06626     -2852.05326        35.90026
C16  37288743.50926       498.14926        38.30026                                                                                                
C13  40357895.47924     -1488.79724        25.40024                                                                                                
C10  36684355.31824       697.56624        28.80024                                                                                                
C09  37274084.25726       521.99526        36.20026                                                                                                
C07  36310042.54926       605.53626        39.30026                                                                                                
C06  36833330.28526       426.90626        39.00026                                                                                                
C05  37258141.59423       -38.65023        21.30023                                                                                                
C03  36688718.79726         0.45226        38.90026                                                                                                
C02  36181945.12925       -34.24525        33.70025                                                                                                
C01  39447041.15024       -11.25024        29.10024                                                                                                
E04  24883662.26824      2055.11624        25.10024  24881765.78023      1534.64823        21.40023
E06  26992634.15723      2620.73823        21.10023  26990750.56123      1956.70023        17.70023
E19  23141485.25225      -619.55725        35.40025  23139584.86725      -462.65725        31.10025
E21  25490861.01326     -2107.36826        38.50026  25488963.02726     -1573.69426        35.60026
E29  26227023.87823     -2344.46123        21.60023  26225119.59624     -1750.73624        24.10024
E31  26008852.91423      1706.70323        19.50023  26006947.13423      1274.24723        21.30023
J03                                                  39148657.11722       -12.45022        14.10022
J04                                                  36950554.23223      -175.85023        18.70023
C21                                                                                                  25427845.53723      2307.46323        19.10023
> 2024 11 26 08 07 18.4111347  0 39                      
G03  23338034.99723     -2825.00023        18.20023  23335685.22423     -2113.70023        17.80023
G04  19990287.99426       357.84626        35.50026  19987943.91724       267.15824        29.40024
G07  23733536.79724      1696.98524        25.00024                                                
G08  20692985.02726      1946.29626        35.80026  20690648.14526      1453.31926        39.60026
G09  20950517.54123      2070.75023        23.20023  20948199.24623      1547.55923        21.60023
G16  22255251.49326     -3030.76626        38.20026                                                
G27  20980075.87827      -122.07327        42.00027  20977738.99625       -91.21925        33.60025
J02  41070820.34626      -407.10826        39.80026  41068486.46125      -304.07625        34.40025
R02  19557611.93025     -1924.75625        30.70025
R12  22373472.85026     -2312.76826        40.60026
R01  22845032.89625     -4318.31025        29.70025
R23  23235521.26625      2798.18125        31.60025
R03  20396537.35424      2257.00024        24.30024
C60  36513176.33726       -14.30026        36.30026                                                                                                
C45  23548156.23323       747.60023        21.90023  23546295.72123       562.10023        18.80023  23548214.99323       752.35523        23.30023
C40  36512321.02926       751.99726        37.60026  36510447.32625       566.60625        30.80025  36512346.21125       758.76525        34.00025
C39  37313144.03127       424.81327        42.70027  37311270.92726       319.99326        35.80026  37313171.91127       428.59127        41.90027
C36  22709716.47325      -797.91025        33.30025  22707851.16524      -601.30524        24.90024  22709749.45025      -805.26925        35.20025
C30  24325831.96024       931.95024        23.50024  24323962.75423       699.40023        18.30023  24325842.45223       939.07023        23.00023
C29  24635774.19125      2527.50225        35.20025  24633901.38825      1904.60625        32.90025  24635794.87725      2550.58925        32.10025
C22  22268229.20925      -273.77025        31.40025  22266350.70923      -206.52823        19.40023  22268270.58024      -276.63924        26.00024
C19  23800667.52426     -2824.57726        39.30026  23798794.12025     -2128.70425        34.20025  23800694.20526     -2850.55226        36.70026
C16  37288649.18826       499.96426        38.70026                                                                                                
C13  40358176.19924     -1487.03924        25.80024                                                                                                
C10  36684222.32424       699.37624        28.50024                                                                                                
C09  37273985.44026       523.86326        36.20026                                                                                                
C07  36309924.84526       607.16026        38.70026                                                                                                
C06  36833249.75526       428.67326        39.50026                                                                                                
C03  36688718.31226         2.05826        38.80026                                                                                                
C02  36181949.74025       -32.54725        33.70025                                                                                                
C01  39447039.76524        14.50024        28.80024                                                                                                
E04  24883276.54924      2056.66024        26.60024  24881375.56523      1535.87123        19.70023
E06  26992138.11423      2622.52423        21.60023  26990252.42022      1960.20022        16.90022
E19  23141602.28525      -618.21625        35.20025  23139702.20025      -461.65725        30.10025
E21  25491260.75026     -2105.70526        38.30026  25489364.26325     -1572.43625        34.90025
E29  26227464.38723     -2342.84523        21.60023  26225565.50223     -1749.58723        22.60023
E31  26008523.85622      1707.75022        16.00022  26006620.77423      1275.55423        20.60023
J04                                                  36950604.71123      -173.85023        17.70023
C21                                                  25425510.56822      1724.45022        15.30022  25427397.16223      2308.89123        21.00023
> 2024 11 26 08 07 19.4111347  0 42                      
G03  23338565.09723     -2829.65023        21.20023  23336222.51922     -2114.60022        16.20022
G04  19990214.91225       357.86925        35.40025  19987875.93125       267.38525        29.90025
G07  23733205.29424      1697.66524        25.70024                                                
G08  20692612.45226      1946.35426        35.90026  20690277.66926      1453.48226        40.10026
G09  20950121.58224      2070.60024        23.50024  20947803.58723      1549.35023        18.70023
G16  22255828.36026     -3030.20326        38.80026                                                
G27  20980100.82827      -122.19027        41.90027  20977761.84725       -91.11125        34.00025
J02  41070899.25826      -406.44326        39.90026  41068563.87525      -303.35825        35.30025
R14  22585541.90422      1365.55022        15.70022
R02  19557975.34525     -1924.98025        30.90025
R13  20709083.05023      -951.15023        17.50023
R12  22373910.01426     -2311.95126        40.50026
R01  22845838.20524     -4317.85324        29.10024
R23  23234993.69825      2798.66825        32.00025
R03  20396096.12624      2258.95724        25.80024
C60  36513177.60326       -19.79826        36.30026                                                                                                
C59  38951669.07023         3.80023        21.90023                                                                                                
C45  23548007.30323       739.80023        21.20023  23546153.98623       562.39623        20.80023  23548064.86423       750.70023        18.80023
C40  36512177.49526       752.38426        38.10026  36510303.79225       567.06625        31.30025  36512202.37825       759.40825        33.50025
C39  37313061.65527       425.42927        42.20027  37311188.85126       320.72626        36.40026  37313091.33427       429.43927        41.70027
C36  22709873.93125      -797.28825        32.80025  22708002.02724      -600.70124        24.90024  22709903.91025      -804.51725        34.60025
C30  24325653.65023       932.80023        22.80023  24323783.24522       702.45022        15.50022  24325663.84323       939.56323        22.70023
C29  24635288.59426      2528.12326        35.60026  24633416.09125      1905.34325        33.70025  24635308.38125      2551.44825        32.70025
C22  22268283.83825      -273.89925        32.00025  22266399.94223      -206.43123        22.50023  22268318.31424      -276.24324        24.50024
C19  23801211.11426     -2824.16126        39.50026  23799337.71125     -2128.17625        35.10025  23801239.29526     -2849.94226        36.40026
C16  37288553.32126       500.63626        38.70026                                                                                                
C13  40358463.76724     -1486.34324        25.20024                                                                                                
C10  36684088.38424       699.71924        28.40024                                                                                                
C09  37273885.07626       524.53326        36.60026                                                                                                
C07  36309808.89226       607.62226        38.80026                                                                                                
C06  36833167.07926       429.32526        39.70026                                                                                                
C03  36688719.57826         2.75226        38.70026                                                                                                
C02  36181953.70425       -31.95425        33.10025                                                                                                
C01  39447044.62924       -28.70024        27.70024                                                                                                
E04  24882887.48524      2057.30924        26.60024  24880983.20323      1536.36023        21.20023
E06  26991630.03323      2623.38323        20.50023  26989758.12922      1958.50022        16.60022
E19  23141720.77025      -617.80625        34.50025  23139820.68525      -461.38325        30.00025
E21  25491662.83926     -2104.91126        38.30026  25489764.85325     -1571.91925        35.20025
E29  26227919.53923     -2342.34923        19.20023  26226011.36023     -1749.00023        22.70023
E31  26008208.84122      1709.30022        16.80022  26006294.96623      1275.87223        21.80023
J04                                                  36950646.74922      -172.75022        16.30022
C21                                                  25425067.54223      1724.55023        17.80023  25426972.12323      2309.58823        20.20023
> 2024 11 26 08 07 20.4111347  0 39                      
G03  23339151.35223     -2832.15023        19.90023  23336762.60623     -2113.77323        19.70023
G04  19990152.41625       356.97525        34.20025  19987806.54025       266.61125        31.20025
G07  23732882.87824      1697.39924        26.20024                                                
G08  20692245.66726      1945.44526        36.00026  20689906.98627      1452.79827        41.60027
G09  20949733.21224      2071.80024        24.00024  20947407.72223      1547.30323        21.80023
G16  22256405.62226     -3030.76826        39.00026                                                
G27  20980122.87427      -123.20527        42.10027  20977785.09226       -91.96026        35.70026
J02  41070978.56426      -406.73026        40.00026  41068641.38226      -303.72826        36.70026
R02  19558344.55025     -1926.07625        31.20025
R12  22374338.57826     -2312.26526        40.30026
R01  22846638.81225     -4318.42425        29.60025
R23  23234471.32125      2798.11025        32.60025
R03  20395693.06624      2257.75324        26.60024
C60  36513183.75926       -21.10026        36.40026                                                                                                
C45  23547872.25823       744.05023        22.90023  23546014.14424       562.02724        24.30024  23547921.72423       752.55323        20.30023
C40  36512031.95726       751.83826        37.70026  36510158.85325       566.73925        33.00025  36512058.33825       758.89125        33.40025
C39  37312979.97227       425.07227        42.40027  37311107.16826       320.43926        38.00026  37313008.75227       429.10827        42.00027
C36  22710027.88525      -797.64025        32.80025  22708154.78224      -600.99424        27.20024  22710056.96526      -804.81626        35.80026
C30  24325467.64023       929.70023        23.20023  24323600.23223       701.30023        18.90023  24325482.03023       938.98023        22.80023
C29  24634799.79325      2527.79725        34.50025  24632930.58825      1905.02325        34.90025  24634825.57625      2551.05025        33.10025
C22  22268334.06425      -274.70725        31.00025  22266445.07123      -206.71223        21.80023  22268369.13923      -276.91823        23.10023
C19  23801752.10026     -2824.78826        39.40026  23799879.29726     -2128.63626        36.40026  23801779.98126     -2850.55626        36.00026
C16  37288456.94926       500.31826        38.80026                                                                                                
C13  40358750.52924     -1487.10024        24.60024                                                                                                
C10  36683957.83524       699.25724        28.70024                                                                                                
C09  37273784.20726       524.25426        35.90026                                                                                                
C07  36309692.43326       607.11926        38.90026                                                                                                
C06  36833086.29526       429.03826        39.90026                                                                                                
C03  36688717.94026         2.14326        38.90026                                                                                                
C02  36181959.56125       -32.37525        33.60025                                                                                                
C01  39447045.98924       -32.50024        28.10024                                                                                                
E04  24882499.71424      2056.45424        26.90024  24880593.63423      1535.79123        22.10023
E06  26991121.74623      2622.90023        21.00023  26989253.43923      1959.30023        18.90023
E19  23141839.64825      -618.69725        34.50025  23139938.06525      -461.87125        32.30025
E21  25492064.12226     -2105.46526        38.60026  25490166.13626     -1572.21026        37.30026
E29  26228359.49523     -2342.91023        21.90023  26226456.71224     -1749.48624        23.70024
J04                                                  36950685.88323      -173.61723        20.70023
E31                                                  26005969.55223      1275.43723        22.60023
C21                                                  25424628.20723      1723.10023        18.90023  25426516.00023      2308.95023        18.50023
> 2024 11 26 08 07 21.4111347  0 42                      
G03  23339624.19123     -2833.30023        21.40023  23337303.49823     -2114.25123        21.70023
G04  19990077.83425       356.35525        34.60025  19987739.45325       266.03625        32.10025
G07  23732568.46224      1697.58924        29.10024                                                
G08  20691872.79226      1944.76726        35.60026  20689537.10927      1452.29127        41.70027
G09  20949338.45224      2071.50324        25.80024  20947017.45923      1546.68223        20.80023
G16  22256980.69026     -3030.90326        38.60026                                                
G27  20980146.62427      -123.93327        41.90027  20977808.84225       -92.52625        35.00025
J02  41071054.17826      -406.70926        39.70026  41068719.09426      -303.76026        36.70026
R14  22585044.17623      1371.85023        18.30023
R02  19558715.76025     -1926.92425        33.70025
R13  20709384.56822      -950.10022        16.20022
R12  22374768.54726     -2312.11426        40.10026
R01  22847469.30325     -4318.67625        29.60025
R23  23233941.35425      2797.99125        31.50025
R03  20395272.22424      2257.04924        27.70024
C60  36513184.72526       -20.20626        37.30026                                                                                                
C45  23547739.21623       743.70023        21.40023  23545868.81123       561.57223        22.40023  23547781.18723       753.29223        21.70023
C40  36511886.32426       751.62926        37.30026  36510014.72025       566.39425        33.50025  36511913.60525       758.50425        34.30025
C39  37312897.89527       425.07427        42.40027  37311025.99126       320.28226        38.00026  37312927.57527       428.90627        41.90027
C36  22710172.45225      -797.63125        32.20025  22708307.74324      -601.25924        26.70024  22710210.82526      -805.05426        35.60026
C30  24325294.42623       929.30023        23.40023  24323430.01722       699.35022        16.60022  24325302.22123       938.05323        22.30023
C29  24634315.09625      2527.71325        34.60025  24632445.29025      1904.83125        34.50025  24634342.37725      2550.81725        33.10025
C22  22268385.99425      -275.32125        30.30025  22266503.89723      -207.59623        23.20023  22268417.47223      -277.64123        20.30023
C21  25426048.99023      2285.65023        18.60023                                                  25426088.86223      2308.10723        20.40023
C19  23802295.09126     -2825.08326        40.10026  23800422.28826     -2129.02426        36.60026  23802322.67226     -2851.01226        37.00026
C16  37288360.48226       500.31426        38.40026                                                                                                
C13  40359041.99424     -1486.52124        26.30024                                                                                                
C10  36683816.10024       699.11624        28.70024                                                                                                
C09  37273682.34426       524.31726        35.50026                                                                                                
C07  36309575.58126       606.95926        39.30026                                                                                                
C06  36833002.72026       429.04926        39.80026                                                                                                
C03  36688718.90626         2.35726        39.30026                                                                                                
C02  36181969.22125       -32.36725        34.30025                                                                                                
C01  39447042.15824         8.95024        29.30024                                                                                                
E04  24882105.25424      2056.19524        26.30024  24880200.67324      1535.54724        23.70024
E06  26990627.75423      2622.60523        21.20023  26988751.95323      1958.25023        18.00023
E19  23141956.93425      -619.16125        35.20025  23140056.25025      -462.35425        32.10025
E21  25492465.01126     -2105.65226        39.10026  25490566.42526     -1572.30426        37.00026
E29  26228800.55623     -2343.44823        19.60023  26226901.37124     -1749.95324        23.90024
E31  26007536.03522      1706.70022        15.90022  26005645.54323      1275.02223        22.10023
J03                                                  39148668.31822       -10.00022        13.10022
J04                                                  36950735.71523      -173.93823        20.40023
> 2024 11 26 08 07 22.4111347  0 42                      
G03  23340156.89523     -2831.00023        21.00023  23337838.90023     -2114.90223        19.30023
G04  19990007.95525       354.43725        34.20025  19987671.67225       264.66025        30.70025
G07  23732235.36524      1696.27924        27.80024                                                
G08  20691501.92126      1943.04326        36.10026  20689167.13726      1450.98726        40.10026
G09  20948959.18724      2069.90024        23.80024  20946621.70523      1545.59523        23.30023
G16  22257555.96426     -3032.23926        38.00026                                                
G27  20980166.98226      -125.92926        41.40026  20977832.49825       -93.98425        33.30025
J02  41071132.09626      -407.89626        38.80026  41068796.71325      -304.50625        34.30025
R14  22584807.61323      1360.75023        19.50023
R02  19559063.79125     -1929.06725        33.30025
R22  23476293.55021       932.55021        12.10021
R12  22375202.31926     -2313.28326        39.30026
R01  22848269.12225     -4319.91525        29.80025
R23  23233421.48625      2796.61225        32.20025
R03  20394853.98624      2254.90424        27.90024
C60  36513192.19326       -21.31926        37.00026                                                                                                
C59  38951685.75924       -10.55024        24.90024                                                                                                
C45  23547582.69723       743.45023        21.50023  23545728.78123       560.92123        20.70023  23547646.25323       748.75023        17.80023
C40  36511742.99626       750.28726        37.20026  36509870.79225       565.54525        31.50025  36511769.97725       757.24225        34.20025
C39  37312817.22427       423.84227        41.60027  37310944.12026       319.53126        35.80026  37312846.00426       427.83626        40.40026
C36  22710325.91825      -799.00725        30.90025  22708461.20924      -602.18124        24.20024  22710362.49325      -806.23125        34.00025
C30  24325116.62223       927.75023        21.30023  24323242.61922       697.35022        16.80022  24325122.61823       936.57723        20.80023
C29  24633827.90526      2526.49626        36.10026  24631960.79825      1904.12825        34.90025  24633854.88725      2549.83925        33.70025
C22  22268442.92725      -277.12825        30.40025  22266559.33123      -208.52223        22.50023  22268503.18623      -278.65023        18.40023
C21  25425678.11923      2287.80023        19.80023  25423753.15122      1721.60022        16.00022  25425650.53823      2306.54323        23.00023
C19  23802838.58726     -2826.48026        40.30026  23800965.18425     -2129.95125        35.10025  23802864.07026     -2852.28626        37.90026
C16  37288267.21926       499.09626        38.00026                                                                                                
C13  40359322.87224     -1487.42624        26.30024                                                                                                
C10  36683686.26225       697.73625        29.80025                                                                                                
C09  37273580.68726       523.13026        35.70026                                                                                                
C07  36309458.93426       605.60026        39.50026                                                                                                
C06  36832919.95026       427.85626        39.10026                                                                                                
C03  36688717.37926         1.15726        39.10026                                                                                                
C02  36181973.39125       -33.51925        35.00025                                                                                                
C01  39447051.42424        -5.35024        29.10024                                                                                                
E04  24881715.79624      2055.03524        26.20024  24879809.41622      1533.50022        17.30022
E06  26990129.17223      2621.39723        22.50023  26988255.46923      1957.62323        19.40023
E19  23142074.72525      -620.63825        34.70025  23140174.94025      -463.47525        30.80025
E21  25492865.20626     -2106.73926        37.40026  25490967.22025     -1573.26525        35.00025
E29  26229248.11923     -2344.92023        19.70023  26227346.53523     -1751.02023        23.10023
E31  26007207.43423      1706.35023        18.70023  26005320.24123      1273.89123        21.70023
J04                                                  36950780.05723      -174.66923        19.20023
> 2024 11 26 08 07 23.4111347  0 41                      
G04  19989942.15125       352.29425        34.00025  19987604.07025       263.13525        30.30025
G07  23731911.44024      1693.85124        25.80024                                                
G08  20691134.82626      1940.93426        36.20026  20688797.64426      1449.40126        39.70026
G09  20948580.10023      2066.85023        22.70023  20946227.02923      1544.21223        21.30023
G16  22258136.21326     -3034.00026        38.30026                                                
G27  20980191.41626      -128.19626        41.30026  20977855.73325       -95.71225        33.10025
J02  41071207.79526      -409.39126        38.90026  41068873.91125      -305.62625        34.60025
R14  22584564.33223      1361.80023        18.20023
R02  19559435.08525     -1931.55225        32.90025
R12  22375640.16726     -2314.78126        39.50026
R01  22849063.72325     -4321.72725        30.40025
R23  23232891.00525      2794.82325        32.30025
R03  20394432.92823      2251.90023        21.60023
C60  36513195.04126       -22.97626        37.30026                                                                                                
C45  23547448.24124       742.15024        23.80024  23545583.23223       559.68323        21.90023  23547508.49923       749.40023        18.60023
C40  36511601.04526       748.48326        37.60026  36509725.84325       564.17725        30.60025  36511625.32825       755.51225        34.00025
C39  37312736.43027       422.26327        41.80027  37310863.02726       318.33526        35.60026  37312764.31126       426.27326        41.20026
C36  22710479.86225      -800.51725        31.50025  22708613.05523      -603.20523        23.10023  22710519.13526      -807.79226        35.50026
C30  24324925.80524       926.20024        23.70024                                                  24324949.48823       934.66923        23.30023
C29  24633344.79126      2524.95126        35.80026  24631475.58525      1902.94325        34.60025  24633369.67325      2548.26025        33.40025
C22  22268496.44125      -279.23425        30.70025  22266607.74923      -210.21223        20.30023  22268531.51723      -281.78023        19.60023
C21  25425235.47623      2283.50023        18.10023  25423312.30822      1721.90022        16.30022  25425210.29423      2304.73823        21.40023
C19  23803381.66226     -2828.27826        40.40026  23801507.95925     -2131.27825        34.90025  23803407.44426     -2854.07626        38.00026
C16  37288169.63826       497.49426        38.70026                                                                                                
C13  40359602.72924     -1488.98024        27.00024                                                                                                
C10  36683549.70725       696.06425        30.40025                                                                                                
C09  37273482.80526       521.64626        36.80026                                                                                                
C07  36309341.56626       603.94226        38.70026                                                                                                
C06  36832837.95726       426.34326        39.30026                                                                                                
C03  36688716.33126        -0.52626        39.00026                                                                                                
C02  36181981.93625       -27.95025        34.20025                                                                                                
C01  39447042.28124        -5.85024        27.80024                                                                                                
E04  24881322.31924      2053.15324        26.10024  24879418.33722      1532.00022        16.90022
E06  26989632.56723      2619.94023        21.60023  26987755.86623      1956.20023        17.90023
E19  23142191.49525      -622.64825        34.80025  23140291.71025      -464.99625        30.50025
E21  25493266.77926     -2108.42326        37.30026  25491368.19325     -1574.52725        34.90025
E29  26229697.95822     -2345.95022        16.80022  26227793.97623     -1752.25623        23.00023
G03                                                  23338376.57822     -2116.60022        15.80022
J03                                                  39148667.54222       -11.20022        14.60022
J04                                                  36950818.58122      -177.15022        16.50022
E31                                                  26004997.51523      1272.59723        22.20023
> 2024 11 26 08 07 24.4111347  0 40                      
G04  19989878.64726       355.71726        36.10026  19987536.66825       265.55625        30.80025
G07  23731583.51923      1695.35023        21.60023                                                
G08  20690767.03226      1944.43326        37.70026  20688428.35126      1451.99226        38.60026
G16  22258713.96526     -3030.09526        38.80026                                                
G27  20980216.05126      -124.83126        41.10026  20977880.36826       -93.26226        35.50026
