NMEA,$GPGSV,3,1,11,03,23,206,21,04,85,347,35,07,25,309,25,08,55,147,32,1*6A,1732608414691
NMEA,$GPGSV,3,2,11,09,53,320,22,16,33,033,39,27,51,084,43,21,03,163,,1*68,1732608414691
NMEA,$GPGSV,3,3,11,26,06,048,,31,11,084,,41,00,000,38,1*5A,1732608414691
NMEA,$GPGSV,2,1,05,03,23,206,19,04,85,347,30,08,55,147,40,09,53,320,23,8*6E,1732608414691
NMEA,$GPGSV,2,2,05,27,51,084,34,8*52,1732608414691
NMEA,$GLGSV,3,1,09,78,20,270,24,66,65,196,28,86,11,073,16,77,43,337,18,1*7E,1732608414691
NMEA,$GLGSV,3,2,09,76,22,029,42,65,17,166,30,87,13,119,32,67,47,317,27,1*7C,1732608414691
NMEA,$GLGSV,3,3,09,68,02,334,,1*49,1732608414691
NMEA,$GAGSV,2,1,07,04,43,324,26,06,18,321,18,19,73,125,35,21,37,031,38,7*71,1732608414691
NMEA,$GAGSV,2,2,07,29,26,137,21,31,28,240,23,26,00,000,,7*46,1732608414691
NMEA,$GAGSV,2,1,06,04,43,324,18,06,18,321,17,19,73,125,32,21,37,031,35,1*7E,1732608414691
NMEA,$GAGSV,2,2,06,29,26,137,22,31,28,240,24,1*71,1732608414691
NMEA,$GQGSV,1,1,01,02,38,056,39,1*54,1732608414691
NMEA,$GQGSV,1,1,03,02,38,056,36,03,12,112,16,04,20,143,20,8*57,1732608414691
NMEA,$GBGSV,7,1,28,60,59,199,37,59,26,108,28,45,38,295,26,40,64,109,38,1*7B,1732608414691
NMEA,$GBGSV,7,2,28,39,45,066,42,36,49,009,32,30,27,095,24,29,23,155,37,1*77,1732608414691
NMEA,$GBGSV,7,3,28,22,57,266,34,21,19,316,22,19,38,181,42,16,47,055,39,1*73,1732608414691
NMEA,$GBGSV,7,4,28,13,09,187,28,10,65,166,25,09,54,025,37,07,70,134,38,1*72,1732608414691
NMEA,$GBGSV,7,5,28,06,51,048,39,03,52,135,37,02,62,191,33,01,22,106,29,1*7F,1732608414691
NMEA,$GBGSV,7,6,28,04,07,099,,05,47,236,,08,03,178,,27,05,051,,1*7E,1732608414691
NMEA,$GBGSV,7,7,28,38,00,000,,46,15,057,,61,52,134,,62,08,095,,1*75,1732608414691
NMEA,$GBGSV,3,1,09,19,38,181,39,21,19,316,18,22,57,266,27,29,23,155,32,3*77,1732608414691
NMEA,$GBGSV,3,2,09,30,27,095,25,36,49,009,35,39,45,066,42,40,64,109,33,3*75,1732608414691
NMEA,$GBGSV,3,3,09,45,38,295,25,3*4E,1732608414691
NMEA,$GBGSV,3,1,09,19,38,181,34,21,19,316,22,22,57,266,24,29,23,155,33,5*77,1732608414691
NMEA,$GBGSV,3,2,09,30,27,095,20,36,49,009,26,39,45,066,36,40,64,109,31,5*75,1732608414691
NMEA,$GBGSV,3,3,09,45,38,295,19,5*47,1732608414691
NMEA,$GNGSA,A,3,03,04,07,08,09,16,27,,,,,,0.6,0.4,0.5,1*35,1732608414707
NMEA,$GNGSA,A,3,65,66,67,76,78,87,,,,,,,0.6,0.4,0.5,2*36,1732608414707
NMEA,$GNGSA,A,3,04,06,19,21,29,31,,,,,,,0.6,0.4,0.5,3*34,1732608414707
NMEA,$GNGSA,A,3,02,03,06,07,09,10,13,16,19,21,22,29,0.6,0.4,0.5,4*3E,1732608414707
NMEA,$GNGSA,A,3,02,04,,,,,,,,,,,0.6,0.4,0.5,5*34,1732608414707
NMEA,$GNVTG,,T,,M,0.0,N,0.0,K,A*3D,1732608414707
NMEA,$GNDTM,W84,,0000.000000,N,00000.000000,E,0.000,W84*41,1732608414707
NMEA,$GNRMC,080655.00,A,2235.671822,N,08821.676538,E,0.0,,261124,0.5,W,A,V*60,1732608414707
NMEA,$GNGNS,080655.00,2235.671822,N,08821.676538,E,AAAAAN,38,0.4,-1.1,-57.0,,,V*2A,1732608414707
NMEA,$GNGGA,080655.00,2235.671822,N,08821.676538,E,1,12,0.4,-1.1,M,-57.0,M,,*7D,1732608414707
NMEA,$GPGSV,3,1,11,03,23,206,21,04,85,347,35,07,25,309,26,08,55,147,33,1*68,1732608415699
NMEA,$GPGSV,3,2,11,09,53,320,24,16,33,033,39,27,51,084,43,21,03,163,,1*6E,1732608415699
NMEA,$GPGSV,3,3,11,26,06,048,,31,11,084,,41,00,000,38,1*5A,1732608415699
NMEA,$GPGSV,2,1,05,03,23,206,16,04,85,347,29,08,55,147,41,09,53,320,22,8*69,1732608415699
NMEA,$GPGSV,2,2,05,27,51,084,34,8*52,1732608415699
NMEA,$GLGSV,3,1,09,78,20,270,23,66,65,196,31,86,11,073,16,77,43,337,18,1*71,1732608415699
NMEA,$GLGSV,3,2,09,76,22,029,41,65,17,166,29,87,13,119,33,67,47,317,26,1*77,1732608415699
NMEA,$GLGSV,3,3,09,68,02,334,,1*49,1732608415699
NMEA,$GAGSV,2,1,07,04,43,324,24,06,18,321,20,19,73,125,36,21,37,031,38,7*7B,1732608415699
NMEA,$GAGSV,2,2,07,29,26,137,22,31,28,240,22,26,00,000,,7*44,1732608415699
NMEA,$GAGSV,2,1,06,04,43,324,18,06,18,321,16,19,73,125,32,21,37,031,36,1*7C,1732608415699
NMEA,$GAGSV,2,2,06,29,26,137,22,31,28,240,23,1*76,1732608415699
NMEA,$GQGSV,1,1,01,02,38,056,40,1*5A,1732608415699
NMEA,$GQGSV,1,1,03,02,38,056,37,03,12,112,14,04,20,143,21,8*55,1732608415699
NMEA,$GBGSV,7,1,28,60,59,199,37,59,26,108,28,45,38,295,23,40,64,109,39,1*7F,1732608415699
NMEA,$GBGSV,7,2,28,39,45,066,43,36,49,009,33,30,27,095,26,29,23,155,36,1*74,1732608415699
NMEA,$GBGSV,7,3,28,22,57,266,33,21,19,316,22,19,38,181,41,16,47,055,39,1*77,1732608415699
NMEA,$GBGSV,7,4,28,13,09,187,27,10,65,166,26,09,54,025,37,07,70,134,39,1*7F,1732608415699
NMEA,$GBGSV,7,5,28,06,51,048,40,03,52,135,38,02,62,191,34,01,22,106,30,1*71,1732608415699
NMEA,$GBGSV,7,6,28,04,07,099,,05,47,236,,08,03,178,,27,05,051,,1*7E,1732608415699
NMEA,$GBGSV,7,7,28,38,00,000,,46,15,057,,61,52,134,,62,08,095,,1*75,1732608415699
NMEA,$GBGSV,3,1,09,19,38,181,37,21,19,316,19,22,57,266,24,29,23,155,31,3*78,1732608415699
NMEA,$GBGSV,3,2,09,30,27,095,26,36,49,009,36,39,45,066,42,40,64,109,34,3*72,1732608415699
NMEA,$GBGSV,3,3,09,45,38,295,25,3*4E,1732608415699
NMEA,$GBGSV,3,1,09,19,38,181,35,21,19,316,22,22,57,266,23,29,23,155,34,5*76,1732608415699
NMEA,$GBGSV,3,2,09,30,27,095,19,36,49,009,26,39,45,066,37,40,64,109,32,5*7D,1732608415699
NMEA,$GBGSV,3,3,09,45,38,295,21,5*4C,1732608415699
NMEA,$GNGSA,A,3,03,04,07,08,09,16,27,,,,,,0.6,0.4,0.5,1*35,1732608415735
NMEA,$GNGSA,A,3,65,66,67,76,78,87,,,,,,,0.6,0.4,0.5,2*36,1732608415735
NMEA,$GNGSA,A,3,04,06,19,21,29,31,,,,,,,0.6,0.4,0.5,3*34,1732608415735
NMEA,$GNGSA,A,3,02,03,06,07,09,10,13,16,19,21,22,29,0.6,0.4,0.5,4*3E,1732608415735
NMEA,$GNGSA,A,3,02,04,,,,,,,,,,,0.6,0.4,0.5,5*34,1732608415735
NMEA,$GNVTG,,T,,M,0.0,N,0.0,K,A*3D,1732608415735
NMEA,$GNDTM,W84,,0000.000000,N,00000.000000,E,0.000,W84*41,1732608415735
NMEA,$GNRMC,080656.00,A,2235.671821,N,08821.676537,E,0.0,,261124,0.5,W,A,V*6F,1732608415735
NMEA,$GNGNS,080656.00,2235.671821,N,08821.676537,E,AAAAAN,38,0.4,-1.1,-57.0,,,V*25,1732608415735
NMEA,$GNGGA,080656.00,2235.671821,N,08821.676537,E,1,12,0.4,-1.1,M,-57.0,M,,*72,1732608415735
NMEA,$GPGSV,3,1,11,03,23,206,21,04,85,347,35,07,25,309,28,08,55,147,35,1*60,1732608416694
NMEA,$GPGSV,3,2,11,09,53,320,23,16,33,033,37,27,51,084,43,21,03,163,,1*67,1732608416694
NMEA,$GPGSV,3,3,11,26,06,048,,31,11,084,,41,00,000,37,1*55,1732608416694
NMEA,$GPGSV,2,1,05,03,23,206,20,04,85,347,31,08,55,147,42,09,53,320,21,8*65,1732608416694
NMEA,$GPGSV,2,2,05,27,51,084,34,8*52,1732608416694
NMEA,$GLGSV,3,1,09,78,20,270,23,66,65,196,34,86,11,073,12,77,43,337,16,1*7E,1732608416694
NMEA,$GLGSV,3,2,09,76,22,029,41,65,17,166,29,87,13,119,32,67,47,317,29,1*79,1732608416694
NMEA,$GLGSV,3,3,09,68,02,334,,1*49,1732608416694
NMEA,$GAGSV,2,1,07,04,43,324,22,06,18,321,21,19,73,125,35,21,37,031,39,7*7E,1732608416694
NMEA,$GAGSV,2,2,07,29,26,137,23,31,28,240,21,26,00,000,,7*46,1732608416694
NMEA,$GAGSV,2,1,06,04,43,324,19,06,18,321,17,19,73,125,32,21,37,031,37,1*7D,1732608416694
NMEA,$GAGSV,2,2,06,29,26,137,24,31,28,240,22,1*71,1732608416694
NMEA,$GQGSV,1,1,01,02,38,056,40,1*5A,1732608416694
NMEA,$GQGSV,1,1,03,02,38,056,37,03,12,112,14,04,20,143,19,8*5E,1732608416694
NMEA,$GBGSV,7,1,28,60,59,199,38,59,26,108,28,45,38,295,23,40,64,109,37,1*7E,1732608416694
NMEA,$GBGSV,7,2,28,39,45,066,43,36,49,009,32,30,27,095,23,29,23,155,35,1*73,1732608416694
NMEA,$GBGSV,7,3,28,22,57,266,33,19,38,181,40,16,47,055,37,13,09,187,27,1*77,1732608416694
NMEA,$GBGSV,7,4,28,10,65,166,27,09,54,025,36,07,70,134,40,06,51,048,40,1*7B,1732608416694
NMEA,$GBGSV,7,5,28,03,52,135,39,02,62,191,34,01,22,106,30,04,07,099,,1*79,1732608416694
NMEA,$GBGSV,7,6,28,05,47,236,,08,03,178,,21,19,316,,27,05,051,,1*72,1732608416694
NMEA,$GBGSV,7,7,28,38,00,000,,46,15,057,,61,52,134,,62,08,095,,1*75,1732608416694
NMEA,$GBGSV,3,1,09,19,38,181,37,21,19,316,22,22,57,266,26,29,23,155,32,3*71,1732608416694
NMEA,$GBGSV,3,2,09,30,27,095,25,36,49,009,35,39,45,066,42,40,64,109,33,3*75,1732608416694
NMEA,$GBGSV,3,3,09,45,38,295,25,3*4E,1732608416694
NMEA,$GBGSV,3,1,09,19,38,181,36,21,19,316,20,22,57,266,21,29,23,155,35,5*74,1732608416694
NMEA,$GBGSV,3,2,09,30,27,095,21,36,49,009,27,39,45,066,38,40,64,109,33,5*79,1732608416694
NMEA,$GBGSV,3,3,09,45,38,295,21,5*4C,1732608416694
NMEA,$GNGSA,A,3,03,04,07,08,09,16,27,,,,,,0.6,0.4,0.5,1*35,1732608416743
NMEA,$GNGSA,A,3,65,66,67,76,78,87,,,,,,,0.6,0.4,0.5,2*36,1732608416743
NMEA,$GNGSA,A,3,04,06,19,21,29,31,,,,,,,0.6,0.4,0.5,3*34,1732608416743
NMEA,$GNGSA,A,3,02,03,06,07,09,10,13,16,19,21,22,29,0.6,0.4,0.5,4*3E,1732608416743
NMEA,$GNGSA,A,3,02,04,,,,,,,,,,,0.6,0.4,0.5,5*34,1732608416743
NMEA,$GNVTG,,T,,M,0.0,N,0.0,K,A*3D,1732608416743
NMEA,$GNDTM,W84,,0000.000000,N,00000.000000,E,0.000,W84*41,1732608416743
NMEA,$GNRMC,080657.00,A,2235.671819,N,08821.676537,E,0.0,,261124,0.5,W,A,V*65,1732608416743
NMEA,$GNGNS,080657.00,2235.671819,N,08821.676537,E,AAAAAN,38,0.4,-1.1,-57.0,,,V*2F,1732608416743
NMEA,$GNGGA,080657.00,2235.671819,N,08821.676537,E,1,12,0.4,-1.1,M,-57.0,M,,*78,1732608416743
NMEA,$GPGSV,3,1,11,03,23,206,21,04,85,347,36,07,25,309,27,08,55,147,36,1*6F,1732608417697
NMEA,$GPGSV,3,2,11,09,53,320,23,16,33,033,38,27,51,084,43,21,03,163,,1*68,1732608417697
NMEA,$GPGSV,3,3,11,26,06,048,,31,11,084,,41,00,000,36,1*54,1732608417697
NMEA,$GPGSV,2,1,05,03,23,206,19,04,85,347,31,08,55,147,41,09,53,320,20,8*6D,1732608417697
NMEA,$GPGSV,2,2,05,27,51,084,35,8*53,1732608417697
NMEA,$GLGSV,3,1,09,78,20,270,18,66,65,196,33,86,11,073,12,77,43,337,16,1*71,1732608417697
NMEA,$GLGSV,3,2,09,76,22,029,40,65,17,166,28,87,13,119,31,67,47,317,28,1*7B,1732608417697
NMEA,$GLGSV,3,3,09,68,02,334,,1*49,1732608417697
NMEA,$GAGSV,2,1,07,04,43,324,26,06,18,321,21,19,73,125,35,21,37,031,39,7*7A,1732608417697
NMEA,$GAGSV,2,2,07,29,26,137,24,31,28,240,21,26,00,000,,7*41,1732608417697
NMEA,$GAGSV,2,1,06,04,43,324,20,06,18,321,20,19,73,125,32,21,37,031,36,1*72,1732608417697
NMEA,$GAGSV,2,2,06,29,26,137,23,31,28,240,22,1*76,1732608417697
NMEA,$GQGSV,1,1,01,02,38,056,40,1*5A,1732608417697
NMEA,$GQGSV,1,1,03,02,38,056,36,03,12,112,15,04,20,143,19,8*5E,1732608417697
NMEA,$GBGSV,7,1,28,60,59,199,36,59,26,108,28,45,38,295,25,40,64,109,37,1*76,1732608417697
NMEA,$GBGSV,7,2,28,39,45,066,42,36,49,009,32,30,27,095,23,29,23,155,36,1*71,1732608417697
NMEA,$GBGSV,7,3,28,22,57,266,33,19,38,181,39,16,47,055,38,13,09,187,26,1*77,1732608417697
NMEA,$GBGSV,7,4,28,10,65,166,29,09,54,025,36,07,70,134,39,06,51,048,39,1*75,1732608417697
NMEA,$GBGSV,7,5,28,03,52,135,39,02,62,191,33,01,22,106,31,04,07,099,,1*7F,1732608417697
NMEA,$GBGSV,7,6,28,05,47,236,,08,03,178,,21,19,316,,27,05,051,,1*72,1732608417697
NMEA,$GBGSV,7,7,28,38,00,000,,46,15,057,,61,52,134,,62,08,095,,1*75,1732608417697
NMEA,$GBGSV,3,1,09,19,38,181,37,21,19,316,19,22,57,266,24,29,23,155,33,3*7A,1732608417697
NMEA,$GBGSV,3,2,09,30,27,095,23,36,49,009,35,39,45,066,42,40,64,109,33,3*73,1732608417697
NMEA,$GBGSV,3,3,09,45,38,295,23,3*48,1732608417697
NMEA,$GBGSV,3,1,09,19,38,181,36,21,19,316,19,22,57,266,23,29,23,155,35,5*7C,1732608417697
NMEA,$GBGSV,3,2,09,30,27,095,19,36,49,009,25,39,45,066,38,40,64,109,33,5*70,1732608417697
NMEA,$GBGSV,3,3,09,45,38,295,22,5*4F,1732608417697
NMEA,$GNGSA,A,3,03,04,07,08,09,16,27,,,,,,0.6,0.4,0.5,1*35,1732608417746
NMEA,$GNGSA,A,3,65,66,67,76,78,87,,,,,,,0.6,0.4,0.5,2*36,1732608417746
NMEA,$GNGSA,A,3,04,06,19,21,29,31,,,,,,,0.6,0.4,0.5,3*34,1732608417746
NMEA,$GNGSA,A,3,02,03,06,07,09,10,13,16,19,21,22,29,0.6,0.4,0.5,4*3E,1732608417746
NMEA,$GNGSA,A,3,02,04,,,,,,,,,,,0.6,0.4,0.5,5*34,1732608417746
NMEA,$GNVTG,,T,,M,0.0,N,0.0,K,A*3D,1732608417746
NMEA,$GNDTM,W84,,0000.000000,N,00000.000000,E,0.000,W84*41,1732608417746
NMEA,$GNRMC,080658.00,A,2235.671817,N,08821.676537,E,0.0,,261124,0.5,W,A,V*64,1732608417746
NMEA,$GNGNS,080658.00,2235.671817,N,08821.676537,E,AAAAAN,38,0.4,-1.1,-57.0,,,V*2E,1732608417746
NMEA,$GNGGA,080658.00,2235.671817,N,08821.676537,E,1,12,0.4,-1.1,M,-57.0,M,,*79,1732608417746
NMEA,$GPGSV,3,1,11,04,85,347,35,07,25,309,27,08,55,147,36,09,53,320,24,1*61,1732608418697
NMEA,$GPGSV,3,2,11,16,33,033,38,27,51,084,43,31,11,084,16,03,23,206,,1*6C,1732608418697
NMEA,$GPGSV,3,3,11,21,03,163,,26,06,048,,41,00,000,36,1*5E,1732608418697
NMEA,$GPGSV,2,1,05,03,23,206,19,04,85,347,30,08,55,147,41,09,53,320,22,8*6E,1732608418697
NMEA,$GPGSV,2,2,05,27,51,084,35,8*53,1732608418697
NMEA,$GLGSV,3,1,09,78,20,270,18,66,65,196,32,86,11,073,12,77,43,337,17,1*71,1732608418697
NMEA,$GLGSV,3,2,09,76,22,029,40,65,17,166,29,87,13,119,31,67,47,317,26,1*74,1732608418697
NMEA,$GLGSV,3,3,09,68,02,334,,1*49,1732608418697
NMEA,$GAGSV,2,1,07,04,43,324,25,06,18,321,22,19,73,125,36,21,37,031,38,7*78,1732608418697
NMEA,$GAGSV,2,2,07,29,26,137,23,31,28,240,17,26,00,000,,7*43,1732608418697
NMEA,$GAGSV,2,1,06,04,43,324,20,06,18,321,18,19,73,125,32,21,37,031,36,1*79,1732608418697
NMEA,$GAGSV,2,2,06,29,26,137,24,31,28,240,23,1*70,1732608418697
NMEA,$GQGSV,1,1,01,02,38,056,40,1*5A,1732608418697
NMEA,$GQGSV,1,1,03,02,38,056,36,03,12,112,15,04,20,143,20,8*54,1732608418697
NMEA,$GBGSV,7,1,28,60,59,199,37,59,26,108,24,45,38,295,24,40,64,109,37,1*7A,1732608418697
NMEA,$GBGSV,7,2,28,39,45,066,42,36,49,009,32,30,27,095,24,29,23,155,36,1*76,1732608418697
NMEA,$GBGSV,7,3,28,22,57,266,31,19,38,181,39,16,47,055,39,13,09,187,26,1*74,1732608418697
NMEA,$GBGSV,7,4,28,10,65,166,30,09,54,025,36,07,70,134,39,06,51,048,39,1*7D,1732608418697
NMEA,$GBGSV,7,5,28,03,52,135,39,02,62,191,34,01,22,106,28,04,07,099,,1*70,1732608418697
NMEA,$GBGSV,7,6,28,05,47,236,,08,03,178,,21,19,316,,27,05,051,,1*72,1732608418697
NMEA,$GBGSV,7,7,28,38,00,000,,46,15,057,,61,52,134,,62,08,095,,1*75,1732608418697
NMEA,$GBGSV,3,1,09,19,38,181,36,21,19,316,20,22,57,266,24,29,23,155,33,3*71,1732608418697
NMEA,$GBGSV,3,2,09,30,27,095,25,36,49,009,36,39,45,066,42,40,64,109,34,3*71,1732608418697
NMEA,$GBGSV,3,3,09,45,38,295,25,3*4E,1732608418697
NMEA,$GBGSV,3,1,09,19,38,181,36,21,19,316,18,22,57,266,20,29,23,155,35,5*7E,1732608418697
NMEA,$GBGSV,3,2,09,30,27,095,20,36,49,009,26,39,45,066,37,40,64,109,32,5*77,1732608418697
NMEA,$GBGSV,3,3,09,45,38,295,22,5*4F,1732608418697
NMEA,$GNGSA,A,3,03,04,07,08,09,16,27,,,,,,0.6,0.4,0.5,1*35,1732608418744
NMEA,$GNGSA,A,3,65,66,67,76,78,87,,,,,,,0.6,0.4,0.5,2*36,1732608418744
NMEA,$GNGSA,A,3,04,06,19,21,29,31,,,,,,,0.6,0.4,0.5,3*34,1732608418744
NMEA,$GNGSA,A,3,02,03,06,07,09,10,13,16,19,21,22,29,0.6,0.4,0.5,4*3E,1732608418744
NMEA,$GNGSA,A,3,02,04,,,,,,,,,,,0.6,0.4,0.5,5*34,1732608418744
NMEA,$GNVTG,,T,,M,0.0,N,0.0,K,A*3D,1732608418744
NMEA,$GNDTM,W84,,0000.000000,N,00000.000000,E,0.000,W84*41,1732608418744
NMEA,$GNRMC,080659.00,A,2235.671815,N,08821.676538,E,0.0,,261124,0.5,W,A,V*68,1732608418744
NMEA,$GNGNS,080659.00,2235.671815,N,08821.676538,E,AAAAAN,38,0.4,-1.1,-57.0,,,V*22,1732608418744
NMEA,$GNGGA,080659.00,2235.671815,N,08821.676538,E,1,12,0.4,-1.1,M,-57.0,M,,*75,1732608418744
NMEA,$GPGSV,3,1,11,03,23,206,18,04,85,347,35,07,25,309,28,08,55,147,37,1*68,1732608419692
NMEA,$GPGSV,3,2,11,09,53,320,23,16,33,033,39,27,51,084,42,31,11,084,16,1*65,1732608419692
NMEA,$GPGSV,3,3,11,21,03,163,,26,06,048,,41,00,000,37,1*5F,1732608419692
NMEA,$GPGSV,2,1,05,03,23,206,18,04,85,347,31,08,55,147,41,09,53,320,19,8*66,1732608419692
NMEA,$GPGSV,2,2,05,27,51,084,35,8*53,1732608419692
NMEA,$GLGSV,3,1,09,78,20,270,19,66,65,196,31,86,11,073,12,77,43,337,18,1*7C,1732608419692
NMEA,$GLGSV,3,2,09,76,22,029,41,65,17,166,30,87,13,119,32,67,47,317,26,1*7E,1732608419692
NMEA,$GLGSV,3,3,09,68,02,334,,1*49,1732608419692
NMEA,$GAGSV,2,1,07,04,43,324,25,06,18,321,21,19,73,125,35,21,37,031,39,7*79,1732608419692
NMEA,$GAGSV,2,2,07,29,26,137,22,31,28,240,20,26,00,000,,7*46,1732608419692
NMEA,$GAGSV,2,1,06,04,43,324,21,06,18,321,18,19,73,125,31,21,37,031,36,1*7B,1732608419692
NMEA,$GAGSV,2,2,06,29,26,137,24,31,28,240,21,1*72,1732608419692
NMEA,$GQGSV,1,1,01,02,38,056,40,1*5A,1732608419692
NMEA,$GQGSV,1,1,03,02,38,056,36,03,12,112,14,04,20,143,19,8*5F,1732608419692
NMEA,$GBGSV,7,1,28,60,59,199,37,59,26,108,24,45,38,295,24,40,64,109,38,1*75,1732608419692
NMEA,$GBGSV,7,2,28,39,45,066,42,36,49,009,33,30,27,095,23,29,23,155,35,1*73,1732608419692
NMEA,$GBGSV,7,3,28,22,57,266,31,19,38,181,39,16,47,055,38,13,09,187,25,1*76,1732608419692
NMEA,$GBGSV,7,4,28,10,65,166,29,09,54,025,36,07,70,134,39,06,51,048,39,1*75,1732608419692
NMEA,$GBGSV,7,5,28,05,47,236,21,03,52,135,39,02,62,191,34,01,22,106,29,1*70,1732608419692
NMEA,$GBGSV,7,6,28,04,07,099,,08,03,178,,21,19,316,,27,05,051,,1*70,1732608419692
NMEA,$GBGSV,7,7,28,38,00,000,,46,15,057,,61,52,134,,62,08,095,,1*75,1732608419692
NMEA,$GBGSV,3,1,09,19,38,181,36,21,19,316,19,22,57,266,24,29,23,155,33,3*7B,1732608419692
NMEA,$GBGSV,3,2,09,30,27,095,24,36,49,009,36,39,45,066,42,40,64,109,33,3*77,1732608419692
NMEA,$GBGSV,3,3,09,45,38,295,26,3*4D,1732608419692
NMEA,$GBGSV,3,1,09,19,38,181,36,21,19,316,18,22,57,266,23,29,23,155,33,5*7B,1732608419692
NMEA,$GBGSV,3,2,09,30,27,095,19,36,49,009,25,39,45,066,37,40,64,109,32,5*7E,1732608419692
NMEA,$GBGSV,3,3,09,45,38,295,22,5*4F,1732608419692
NMEA,$GNGSA,A,3,03,04,07,08,09,16,27,,,,,,0.6,0.4,0.5,1*35,1732608419728
NMEA,$GNGSA,A,3,65,66,67,76,78,87,,,,,,,0.6,0.4,0.5,2*36,1732608419728
NMEA,$GNGSA,A,3,04,06,19,21,29,31,,,,,,,0.6,0.4,0.5,3*34,1732608419728
NMEA,$GNGSA,A,3,02,03,06,07,09,10,13,16,19,21,22,29,0.6,0.4,0.5,4*3E,1732608419728
NMEA,$GNGSA,A,3,02,04,,,,,,,,,,,0.6,0.4,0.5,5*34,1732608419728
NMEA,$GNVTG,,T,,M,0.0,N,0.0,K,A*3D,1732608419728
NMEA,$GNDTM,W84,,0000.000000,N,00000.000000,E,0.000,W84*41,1732608419728
NMEA,$GNRMC,080700.00,A,2235.671813,N,08821.676539,E,0.0,,261124,0.5,W,A,V*62,1732608419728
NMEA,$GNGNS,080700.00,2235.671813,N,08821.676539,E,AAAAAN,38,0.4,-1.1,-57.0,,,V*28,1732608419728
NMEA,$GNGGA,080700.00,2235.671813,N,08821.676539,E,1,12,0.4,-1.1,M,-57.0,M,,*7F,1732608419728
NMEA,$GPGSV,3,1,11,03,23,206,18,04,85,347,36,07,25,309,25,08,55,147,36,1*67,1732608420694
NMEA,$GPGSV,3,2,11,09,53,320,23,16,33,033,38,27,51,084,42,31,11,084,16,1*64,1732608420694
NMEA,$GPGSV,3,3,11,21,03,163,,26,06,048,,41,00,000,37,1*5F,1732608420694
NMEA,$GPGSV,2,1,05,03,23,206,18,04,85,347,29,08,55,147,40,09,53,320,22,8*66,1732608420694
NMEA,$GPGSV,2,2,05,27,51,084,34,8*52,1732608420694
NMEA,$GLGSV,3,1,09,78,20,270,19,66,65,196,31,86,11,073,12,77,43,337,18,1*7C,1732608420694
NMEA,$GLGSV,3,2,09,76,22,029,41,65,17,166,30,87,13,119,32,67,47,317,24,1*7C,1732608420694
NMEA,$GLGSV,3,3,09,68,02,334,,1*49,1732608420694
NMEA,$GAGSV,2,1,07,04,43,324,27,06,18,321,22,19,73,125,35,21,37,031,38,7*79,1732608420694
NMEA,$GAGSV,2,2,07,29,26,137,22,31,28,240,16,26,00,000,,7*43,1732608420694
NMEA,$GAGSV,2,1,06,04,43,324,20,06,18,321,17,19,73,125,30,21,37,031,35,1*77,1732608420694
NMEA,$GAGSV,2,2,06,29,26,137,23,31,28,240,21,1*75,1732608420694
NMEA,$GQGSV,1,1,01,02,38,056,40,1*5A,1732608420694
NMEA,$GQGSV,1,1,03,02,38,056,34,03,12,112,14,04,20,143,18,8*5C,1732608420694
NMEA,$GBGSV,7,1,28,60,59,199,36,59,26,108,24,45,38,295,22,40,64,109,38,1*72,1732608420694
NMEA,$GBGSV,7,2,28,39,45,066,43,36,49,009,33,30,27,095,24,29,23,155,35,1*75,1732608420694
NMEA,$GBGSV,7,3,28,22,57,266,31,19,38,181,39,16,47,055,39,13,09,187,26,1*74,1732608420694
NMEA,$GBGSV,7,4,28,10,65,166,29,09,54,025,36,07,70,134,39,06,51,048,40,1*7B,1732608420694
NMEA,$GBGSV,7,5,28,05,47,236,21,03,52,135,39,02,62,191,34,01,22,106,29,1*70,1732608420694
NMEA,$GBGSV,7,6,28,04,07,099,,08,03,178,,21,19,316,,27,05,051,,1*70,1732608420694
NMEA,$GBGSV,7,7,28,38,00,000,,46,15,057,,61,52,134,,62,08,095,,1*75,1732608420694
NMEA,$GBGSV,3,1,09,19,38,181,37,21,19,316,21,22,57,266,26,29,23,155,32,3*72,1732608420694
NMEA,$GBGSV,3,2,09,30,27,095,23,36,49,009,35,39,45,066,42,40,64,109,34,3*74,1732608420694
NMEA,$GBGSV,3,3,09,45,38,295,23,3*48,1732608420694
NMEA,$GBGSV,3,1,09,19,38,181,34,21,19,316,15,22,57,266,19,29,23,155,33,5*7D,1732608420694
NMEA,$GBGSV,3,2,09,30,27,095,18,36,49,009,25,39,45,066,36,40,64,109,31,5*7D,1732608420694
NMEA,$GBGSV,3,3,09,45,38,295,19,5*47,1732608420694
NMEA,$GNGSA,A,3,03,04,07,08,09,16,27,,,,,,0.6,0.4,0.5,1*35,1732608420738
NMEA,$GNGSA,A,3,65,66,67,76,78,87,,,,,,,0.6,0.4,0.5,2*36,1732608420738
NMEA,$GNGSA,A,3,04,06,19,21,29,31,,,,,,,0.6,0.4,0.5,3*34,1732608420738
NMEA,$GNGSA,A,3,02,03,06,07,09,10,13,16,19,21,22,29,0.6,0.4,0.5,4*3E,1732608420738
NMEA,$GNGSA,A,3,02,04,,,,,,,,,,,0.6,0.4,0.5,5*34,1732608420738
NMEA,$GNVTG,,T,,M,0.0,N,0.0,K,A*3D,1732608420738
NMEA,$GNDTM,W84,,0000.000000,N,00000.000000,E,0.000,W84*41,1732608420738
NMEA,$GNRMC,080701.00,A,2235.671811,N,08821.676540,E,0.0,,261124,0.5,W,A,V*6F,1732608420738
NMEA,$GNGNS,080701.00,2235.671811,N,08821.676540,E,AAAAAN,38,0.4,-1.1,-57.0,,,V*25,1732608420738
NMEA,$GNGGA,080701.00,2235.671811,N,08821.676540,E,1,12,0.4,-1.1,M,-57.0,M,,*72,1732608420738
NMEA,$GPGSV,3,1,11,03,23,206,21,04,85,347,35,07,25,309,26,08,55,147,36,1*6D,1732608421696
NMEA,$GPGSV,3,2,11,09,53,320,24,16,33,033,39,27,51,084,42,31,11,084,16,1*62,1732608421696
NMEA,$GPGSV,3,3,11,21,03,163,,26,06,048,,41,00,000,38,1*50,1732608421696
NMEA,$GPGSV,2,1,05,03,23,206,16,04,85,347,30,08,55,147,40,09,53,320,19,8*68,1732608421696
NMEA,$GPGSV,2,2,05,27,51,084,34,8*52,1732608421696
NMEA,$GLGSV,3,1,09,78,20,270,16,66,65,196,31,86,11,073,12,77,43,337,18,1*73,1732608421696
NMEA,$GLGSV,3,2,09,76,22,029,41,65,17,166,29,87,13,119,32,67,47,317,26,1*76,1732608421696
NMEA,$GLGSV,3,3,09,68,02,334,,1*49,1732608421696
NMEA,$GAGSV,2,1,07,04,43,324,27,06,18,321,21,19,73,125,35,21,37,031,38,7*7A,1732608421696
NMEA,$GAGSV,2,2,07,29,26,137,19,31,28,240,17,26,00,000,,7*4A,1732608421696
NMEA,$GAGSV,2,1,06,04,43,324,21,06,18,321,17,19,73,125,30,21,37,031,35,1*76,1732608421696
NMEA,$GAGSV,2,2,06,29,26,137,23,31,28,240,22,1*76,1732608421696
NMEA,$GQGSV,1,1,01,02,38,056,40,1*5A,1732608421696
NMEA,$GQGSV,1,1,03,02,38,056,35,03,12,112,14,04,20,143,16,8*53,1732608421696
NMEA,$GBGSV,7,1,28,60,59,199,36,59,26,108,22,45,38,295,21,40,64,109,38,1*77,1732608421696
NMEA,$GBGSV,7,2,28,39,45,066,42,36,49,009,33,30,27,095,23,29,23,155,36,1*70,1732608421696
NMEA,$GBGSV,7,3,28,22,57,266,32,19,38,181,40,16,47,055,39,13,09,187,25,1*7A,1732608421696
NMEA,$GBGSV,7,4,28,10,65,166,28,09,54,025,37,07,70,134,39,06,51,048,40,1*7B,1732608421696
NMEA,$GBGSV,7,5,28,05,47,236,21,03,52,135,39,02,62,191,33,01,22,106,28,1*76,1732608421696
NMEA,$GBGSV,7,6,28,04,07,099,,08,03,178,,21,19,316,,27,05,051,,1*70,1732608421696
NMEA,$GBGSV,7,7,28,38,00,000,,46,15,057,,61,52,134,,62,08,095,,1*75,1732608421696
NMEA,$GBGSV,3,1,09,19,38,181,36,21,19,316,20,22,57,266,25,29,23,155,33,3*70,1732608421696
NMEA,$GBGSV,3,2,09,30,27,095,23,36,49,009,35,39,45,066,42,40,64,109,34,3*74,1732608421696
NMEA,$GBGSV,3,3,09,45,38,295,19,3*41,1732608421696
NMEA,$GBGSV,3,1,09,19,38,181,35,21,19,316,18,22,57,266,23,29,23,155,34,5*7F,1732608421696
NMEA,$GBGSV,3,2,09,30,27,095,16,36,49,009,25,39,45,066,36,40,64,109,31,5*73,1732608421696
NMEA,$GBGSV,3,3,09,45,38,295,21,5*4C,1732608421696
NMEA,$GNGSA,A,3,03,04,07,08,09,16,27,,,,,,0.6,0.4,0.5,1*35,1732608421733
NMEA,$GNGSA,A,3,65,66,67,76,78,87,,,,,,,0.6,0.4,0.5,2*36,1732608421733
NMEA,$GNGSA,A,3,04,06,19,21,29,31,,,,,,,0.6,0.4,0.5,3*34,1732608421733
NMEA,$GNGSA,A,3,02,03,06,07,09,10,13,16,19,21,22,29,0.6,0.4,0.5,4*3E,1732608421733
NMEA,$GNGSA,A,3,02,04,,,,,,,,,,,0.6,0.4,0.5,5*34,1732608421733
NMEA,$GNVTG,,T,,M,0.0,N,0.0,K,A*3D,1732608421733
NMEA,$GNDTM,W84,,0000.000000,N,00000.000000,E,0.000,W84*41,1732608421733
NMEA,$GNRMC,080702.00,A,2235.671810,N,08821.676540,E,0.0,,261124,0.5,W,A,V*6D,1732608421733
NMEA,$GNGNS,080702.00,2235.671810,N,08821.676540,E,AAAAAN,38,0.4,-1.1,-57.0,,,V*27,1732608421733
NMEA,$GNGGA,080702.00,2235.671810,N,08821.676540,E,1,12,0.4,-1.1,M,-57.0,M,,*70,1732608421733
NMEA,$GPGSV,3,1,11,03,23,206,20,04,85,347,34,07,25,309,26,08,55,147,36,1*6D,1732608422693
NMEA,$GPGSV,3,2,11,09,53,320,24,16,33,033,39,27,51,084,42,21,03,163,,1*6F,1732608422693
NMEA,$GPGSV,3,3,11,26,06,048,,31,11,084,,41,00,000,37,1*55,1732608422693
NMEA,$GPGSV,2,1,05,03,23,206,20,04,85,347,31,08,55,147,42,09,53,320,22,8*66,1732608422693
NMEA,$GPGSV,2,2,05,27,51,084,36,8*50,1732608422693
NMEA,$GLGSV,3,1,09,78,20,270,16,66,65,196,31,86,11,073,12,77,43,337,18,1*73,1732608422693
NMEA,$GLGSV,3,2,09,76,22,029,40,65,17,166,30,87,13,119,33,67,47,317,27,1*7F,1732608422693
NMEA,$GLGSV,3,3,09,68,02,334,,1*49,1732608422693
NMEA,$GAGSV,2,1,07,04,43,324,27,06,18,321,21,19,73,125,35,21,37,031,39,7*7B,1732608422693
NMEA,$GAGSV,2,2,07,29,26,137,22,31,28,240,17,26,00,000,,7*42,1732608422693
NMEA,$GAGSV,2,1,06,04,43,324,22,06,18,321,19,19,73,125,32,21,37,031,37,1*7B,1732608422693
NMEA,$GAGSV,2,2,06,29,26,137,24,31,28,240,23,1*70,1732608422693
NMEA,$GQGSV,1,1,01,02,38,056,40,1*5A,1732608422693
NMEA,$GQGSV,1,1,03,02,38,056,37,03,12,112,14,04,20,143,21,8*55,1732608422693
NMEA,$GBGSV,7,1,28,60,59,199,36,59,26,108,22,45,38,295,23,40,64,109,38,1*75,1732608422693
NMEA,$GBGSV,7,2,28,39,45,066,42,36,49,009,33,30,27,095,23,29,23,155,35,1*73,1732608422693
NMEA,$GBGSV,7,3,28,22,57,266,31,19,38,181,39,16,47,055,39,13,09,187,25,1*77,1732608422693
NMEA,$GBGSV,7,4,28,10,65,166,29,09,54,025,36,07,70,134,39,06,51,048,40,1*7B,1732608422693
NMEA,$GBGSV,7,5,28,05,47,236,21,03,52,135,39,02,62,191,34,01,22,106,28,1*71,1732608422693
NMEA,$GBGSV,7,6,28,04,07,099,,08,03,178,,21,19,316,,27,05,051,,1*70,1732608422693
NMEA,$GBGSV,7,7,28,38,00,000,,46,15,057,,61,52,134,,62,08,095,,1*75,1732608422693
NMEA,$GBGSV,3,1,09,19,38,181,36,21,19,316,19,22,57,266,23,29,23,155,33,3*7C,1732608422693
NMEA,$GBGSV,3,2,09,30,27,095,23,36,49,009,36,39,45,066,42,40,64,109,33,3*70,1732608422693
NMEA,$GBGSV,3,3,09,45,38,295,20,3*4B,1732608422693
NMEA,$GBGSV,3,1,09,19,38,181,36,21,19,316,19,22,57,266,22,29,23,155,35,5*7D,1732608422693
NMEA,$GBGSV,3,2,09,30,27,095,19,36,49,009,27,39,45,066,38,40,64,109,33,5*72,1732608422693
NMEA,$GBGSV,3,3,09,45,38,295,24,5*49,1732608422693
NMEA,$GNGSA,A,3,03,04,07,08,09,16,27,,,,,,0.6,0.4,0.5,1*35,1732608422725
NMEA,$GNGSA,A,3,65,66,67,76,78,87,,,,,,,0.6,0.4,0.5,2*36,1732608422725
NMEA,$GNGSA,A,3,04,06,19,21,29,31,,,,,,,0.6,0.4,0.5,3*34,1732608422725
NMEA,$GNGSA,A,3,02,03,06,07,09,10,13,16,19,21,22,29,0.6,0.4,0.5,4*3E,1732608422725
NMEA,$GNGSA,A,3,02,04,,,,,,,,,,,0.6,0.4,0.5,5*34,1732608422725
NMEA,$GNVTG,,T,,M,0.0,N,0.0,K,A*3D,1732608422725
NMEA,$GNDTM,W84,,0000.000000,N,00000.000000,E,0.000,W84*41,1732608422725
NMEA,$GNRMC,080703.00,A,2235.671808,N,08821.676540,E,0.0,,261124,0.5,W,A,V*65,1732608422725
NMEA,$GNGNS,080703.00,2235.671808,N,08821.676540,E,AAAAAN,38,0.4,-1.1,-57.0,,,V*2F,1732608422725
NMEA,$GNGGA,080703.00,2235.671808,N,08821.676540,E,1,12,0.4,-1.1,M,-57.0,M,,*78,1732608422725
NMEA,$GPGSV,3,1,11,03,23,206,21,04,85,347,35,07,25,309,29,08,55,147,36,1*62,1732608423698
NMEA,$GPGSV,3,2,11,09,53,320,26,16,33,033,39,27,51,084,42,21,03,163,,1*6D,1732608423698
NMEA,$GPGSV,3,3,11,26,06,048,,31,11,084,,41,00,000,38,1*5A,1732608423698
NMEA,$GPGSV,2,1,05,03,23,206,22,04,85,347,32,08,55,147,42,09,53,320,21,8*64,1732608423698
NMEA,$GPGSV,2,2,05,27,51,084,35,8*53,1732608423698
NMEA,$GLGSV,3,1,09,78,20,270,18,66,65,196,34,86,11,073,12,77,43,337,16,1*76,1732608423698
NMEA,$GLGSV,3,2,09,76,22,029,40,65,17,166,30,87,13,119,32,67,47,317,28,1*71,1732608423698
NMEA,$GLGSV,3,3,09,68,02,334,,1*49,1732608423698
NMEA,$GAGSV,2,1,07,04,43,324,26,06,18,321,21,19,73,125,35,21,37,031,39,7*7A,1732608423698
NMEA,$GAGSV,2,2,07,29,26,137,20,31,28,240,16,26,00,000,,7*41,1732608423698
NMEA,$GAGSV,2,1,06,04,43,324,24,06,18,321,18,19,73,125,32,21,37,031,37,1*7C,1732608423698
NMEA,$GAGSV,2,2,06,29,26,137,24,31,28,240,22,1*71,1732608423698
NMEA,$GQGSV,1,1,01,02,38,056,40,1*5A,1732608423698
NMEA,$GQGSV,1,1,03,02,38,056,37,03,12,112,13,04,20,143,20,8*53,1732608423698
NMEA,$GBGSV,7,1,28,60,59,199,37,59,26,108,22,45,38,295,21,40,64,109,37,1*79,1732608423698
NMEA,$GBGSV,7,2,28,39,45,066,42,36,49,009,32,30,27,095,23,29,23,155,35,1*72,1732608423698
NMEA,$GBGSV,7,3,28,22,57,266,30,21,19,316,19,19,38,181,40,16,47,055,38,1*7C,1732608423698
NMEA,$GBGSV,7,4,28,13,09,187,26,10,65,166,29,09,54,025,36,07,70,134,39,1*70,1732608423698
NMEA,$GBGSV,7,5,28,06,51,048,40,03,52,135,39,02,62,191,34,01,22,106,29,1*78,1732608423698
NMEA,$GBGSV,7,6,28,04,07,099,,05,47,236,,08,03,178,,27,05,051,,1*7E,1732608423698
NMEA,$GBGSV,7,7,28,38,00,000,,46,15,057,,61,52,134,,62,08,095,,1*75,1732608423698
NMEA,$GBGSV,3,1,09,19,38,181,37,21,19,316,20,22,57,266,20,29,23,155,33,3*74,1732608423698
NMEA,$GBGSV,3,2,09,30,27,095,22,36,49,009,36,39,45,066,42,40,64,109,34,3*76,1732608423698
NMEA,$GBGSV,3,3,09,45,38,295,22,3*49,1732608423698
NMEA,$GBGSV,3,1,09,19,38,181,37,21,19,316,19,22,57,266,23,29,23,155,35,5*7D,1732608423698
NMEA,$GBGSV,3,2,09,30,27,095,17,36,49,009,27,39,45,066,38,40,64,109,34,5*7B,1732608423698
NMEA,$GBGSV,3,3,09,45,38,295,22,5*4F,1732608423698
NMEA,$GNGSA,A,3,03,04,07,08,09,16,27,,,,,,0.6,0.4,0.5,1*35,1732608423743
NMEA,$GNGSA,A,3,65,66,67,76,78,87,,,,,,,0.6,0.4,0.5,2*36,1732608423743
NMEA,$GNGSA,A,3,04,06,19,21,29,31,,,,,,,0.6,0.4,0.5,3*34,1732608423743
NMEA,$GNGSA,A,3,02,03,06,07,09,10,13,16,19,21,22,29,0.6,0.4,0.5,4*3E,1732608423743
NMEA,$GNGSA,A,3,02,04,,,,,,,,,,,0.6,0.4,0.5,5*34,1732608423743
NMEA,$GNVTG,,T,,M,0.0,N,0.0,K,A*3D,1732608423743
NMEA,$GNDTM,W84,,0000.000000,N,00000.000000,E,0.000,W84*41,1732608423743
NMEA,$GNRMC,080704.00,A,2235.671806,N,08821.676541,E,0.0,,261124,0.5,W,A,V*6D,1732608423743
NMEA,$GNGNS,080704.00,2235.671806,N,08821.676541,E,AAAAAN,38,0.4,-1.1,-57.0,,,V*27,1732608423743
NMEA,$GNGGA,080704.00,2235.671806,N,08821.676541,E,1,12,0.4,-1.1,M,-57.0,M,,*70,1732608423743
NMEA,$GPGSV,3,1,11,03,23,206,21,04,85,347,34,07,25,309,28,08,55,147,36,1*62,1732608424713
NMEA,$GPGSV,3,2,11,09,53,320,24,16,33,033,38,27,51,084,41,21,03,163,,1*6D,1732608424713
NMEA,$GPGSV,3,3,11,26,06,048,,31,11,084,,41,00,000,39,1*5B,1732608424713
NMEA,$GPGSV,2,1,05,03,23,206,19,04,85,347,31,08,55,147,40,09,53,320,23,8*6F,1732608424713
NMEA,$GPGSV,2,2,05,27,51,084,33,8*55,1732608424713
NMEA,$GLGSV,3,1,09,78,20,270,20,66,65,196,33,86,11,073,12,77,43,337,16,1*7A,1732608424713
NMEA,$GLGSV,3,2,09,76,22,029,39,65,17,166,30,87,13,119,32,67,47,317,28,1*7F,1732608424713
NMEA,$GLGSV,3,3,09,68,02,334,,1*49,1732608424713
NMEA,$GAGSV,2,1,07,04,43,324,26,06,18,321,23,19,73,125,35,21,37,031,37,7*76,1732608424713
NMEA,$GAGSV,2,2,07,29,26,137,20,31,28,240,19,26,00,000,,7*4E,1732608424713
NMEA,$GAGSV,2,1,06,04,43,324,17,06,18,321,19,19,73,125,31,21,37,031,35,1*7C,1732608424713
NMEA,$GAGSV,2,2,06,29,26,137,23,31,28,240,22,1*76,1732608424713
NMEA,$GQGSV,1,1,01,02,38,056,39,1*54,1732608424713
NMEA,$GQGSV,1,1,03,02,38,056,34,03,12,112,13,04,20,143,19,8*5A,1732608424713
NMEA,$GBGSV,7,1,28,60,59,199,37,59,26,108,25,45,38,295,22,40,64,109,37,1*7D,1732608424713
NMEA,$GBGSV,7,2,28,39,45,066,42,36,49,009,31,30,27,095,21,29,23,155,36,1*70,1732608424713
NMEA,$GBGSV,7,3,28,22,57,266,30,21,19,316,20,19,38,181,40,16,47,055,38,1*76,1732608424713
NMEA,$GBGSV,7,4,28,13,09,187,26,10,65,166,30,09,54,025,36,07,70,134,40,1*76,1732608424713
NMEA,$GBGSV,7,5,28,06,51,048,39,03,52,135,39,02,62,191,35,01,22,106,29,1*77,1732608424713
NMEA,$GBGSV,7,6,28,04,07,099,,05,47,236,,08,03,178,,27,05,051,,1*7E,1732608424713
NMEA,$GBGSV,7,7,28,38,00,000,,46,15,057,,61,52,134,,62,08,095,,1*75,1732608424713
NMEA,$GBGSV,3,1,09,19,38,181,38,21,19,316,23,22,57,266,18,29,23,155,34,3*74,1732608424713
NMEA,$GBGSV,3,2,09,30,27,095,21,36,49,009,34,39,45,066,40,40,64,109,34,3*75,1732608424713
NMEA,$GBGSV,3,3,09,45,38,295,18,3*40,1732608424713
NMEA,$GBGSV,3,1,09,19,38,181,35,21,19,316,16,22,57,266,23,29,23,155,35,5*70,1732608424713
NMEA,$GBGSV,3,2,09,30,27,095,17,36,49,009,24,39,45,066,36,40,64,109,32,5*70,1732608424713
NMEA,$GBGSV,3,3,09,45,38,295,21,5*4C,1732608424713
NMEA,$GNGSA,A,3,03,04,07,08,09,16,27,,,,,,0.6,0.4,0.5,1*35,1732608424750
NMEA,$GNGSA,A,3,65,66,67,76,78,87,,,,,,,0.6,0.4,0.5,2*36,1732608424750
NMEA,$GNGSA,A,3,04,06,19,21,29,31,,,,,,,0.6,0.4,0.5,3*34,1732608424750
NMEA,$GNGSA,A,3,02,03,06,07,09,10,13,16,19,21,22,29,0.6,0.4,0.5,4*3E,1732608424750
NMEA,$GNGSA,A,3,02,04,,,,,,,,,,,0.6,0.4,0.5,5*34,1732608424750
NMEA,$GNVTG,,T,,M,0.0,N,0.0,K,A*3D,1732608424750
NMEA,$GNDTM,W84,,0000.000000,N,00000.000000,E,0.000,W84*41,1732608424750
NMEA,$GNRMC,080705.00,A,2235.671804,N,08821.676544,E,0.0,,261124,0.5,W,A,V*6B,1732608424750
NMEA,$GNGNS,080705.00,2235.671804,N,08821.676544,E,AAAAAN,38,0.4,-1.1,-57.0,,,V*21,1732608424750
NMEA,$GNGGA,080705.00,2235.671804,N,08821.676544,E,1,12,0.4,-1.1,M,-57.0,M,,*76,1732608424750
NMEA,$GPGSV,3,1,11,04,85,347,34,07,25,309,26,08,55,147,36,09,53,320,23,1*66,1732608425692
NMEA,$GPGSV,3,2,11,16,33,033,38,27,51,084,41,03,23,206,,21,03,163,,1*63,1732608425692
NMEA,$GPGSV,3,3,11,26,06,048,,31,11,084,,41,00,000,39,1*5B,1732608425692
NMEA,$GPGSV,2,1,05,03,23,206,16,04,85,347,30,08,55,147,40,09,53,320,21,8*63,1732608425692
NMEA,$GPGSV,2,2,05,27,51,084,33,8*55,1732608425692
NMEA,$GLGSV,3,1,09,78,20,270,18,66,65,196,33,86,11,073,12,77,43,337,16,1*71,1732608425692
NMEA,$GLGSV,3,2,09,76,22,029,40,65,17,166,30,87,13,119,32,67,47,317,22,1*7B,1732608425692
NMEA,$GLGSV,3,3,09,68,02,334,,1*49,1732608425692
NMEA,$GAGSV,2,1,07,04,43,324,26,06,18,321,22,19,73,125,35,21,37,031,37,7*77,1732608425692
NMEA,$GAGSV,2,2,07,29,26,137,17,31,28,240,19,26,00,000,,7*4A,1732608425692
NMEA,$GAGSV,2,1,06,04,43,324,17,06,18,321,18,19,73,125,31,21,37,031,35,1*7D,1732608425692
NMEA,$GAGSV,2,2,06,29,26,137,23,31,28,240,22,1*76,1732608425692
NMEA,$GQGSV,1,1,01,02,38,056,39,1*54,1732608425692
NMEA,$GQGSV,1,1,03,02,38,056,35,03,12,112,15,04,20,143,17,8*53,1732608425692
NMEA,$GBGSV,7,1,28,60,59,199,37,59,26,108,25,45,38,295,24,40,64,109,38,1*74,1732608425692
NMEA,$GBGSV,7,2,28,39,45,066,42,36,49,009,32,30,27,095,24,29,23,155,36,1*76,1732608425692
NMEA,$GBGSV,7,3,28,22,57,266,31,21,19,316,18,19,38,181,40,16,47,055,39,1*7D,1732608425692
NMEA,$GBGSV,7,4,28,13,09,187,27,10,65,166,30,09,54,025,37,07,70,134,39,1*78,1732608425692
NMEA,$GBGSV,7,5,28,06,51,048,39,03,52,135,39,02,62,191,34,01,22,106,28,1*77,1732608425692
NMEA,$GBGSV,7,6,28,04,07,099,,05,47,236,,08,03,178,,27,05,051,,1*7E,1732608425692
NMEA,$GBGSV,7,7,28,38,00,000,,46,15,057,,61,52,134,,62,08,095,,1*75,1732608425692
NMEA,$GBGSV,3,1,09,19,38,181,38,21,19,316,21,22,57,266,20,29,23,155,33,3*7A,1732608425692
NMEA,$GBGSV,3,2,09,30,27,095,23,36,49,009,36,39,45,066,41,40,64,109,34,3*74,1732608425692
NMEA,$GBGSV,3,3,09,45,38,295,19,3*41,1732608425692
NMEA,$GBGSV,3,1,09,19,38,181,35,21,19,316,16,22,57,266,20,29,23,155,35,5*73,1732608425692
NMEA,$GBGSV,3,2,09,30,27,095,17,36,49,009,23,39,45,066,36,40,64,109,31,5*74,1732608425692
NMEA,$GBGSV,3,3,09,45,38,295,22,5*4F,1732608425692
NMEA,$GNGSA,A,3,03,04,07,08,09,16,27,,,,,,0.6,0.4,0.5,1*35,1732608425712
NMEA,$GNGSA,A,3,65,66,67,76,78,87,,,,,,,0.6,0.4,0.5,2*36,1732608425712
NMEA,$GNGSA,A,3,04,06,19,21,29,31,,,,,,,0.6,0.4,0.5,3*34,1732608425712
NMEA,$GNGSA,A,3,02,03,06,07,09,10,13,16,19,21,22,29,0.6,0.4,0.5,4*3E,1732608425712
NMEA,$GNGSA,A,3,02,04,,,,,,,,,,,0.6,0.4,0.5,5*34,1732608425712
NMEA,$GNVTG,,T,,M,0.0,N,0.0,K,A*3D,1732608425712
NMEA,$GNDTM,W84,,0000.000000,N,00000.000000,E,0.000,W84*41,1732608425712
NMEA,$GNRMC,080706.00,A,2235.671802,N,08821.676546,E,0.0,,261124,0.5,W,A,V*6C,1732608425712
NMEA,$GNGNS,080706.00,2235.671802,N,08821.676546,E,AAAAAN,38,0.4,-1.1,-57.0,,,V*26,1732608425712
NMEA,$GNGGA,080706.00,2235.671802,N,08821.676546,E,1,12,0.4,-1.1,M,-57.0,M,,*71,1732608425712
NMEA,$GPGSV,3,1,11,04,85,347,36,07,25,309,22,08,55,147,38,16,33,033,39,1*6C,1732608426703
NMEA,$GPGSV,3,2,11,27,51,084,41,03,23,206,,09,53,320,,21,03,163,,1*61,1732608426703
NMEA,$GPGSV,3,3,11,26,06,048,,31,11,084,,41,00,000,41,1*54,1732608426703
NMEA,$GPGSV,2,1,05,03,23,206,19,04,85,347,31,08,55,147,39,09,53,320,23,8*61,1732608426703
NMEA,$GPGSV,2,2,05,27,51,084,36,8*50,1732608426703
NMEA,$GLGSV,3,1,09,78,20,270,22,66,65,196,36,86,11,073,17,77,43,337,16,1*78,1732608426703
NMEA,$GLGSV,3,2,09,76,22,029,40,65,17,166,31,87,13,119,33,67,47,317,20,1*79,1732608426703
NMEA,$GLGSV,3,3,09,68,02,334,,1*49,1732608426703
NMEA,$GAGSV,2,1,07,04,43,324,28,06,18,321,21,19,73,125,36,21,37,031,37,7*79,1732608426703
NMEA,$GAGSV,2,2,07,29,26,137,17,31,28,240,16,26,00,000,,7*45,1732608426703
NMEA,$GAGSV,2,1,06,04,43,324,17,06,18,321,17,19,73,125,32,21,37,031,34,1*70,1732608426703
NMEA,$GAGSV,2,2,06,29,26,137,23,31,28,240,22,1*76,1732608426703
NMEA,$GQGSV,1,1,01,02,38,056,38,1*55,1732608426703
NMEA,$GQGSV,1,1,03,02,38,056,33,03,12,112,15,04,20,143,19,8*5B,1732608426703
NMEA,$GBGSV,7,1,28,60,59,199,34,59,26,108,25,45,38,295,24,40,64,109,40,1*78,1732608426703
NMEA,$GBGSV,7,2,28,39,45,066,42,36,49,009,32,30,27,095,21,29,23,155,36,1*73,1732608426703
NMEA,$GBGSV,7,3,28,22,57,266,32,21,19,316,21,19,38,181,41,16,47,055,42,1*79,1732608426703
NMEA,$GBGSV,7,4,28,13,09,187,28,10,65,166,36,09,54,025,39,07,70,134,36,1*70,1732608426703
NMEA,$GBGSV,7,5,28,06,51,048,39,03,52,135,40,02,62,191,35,01,22,106,28,1*78,1732608426703
NMEA,$GBGSV,7,6,28,04,07,099,,05,47,236,,08,03,178,,27,05,051,,1*7E,1732608426703
NMEA,$GBGSV,7,7,28,38,00,000,,46,15,057,,61,52,134,,62,08,095,,1*75,1732608426703
NMEA,$GBGSV,3,1,09,19,38,181,37,21,19,316,21,22,57,266,22,29,23,155,33,3*77,1732608426703
NMEA,$GBGSV,3,2,09,30,27,095,27,36,49,009,35,39,45,066,41,40,64,109,36,3*71,1732608426703
NMEA,$GBGSV,3,3,09,45,38,295,24,3*4F,1732608426703
NMEA,$GBGSV,3,1,09,19,38,181,34,21,19,316,16,22,57,266,24,29,23,155,35,5*76,1732608426703
NMEA,$GBGSV,3,2,09,30,27,095,17,36,49,009,22,39,45,066,36,40,64,109,31,5*75,1732608426703
NMEA,$GBGSV,3,3,09,45,38,295,23,5*4E,1732608426703
NMEA,$GNGSA,A,3,03,04,07,08,09,16,27,,,,,,0.6,0.4,0.5,1*35,1732608426718
NMEA,$GNGSA,A,3,65,66,67,76,78,87,,,,,,,0.6,0.4,0.5,2*36,1732608426718
NMEA,$GNGSA,A,3,04,06,19,21,29,31,,,,,,,0.6,0.4,0.5,3*34,1732608426718
NMEA,$GNGSA,A,3,02,03,06,07,09,10,13,16,19,21,22,29,0.6,0.4,0.5,4*3E,1732608426718
NMEA,$GNGSA,A,3,02,04,,,,,,,,,,,0.6,0.4,0.5,5*34,1732608426718
NMEA,$GNVTG,,T,,M,0.0,N,0.0,K,A*3D,1732608426718
NMEA,$GNDTM,W84,,0000.000000,N,00000.000000,E,0.000,W84*41,1732608426718
NMEA,$GNRMC,080707.00,A,2235.671801,N,08821.676548,E,0.0,,261124,0.5,W,A,V*60,1732608426718
NMEA,$GNGNS,080707.00,2235.671801,N,08821.676548,E,AAAAAN,38,0.4,-1.1,-57.0,,,V*2A,1732608426718
NMEA,$GNGGA,080707.00,2235.671801,N,08821.676548,E,1,12,0.4,-1.1,M,-57.0,M,,*7D,1732608426718
NMEA,$GPGSV,3,1,11,04,85,347,35,07,25,309,20,08,55,147,36,16,33,033,40,1*6D,1732608427695
NMEA,$GPGSV,3,2,11,27,51,084,41,03,23,206,,09,53,320,,21,03,163,,1*61,1732608427695
NMEA,$GPGSV,3,3,11,26,06,048,,31,11,084,,41,00,000,40,1*55,1732608427695
NMEA,$GPGSV,2,1,05,03,23,206,19,04,85,347,30,08,55,147,39,09,53,320,23,8*60,1732608427695
NMEA,$GPGSV,2,2,05,27,51,084,35,8*53,1732608427695
NMEA,$GLGSV,3,1,09,78,20,270,20,66,65,196,36,86,11,073,20,77,43,337,16,1*7E,1732608427695
NMEA,$GLGSV,3,2,09,76,22,029,42,65,17,166,32,87,13,119,33,67,47,317,24,1*7C,1732608427695
NMEA,$GLGSV,3,3,09,68,02,334,,1*49,1732608427695
NMEA,$GAGSV,2,1,07,04,43,324,27,06,18,321,20,19,73,125,35,21,37,031,37,7*74,1732608427695
NMEA,$GAGSV,2,2,07,29,26,137,20,31,28,240,16,26,00,000,,7*41,1732608427695
NMEA,$GAGSV,2,1,06,04,43,324,20,06,18,321,17,19,73,125,31,21,37,031,34,1*77,1732608427695
NMEA,$GAGSV,2,2,06,29,26,137,23,31,28,240,22,1*76,1732608427695
NMEA,$GQGSV,1,1,02,02,38,056,39,04,20,143,16,1*60,1732608427695
NMEA,$GQGSV,1,1,03,02,38,056,34,03,12,112,15,04,20,143,17,8*52,1732608427695
NMEA,$GBGSV,7,1,28,60,59,199,33,59,26,108,25,45,38,295,22,40,64,109,39,1*77,1732608427695
NMEA,$GBGSV,7,2,28,39,45,066,42,36,49,009,34,30,27,095,20,29,23,155,36,1*74,1732608427695
NMEA,$GBGSV,7,3,28,22,57,266,31,21,19,316,21,19,38,181,40,16,47,055,42,1*7B,1732608427695
NMEA,$GBGSV,7,4,28,13,09,187,27,10,65,166,34,09,54,025,39,07,70,134,34,1*7F,1732608427695
NMEA,$GBGSV,7,5,28,06,51,048,38,03,52,135,39,02,62,191,34,01,22,106,28,1*76,1732608427695
NMEA,$GBGSV,7,6,28,04,07,099,,05,47,236,,08,03,178,,27,05,051,,1*7E,1732608427695
NMEA,$GBGSV,7,7,28,38,00,000,,46,15,057,,61,52,134,,62,08,095,,1*75,1732608427695
NMEA,$GBGSV,3,1,09,19,38,181,39,21,19,316,17,22,57,266,20,29,23,155,33,3*7E,1732608427695
NMEA,$GBGSV,3,2,09,30,27,095,26,36,49,009,36,39,45,066,41,40,64,109,36,3*73,1732608427695
NMEA,$GBGSV,3,3,09,45,38,295,25,3*4E,1732608427695
NMEA,$GBGSV,3,1,09,19,38,181,35,21,19,316,16,22,57,266,22,29,23,155,33,5*77,1732608427695
NMEA,$GBGSV,3,2,09,30,27,095,14,36,49,009,23,39,45,066,35,40,64,109,30,5*75,1732608427695
NMEA,$GBGSV,3,3,09,45,38,295,23,5*4E,1732608427695
NMEA,$GNGSA,A,3,03,04,07,08,09,16,27,,,,,,0.6,0.4,0.5,1*35,1732608427733
NMEA,$GNGSA,A,3,65,66,67,76,78,87,,,,,,,0.6,0.4,0.5,2*36,1732608427733
NMEA,$GNGSA,A,3,04,06,19,21,29,31,,,,,,,0.6,0.4,0.5,3*34,1732608427733
NMEA,$GNGSA,A,3,02,03,06,07,09,10,13,16,19,21,22,29,0.6,0.4,0.5,4*3E,1732608427733
NMEA,$GNGSA,A,3,02,04,,,,,,,,,,,0.6,0.4,0.5,5*34,1732608427733
NMEA,$GNVTG,,T,,M,0.0,N,0.0,K,A*3D,1732608427733
NMEA,$GNDTM,W84,,0000.000000,N,00000.000000,E,0.000,W84*41,1732608427733
NMEA,$GNRMC,080708.00,A,2235.671798,N,08821.676550,E,0.0,,261124,0.5,W,A,V*69,1732608427733
NMEA,$GNGNS,080708.00,2235.671798,N,08821.676550,E,AAAAAN,38,0.4,-1.1,-57.0,,,V*23,1732608427733
NMEA,$GNGGA,080708.00,2235.671798,N,08821.676550,E,1,12,0.4,-1.1,M,-57.0,M,,*74,1732608427733
NMEA,$GPGSV,3,1,11,03,23,206,21,04,85,347,35,07,25,309,24,08,55,147,35,1*6C,1732608428697
NMEA,$GPGSV,3,2,11,09,53,320,24,16,33,033,40,27,51,084,41,21,03,163,,1*62,1732608428697
NMEA,$GPGSV,3,3,11,26,06,048,,31,11,084,,41,00,000,41,1*54,1732608428697
NMEA,$GPGSV,2,1,05,03,23,206,16,04,85,347,32,08,55,147,39,09,53,320,24,8*6A,1732608428697
NMEA,$GPGSV,2,2,05,27,51,084,35,8*53,1732608428697
NMEA,$GLGSV,3,1,09,78,20,270,22,66,65,196,34,86,11,073,21,77,43,337,16,1*7F,1732608428697
NMEA,$GLGSV,3,2,09,76,22,029,42,65,17,166,32,87,13,119,33,67,47,317,24,1*7C,1732608428697
NMEA,$GLGSV,3,3,09,68,02,334,,1*49,1732608428697
NMEA,$GAGSV,2,1,07,04,43,324,27,06,18,321,22,19,73,125,35,21,37,031,38,7*79,1732608428697
NMEA,$GAGSV,2,2,07,29,26,137,20,31,28,240,17,26,00,000,,7*40,1732608428697
NMEA,$GAGSV,2,1,06,04,43,324,22,06,18,321,18,19,73,125,32,21,37,031,35,1*78,1732608428697
NMEA,$GAGSV,2,2,06,29,26,137,24,31,28,240,24,1*77,1732608428697
NMEA,$GQGSV,1,1,02,02,38,056,40,04,20,143,16,1*6E,1732608428697
NMEA,$GQGSV,1,1,03,02,38,056,34,03,12,112,13,04,20,143,17,8*54,1732608428697
NMEA,$GBGSV,7,1,28,60,59,199,36,59,26,108,25,45,38,295,22,40,64,109,39,1*72,1732608428697
NMEA,$GBGSV,7,2,28,39,45,066,42,36,49,009,34,30,27,095,22,29,23,155,35,1*75,1732608428697
NMEA,$GBGSV,7,3,28,22,57,266,29,21,19,316,19,19,38,181,41,16,47,055,41,1*7B,1732608428697
NMEA,$GBGSV,7,4,28,13,09,187,27,10,65,166,31,09,54,025,38,07,70,134,37,1*78,1732608428697
NMEA,$GBGSV,7,5,28,06,51,048,39,03,52,135,39,02,62,191,35,01,22,106,25,1*7B,1732608428697
NMEA,$GBGSV,7,6,28,04,07,099,,05,47,236,,08,03,178,,27,05,051,,1*7E,1732608428697
NMEA,$GBGSV,7,7,28,38,00,000,,46,15,057,,61,52,134,,62,08,095,,1*75,1732608428697
NMEA,$GBGSV,3,1,09,19,38,181,39,21,19,316,20,22,57,266,22,29,23,155,34,3*7F,1732608428697
NMEA,$GBGSV,3,2,09,30,27,095,26,36,49,009,36,39,45,066,42,40,64,109,35,3*73,1732608428697
NMEA,$GBGSV,3,3,09,45,38,295,24,3*4F,1732608428697
NMEA,$GBGSV,3,1,09,19,38,181,35,21,19,316,12,22,57,266,23,29,23,155,34,5*75,1732608428697
NMEA,$GBGSV,3,2,09,30,27,095,18,36,49,009,23,39,45,066,36,40,64,109,30,5*7A,1732608428697
NMEA,$GBGSV,3,3,09,45,38,295,24,5*49,1732608428697
NMEA,$GNGSA,A,3,03,04,07,08,09,16,27,,,,,,0.6,0.3,0.5,1*32,1732608428739
NMEA,$GNGSA,A,3,65,66,67,76,78,87,,,,,,,0.6,0.3,0.5,2*31,1732608428739
NMEA,$GNGSA,A,3,04,06,19,21,29,31,,,,,,,0.6,0.3,0.5,3*33,1732608428739
NMEA,$GNGSA,A,3,02,03,06,07,09,10,13,16,19,21,22,29,0.6,0.3,0.5,4*39,1732608428739
NMEA,$GNGSA,A,3,02,04,,,,,,,,,,,0.6,0.3,0.5,5*33,1732608428739
NMEA,$GNVTG,,T,,M,0.0,N,0.0,K,A*3D,1732608428739
NMEA,$GNDTM,W84,,0000.000000,N,00000.000000,E,0.000,W84*41,1732608428739
NMEA,$GNRMC,080709.00,A,2235.671795,N,08821.676546,E,0.0,,261124,0.5,W,A,V*62,1732608428739
NMEA,$GNGNS,080709.00,2235.671795,N,08821.676546,E,AAAAAN,39,0.3,-1.1,-57.0,,,V*2E,1732608428739
NMEA,$GNGGA,080709.00,2235.671795,N,08821.676546,E,1,12,0.3,-1.1,M,-57.0,M,,*78,1732608428739
NMEA,$GPGSV,3,1,11,03,23,206,21,04,85,347,36,07,25,309,21,08,55,147,34,1*6B,1732608429697
NMEA,$GPGSV,3,2,11,16,33,033,39,27,51,084,40,09,53,320,,21,03,163,,1*6B,1732608429697
NMEA,$GPGSV,3,3,11,26,06,048,,31,11,084,,41,00,000,41,1*54,1732608429697
NMEA,$GPGSV,2,1,05,03,23,206,17,04,85,347,30,08,55,147,38,09,53,320,21,8*6D,1732608429697
NMEA,$GPGSV,2,2,05,27,51,084,35,8*53,1732608429697
NMEA,$GLGSV,3,1,09,78,20,270,21,66,65,196,33,86,11,073,22,77,43,337,16,1*78,1732608429697
NMEA,$GLGSV,3,2,09,76,22,029,43,65,17,166,30,87,13,119,33,67,47,317,25,1*7E,1732608429697
NMEA,$GLGSV,3,3,09,68,02,334,,1*49,1732608429697
NMEA,$GAGSV,2,1,07,04,43,324,25,06,18,321,19,19,73,125,35,21,37,031,38,7*73,1732608429697
NMEA,$GAGSV,2,2,07,29,26,137,21,31,28,240,17,26,00,000,,7*41,1732608429697
NMEA,$GAGSV,2,1,06,04,43,324,20,06,18,321,16,19,73,125,31,21,37,031,34,1*76,1732608429697
NMEA,$GAGSV,2,2,06,29,26,137,24,31,28,240,21,1*72,1732608429697
NMEA,$GQGSV,1,1,02,02,38,056,39,04,20,143,16,1*60,1732608429697
NMEA,$GQGSV,1,1,03,02,38,056,34,03,12,112,13,04,20,143,17,8*54,1732608429697
NMEA,$GBGSV,7,1,28,60,59,199,37,59,26,108,25,45,38,295,22,40,64,109,38,1*72,1732608429697
NMEA,$GBGSV,7,2,28,39,45,066,42,36,49,009,33,29,23,155,34,22,57,266,30,1*7A,1732608429697
NMEA,$GBGSV,7,3,28,21,19,316,21,19,38,181,41,16,47,055,41,13,09,187,27,1*7B,1732608429697
NMEA,$GBGSV,7,4,28,10,65,166,31,09,54,025,37,07,70,134,37,06,51,048,39,1*73,1732608429697
NMEA,$GBGSV,7,5,28,03,52,135,39,02,62,191,36,01,22,106,25,04,07,099,,1*7F,1732608429697
NMEA,$GBGSV,7,6,28,05,47,236,,08,03,178,,27,05,051,,30,27,095,,1*77,1732608429697
NMEA,$GBGSV,7,7,28,38,00,000,,46,15,057,,61,52,134,,62,08,095,,1*75,1732608429697
NMEA,$GBGSV,3,1,09,19,38,181,38,21,19,316,20,22,57,266,23,29,23,155,34,3*7F,1732608429697
NMEA,$GBGSV,3,2,09,30,27,095,25,36,49,009,35,39,45,066,41,40,64,109,35,3*70,1732608429697
NMEA,$GBGSV,3,3,09,45,38,295,24,3*4F,1732608429697
NMEA,$GBGSV,3,1,09,19,38,181,33,21,19,316,12,22,57,266,23,29,23,155,32,5*75,1732608429697
NMEA,$GBGSV,3,2,09,30,27,095,18,36,49,009,22,39,45,066,35,40,64,109,29,5*70,1732608429697
NMEA,$GBGSV,3,3,09,45,38,295,23,5*4E,1732608429697
NMEA,$GNGSA,A,3,03,04,07,08,09,16,27,,,,,,0.6,0.3,0.5,1*32,1732608429742
NMEA,$GNGSA,A,3,65,66,67,76,78,87,,,,,,,0.6,0.3,0.5,2*31,1732608429742
NMEA,$GNGSA,A,3,04,06,19,21,29,31,,,,,,,0.6,0.3,0.5,3*33,1732608429742
NMEA,$GNGSA,A,3,02,03,06,07,09,10,13,16,19,21,22,29,0.6,0.3,0.5,4*39,1732608429742
NMEA,$GNGSA,A,3,02,04,,,,,,,,,,,0.6,0.3,0.5,5*33,1732608429742
NMEA,$GNVTG,,T,,M,0.0,N,0.0,K,A*3D,1732608429742
NMEA,$GNDTM,W84,,0000.000000,N,00000.000000,E,0.000,W84*41,1732608429742
NMEA,$GNRMC,080710.00,A,2235.671793,N,08821.676543,E,0.0,,261124,0.5,W,A,V*69,1732608429742
NMEA,$GNGNS,080710.00,2235.671793,N,08821.676543,E,AAAAAN,39,0.3,-1.1,-57.0,,,V*25,1732608429742
NMEA,$GNGGA,080710.00,2235.671793,N,08821.676543,E,1,12,0.3,-1.1,M,-57.0,M,,*73,1732608429742
NMEA,$GPGSV,3,1,11,04,85,347,36,07,25,309,21,08,55,147,35,16,33,033,40,1*6C,1732608430704
NMEA,$GPGSV,3,2,11,27,51,084,41,03,23,206,,09,53,320,,21,03,163,,1*61,1732608430704
NMEA,$GPGSV,3,3,11,26,06,048,,31,11,084,,41,00,000,40,1*55,1732608430704
NMEA,$GPGSV,2,1,05,03,23,206,18,04,85,347,32,08,55,147,40,09,53,320,22,8*6C,1732608430704
NMEA,$GPGSV,2,2,05,27,51,084,36,8*50,1732608430704
NMEA,$GLGSV,3,1,09,78,20,270,21,66,65,196,34,86,11,073,19,77,43,337,16,1*77,1732608430704
NMEA,$GLGSV,3,2,09,76,22,029,43,65,17,166,30,87,13,119,32,67,47,317,20,1*7A,1732608430704
NMEA,$GLGSV,3,3,09,68,02,334,,1*49,1732608430704
NMEA,$GAGSV,2,1,07,04,43,324,26,06,18,321,21,19,73,125,36,21,37,031,38,7*78,1732608430704
NMEA,$GAGSV,2,2,07,29,26,137,21,31,28,240,17,26,00,000,,7*41,1732608430704
NMEA,$GAGSV,2,1,06,04,43,324,21,06,18,321,17,19,73,125,32,21,37,031,35,1*74,1732608430704
NMEA,$GAGSV,2,2,06,29,26,137,25,31,28,240,22,1*70,1732608430704
NMEA,$GQGSV,1,1,01,02,38,056,39,1*54,1732608430704
NMEA,$GQGSV,1,1,03,02,38,056,35,03,12,112,14,04,20,143,17,8*52,1732608430704
NMEA,$GBGSV,7,1,28,60,59,199,37,59,26,108,24,45,38,295,22,40,64,109,38,1*73,1732608430704
NMEA,$GBGSV,7,2,28,39,45,066,42,36,49,009,33,30,27,095,21,29,23,155,34,1*70,1732608430704
NMEA,$GBGSV,7,3,28,22,57,266,33,21,19,316,22,19,38,181,40,16,47,055,41,1*79,1732608430704
NMEA,$GBGSV,7,4,28,13,09,187,27,10,65,166,31,09,54,025,38,07,70,134,38,1*77,1732608430704
NMEA,$GBGSV,7,5,28,06,51,048,39,03,52,135,39,02,62,191,36,01,22,106,25,1*78,1732608430704
NMEA,$GBGSV,7,6,28,04,07,099,,05,47,236,,08,03,178,,27,05,051,,1*7E,1732608430704
NMEA,$GBGSV,7,7,28,38,00,000,,46,15,057,,61,52,134,,62,08,095,,1*75,1732608430704
NMEA,$GBGSV,3,1,09,19,38,181,37,21,19,316,21,22,57,266,21,29,23,155,33,3*74,1732608430704
NMEA,$GBGSV,3,2,09,30,27,095,25,36,49,009,36,39,45,066,42,40,64,109,36,3*73,1732608430704
NMEA,$GBGSV,3,3,09,45,38,295,23,3*48,1732608430704
NMEA,$GBGSV,3,1,09,19,38,181,34,21,19,316,14,22,57,266,20,29,23,155,32,5*77,1732608430704
NMEA,$GBGSV,3,2,09,30,27,095,15,36,49,009,24,39,45,066,36,40,64,109,30,5*70,1732608430704
NMEA,$GBGSV,3,3,09,45,38,295,23,5*4E,1732608430704
NMEA,$GNGSA,A,3,03,04,07,08,09,16,27,,,,,,0.6,0.3,0.5,1*32,1732608430747
NMEA,$GNGSA,A,3,65,66,67,76,78,87,,,,,,,0.6,0.3,0.5,2*31,1732608430747
NMEA,$GNGSA,A,3,04,06,19,21,29,31,,,,,,,0.6,0.3,0.5,3*33,1732608430747
NMEA,$GNGSA,A,3,02,03,06,07,09,10,13,16,19,21,22,29,0.6,0.3,0.5,4*39,1732608430747
NMEA,$GNGSA,A,3,02,04,,,,,,,,,,,0.6,0.3,0.5,5*33,1732608430747
NMEA,$GNVTG,,T,,M,0.0,N,0.0,K,A*3D,1732608430747
NMEA,$GNDTM,W84,,0000.000000,N,00000.000000,E,0.000,W84*41,1732608430747
NMEA,$GNRMC,080711.00,A,2235.671791,N,08821.676540,E,0.0,,261124,0.5,W,A,V*69,1732608430747
NMEA,$GNGNS,080711.00,2235.671791,N,08821.676540,E,AAAAAN,39,0.3,-1.1,-57.0,,,V*25,1732608430747
NMEA,$GNGGA,080711.00,2235.671791,N,08821.676540,E,1,12,0.3,-1.1,M,-57.0,M,,*73,1732608430747
NMEA,$GPGSV,3,1,11,04,85,347,36,07,25,309,22,08,55,147,33,16,33,033,40,1*69,1732608431693
NMEA,$GPGSV,3,2,11,27,51,084,39,03,23,206,,09,53,320,,21,03,163,,1*6E,1732608431693
NMEA,$GPGSV,3,3,11,26,06,048,,31,11,084,,41,00,000,39,1*5B,1732608431693
NMEA,$GPGSV,2,1,05,03,23,206,20,04,85,347,31,08,55,147,38,09,53,320,19,8*63,1732608431693
NMEA,$GPGSV,2,2,05,27,51,084,35,8*53,1732608431693
NMEA,$GLGSV,3,1,09,78,20,270,20,66,65,196,34,86,11,073,19,77,43,337,12,1*72,1732608431693
NMEA,$GLGSV,3,2,09,76,22,029,42,65,17,166,31,87,13,119,30,67,47,317,24,1*7C,1732608431693
NMEA,$GLGSV,3,3,09,68,02,334,,1*49,1732608431693
NMEA,$GAGSV,2,1,07,04,43,324,23,06,18,321,21,19,73,125,35,21,37,031,38,7*7E,1732608431693
NMEA,$GAGSV,2,2,07,29,26,137,21,31,28,240,14,26,00,000,,7*42,1732608431693
NMEA,$GAGSV,2,1,06,04,43,324,20,06,18,321,17,19,73,125,31,21,37,031,34,1*77,1732608431693
NMEA,$GAGSV,2,2,06,29,26,137,24,31,28,240,20,1*73,1732608431693
NMEA,$GQGSV,1,1,01,02,38,056,39,1*54,1732608431693
NMEA,$GQGSV,1,1,03,02,38,056,34,03,12,112,14,04,20,143,17,8*53,1732608431693
NMEA,$GBGSV,7,1,28,60,59,199,37,59,26,108,24,45,38,295,21,40,64,109,39,1*71,1732608431693
NMEA,$GBGSV,7,2,28,39,45,066,42,36,49,009,33,29,23,155,33,22,57,266,31,1*7C,1732608431693
NMEA,$GBGSV,7,3,28,21,19,316,21,19,38,181,41,16,47,055,41,13,09,187,27,1*7B,1732608431693
NMEA,$GBGSV,7,4,28,10,65,166,30,09,54,025,37,07,70,134,38,06,51,048,39,1*7D,1732608431693
NMEA,$GBGSV,7,5,28,03,52,135,40,02,62,191,37,01,22,106,27,04,07,099,,1*72,1732608431693
NMEA,$GBGSV,7,6,28,05,47,236,,08,03,178,,27,05,051,,30,27,095,,1*77,1732608431693
NMEA,$GBGSV,7,7,28,38,00,000,,46,15,057,,61,52,134,,62,08,095,,1*75,1732608431693
NMEA,$GBGSV,3,1,09,19,38,181,39,21,19,316,19,22,57,266,26,29,23,155,33,3*76,1732608431693
NMEA,$GBGSV,3,2,09,30,27,095,26,36,49,009,36,39,45,066,42,40,64,109,35,3*73,1732608431693
NMEA,$GBGSV,3,3,09,45,38,295,19,3*41,1732608431693
NMEA,$GBGSV,3,1,09,19,38,181,33,21,19,316,16,22,57,266,23,29,23,155,30,5*73,1732608431693
NMEA,$GBGSV,3,2,09,30,27,095,15,36,49,009,24,39,45,066,36,40,64,109,30,5*70,1732608431693
NMEA,$GBGSV,3,3,09,45,38,295,20,5*4D,1732608431693
NMEA,$GNGSA,A,3,03,04,07,08,09,16,27,,,,,,0.6,0.3,0.5,1*32,1732608431743
NMEA,$GNGSA,A,3,65,66,67,76,78,87,,,,,,,0.6,0.3,0.5,2*31,1732608431743
NMEA,$GNGSA,A,3,04,06,19,21,29,31,,,,,,,0.6,0.3,0.5,3*33,1732608431743
NMEA,$GNGSA,A,3,02,03,06,07,09,10,13,16,19,21,22,29,0.6,0.3,0.5,4*39,1732608431743
NMEA,$GNGSA,A,3,02,04,,,,,,,,,,,0.6,0.3,0.5,5*33,1732608431743
NMEA,$GNVTG,,T,,M,0.0,N,0.0,K,A*3D,1732608431743
NMEA,$GNDTM,W84,,0000.000000,N,00000.000000,E,0.000,W84*41,1732608431743
NMEA,$GNRMC,080712.00,A,2235.671789,N,08821.676537,E,0.0,,261124,0.5,W,A,V*63,1732608431743
NMEA,$GNGNS,080712.00,2235.671789,N,08821.676537,E,AAAAAN,39,0.3,-1.1,-57.0,,,V*2F,1732608431743
NMEA,$GNGGA,080712.00,2235.671789,N,08821.676537,E,1,12,0.3,-1.1,M,-57.0,M,,*79,1732608431743
NMEA,$GPGSV,3,1,11,03,23,206,21,04,85,347,37,07,25,309,28,08,55,147,38,1*6F,1732608432696
NMEA,$GPGSV,3,2,11,09,53,320,24,16,33,033,38,27,51,084,40,21,03,163,,1*6C,1732608432696
NMEA,$GPGSV,3,3,11,26,06,048,,31,11,084,,41,00,000,40,1*55,1732608432696
NMEA,$GPGSV,2,1,05,03,23,206,17,04,85,347,32,08,55,147,38,09,53,320,22,8*6C,1732608432696
NMEA,$GPGSV,2,2,05,27,51,084,37,8*51,1732608432696
NMEA,$GLGSV,3,1,09,78,20,270,23,66,65,196,37,86,11,073,18,77,43,337,12,1*73,1732608432696
NMEA,$GLGSV,3,2,09,76,22,029,41,65,17,166,30,87,13,119,33,67,47,317,24,1*7D,1732608432696
NMEA,$GLGSV,3,3,09,68,02,334,,1*49,1732608432696
NMEA,$GAGSV,2,1,07,04,43,324,26,06,18,321,22,19,73,125,35,21,37,031,38,7*78,1732608432696
NMEA,$GAGSV,2,2,07,29,26,137,23,31,28,240,20,26,00,000,,7*47,1732608432696
NMEA,$GAGSV,2,1,06,04,43,324,20,06,18,321,17,19,73,125,33,21,37,031,33,1*72,1732608432696
NMEA,$GAGSV,2,2,06,29,26,137,25,31,28,240,21,1*73,1732608432696
NMEA,$GQGSV,1,1,01,02,38,056,39,1*54,1732608432696
NMEA,$GQGSV,1,1,03,02,38,056,33,03,12,112,14,04,20,143,17,8*54,1732608432696
NMEA,$GBGSV,7,1,28,60,59,199,35,59,26,108,24,45,38,295,27,40,64,109,40,1*7B,1732608432696
NMEA,$GBGSV,7,2,28,39,45,066,41,36,49,009,34,29,23,155,34,22,57,266,31,1*7F,1732608432696
NMEA,$GBGSV,7,3,28,21,19,316,20,19,38,181,40,16,47,055,42,13,09,187,24,1*7B,1732608432696
NMEA,$GBGSV,7,4,28,10,65,166,35,09,54,025,38,07,70,134,36,06,51,048,39,1*79,1732608432696
NMEA,$GBGSV,7,5,28,03,52,135,41,02,62,191,36,01,22,106,27,04,07,099,,1*72,1732608432696
NMEA,$GBGSV,7,6,28,05,47,236,,08,03,178,,27,05,051,,30,27,095,,1*77,1732608432696
NMEA,$GBGSV,7,7,28,38,00,000,,46,15,057,,61,52,134,,62,08,095,,1*75,1732608432696
NMEA,$GBGSV,3,1,09,19,38,181,37,21,19,316,21,22,57,266,19,29,23,155,33,3*7F,1732608432696
NMEA,$GBGSV,3,2,09,30,27,095,24,36,49,009,34,39,45,066,41,40,64,109,37,3*72,1732608432696
NMEA,$GBGSV,3,3,09,45,38,295,22,3*49,1732608432696
NMEA,$GBGSV,3,1,09,19,38,181,34,21,19,316,19,22,57,266,22,29,23,155,35,5*7F,1732608432696
NMEA,$GBGSV,3,2,09,30,27,095,15,36,49,009,23,39,45,066,35,40,64,109,31,5*75,1732608432696
NMEA,$GBGSV,3,3,09,45,38,295,22,5*4F,1732608432696
NMEA,$GNGSA,A,3,03,04,07,08,09,16,27,,,,,,0.6,0.3,0.5,1*32,1732608432741
NMEA,$GNGSA,A,3,65,66,67,76,78,87,,,,,,,0.6,0.3,0.5,2*31,1732608432741
NMEA,$GNGSA,A,3,04,06,19,21,29,31,,,,,,,0.6,0.3,0.5,3*33,1732608432741
NMEA,$GNGSA,A,3,02,03,06,07,09,10,13,16,19,21,22,29,0.6,0.3,0.5,4*39,1732608432741
NMEA,$GNGSA,A,3,02,04,,,,,,,,,,,0.6,0.3,0.5,5*33,1732608432741
NMEA,$GNVTG,,T,,M,0.0,N,0.0,K,A*3D,1732608432741
NMEA,$GNDTM,W84,,0000.000000,N,00000.000000,E,0.000,W84*41,1732608432741
NMEA,$GNRMC,080713.00,A,2235.671787,N,08821.676537,E,0.0,,261124,0.5,W,A,V*6C,1732608432741
NMEA,$GNGNS,080713.00,2235.671787,N,08821.676537,E,AAAAAN,39,0.3,-1.1,-57.0,,,V*20,1732608432741
NMEA,$GNGGA,080713.00,2235.671787,N,08821.676537,E,1,12,0.3,-1.1,M,-57.0,M,,*76,1732608432741
NMEA,$GPGSV,3,1,11,03,23,206,21,04,85,347,36,07,25,309,24,08,55,147,39,1*63,1732608433701
NMEA,$GPGSV,3,2,11,09,53,320,27,16,33,033,38,27,51,084,39,21,03,163,,1*61,1732608433701
NMEA,$GPGSV,3,3,11,26,06,048,,31,11,084,,41,00,000,41,1*54,1732608433701
NMEA,$GPGSV,2,1,05,03,23,206,21,04,85,347,30,08,55,147,36,09,53,320,19,8*6D,1732608433701
NMEA,$GPGSV,2,2,05,27,51,084,36,8*50,1732608433701
NMEA,$GLGSV,3,1,09,78,20,270,25,66,65,196,38,86,11,073,18,77,43,337,17,1*7F,1732608433701
NMEA,$GLGSV,3,2,09,76,22,029,41,65,17,166,31,87,13,119,35,67,47,317,25,1*7B,1732608433701
NMEA,$GLGSV,3,3,09,68,02,334,,1*49,1732608433701
NMEA,$GAGSV,2,1,07,04,43,324,25,06,18,321,20,19,73,125,35,21,37,031,37,7*76,1732608433701
NMEA,$GAGSV,2,2,07,29,26,137,25,31,28,240,24,26,00,000,,7*45,1732608433701
NMEA,$GAGSV,2,1,06,04,43,324,15,06,18,321,17,19,73,125,31,21,37,031,31,1*74,1732608433701
NMEA,$GAGSV,2,2,06,29,26,137,22,31,28,240,21,1*74,1732608433701
NMEA,$GQGSV,1,1,01,02,38,056,39,1*54,1732608433701
NMEA,$GQGSV,1,1,03,02,38,056,32,03,12,112,14,04,20,143,18,8*5A,1732608433701
NMEA,$GBGSV,7,1,28,60,59,199,34,59,26,108,25,45,38,295,26,40,64,109,40,1*7A,1732608433701
NMEA,$GBGSV,7,2,28,39,45,066,41,36,49,009,33,30,27,095,20,29,23,155,32,1*74,1732608433701
NMEA,$GBGSV,7,3,28,22,57,266,29,21,19,316,20,19,38,181,39,16,47,055,42,1*7D,1732608433701
NMEA,$GBGSV,7,4,28,13,09,187,25,10,65,166,37,09,54,025,38,07,70,134,34,1*7F,1732608433701
NMEA,$GBGSV,7,5,28,06,51,048,37,03,52,135,41,02,62,191,35,01,22,106,28,1*77,1732608433701
NMEA,$GBGSV,7,6,28,04,07,099,,05,47,236,,08,03,178,,27,05,051,,1*7E,1732608433701
NMEA,$GBGSV,7,7,28,38,00,000,,46,15,057,,61,52,134,,62,08,095,,1*75,1732608433701
NMEA,$GBGSV,3,1,09,19,38,181,37,21,19,316,17,22,57,266,24,29,23,155,30,3*77,1732608433701
NMEA,$GBGSV,3,2,09,30,27,095,26,36,49,009,34,39,45,066,42,40,64,109,37,3*73,1732608433701
NMEA,$GBGSV,3,3,09,45,38,295,22,3*49,1732608433701
NMEA,$GBGSV,3,1,09,19,38,181,33,21,19,316,16,22,57,266,23,29,23,155,31,5*72,1732608433701
NMEA,$GBGSV,3,2,09,30,27,095,13,36,49,009,22,39,45,066,34,40,64,109,29,5*7A,1732608433701
NMEA,$GBGSV,3,3,09,45,38,295,21,5*4C,1732608433701
NMEA,$GNGSA,A,3,03,04,07,08,09,16,27,,,,,,0.6,0.3,0.5,1*32,1732608433736
NMEA,$GNGSA,A,3,65,66,67,76,78,87,,,,,,,0.6,0.3,0.5,2*31,1732608433736
NMEA,$GNGSA,A,3,04,06,19,21,29,31,,,,,,,0.6,0.3,0.5,3*33,1732608433736
NMEA,$GNGSA,A,3,02,03,06,07,09,10,13,16,19,21,22,29,0.6,0.3,0.5,4*39,1732608433736
NMEA,$GNGSA,A,3,02,04,,,,,,,,,,,0.6,0.3,0.5,5*33,1732608433736
NMEA,$GNVTG,,T,,M,0.0,N,0.0,K,A*3D,1732608433736
NMEA,$GNDTM,W84,,0000.000000,N,00000.000000,E,0.000,W84*41,1732608433736
NMEA,$GNRMC,080714.00,A,2235.671786,N,08821.676537,E,0.0,,261124,0.5,W,A,V*6A,1732608433736
NMEA,$GNGNS,080714.00,2235.671786,N,08821.676537,E,AAAAAN,39,0.3,-1.1,-57.0,,,V*26,1732608433736
NMEA,$GNGGA,080714.00,2235.671786,N,08821.676537,E,1,12,0.3,-1.1,M,-57.0,M,,*70,1732608433736
NMEA,$GPGSV,3,1,11,04,85,347,35,07,25,309,29,08,55,147,40,16,33,033,39,1*6B,1732608434703
NMEA,$GPGSV,3,2,11,27,51,084,40,03,23,206,,09,53,320,,21,03,163,,1*60,1732608434703
NMEA,$GPGSV,3,3,11,26,06,048,,31,11,084,,41,00,000,41,1*54,1732608434703
NMEA,$GPGSV,2,1,05,03,23,206,21,04,85,347,33,08,55,147,37,09,53,320,22,8*67,1732608434703
NMEA,$GPGSV,2,2,05,27,51,084,37,8*51,1732608434703
NMEA,$GLGSV,3,1,09,78,20,270,24,66,65,196,39,86,11,073,16,77,43,337,18,1*7E,1732608434703
NMEA,$GLGSV,3,2,09,76,22,029,41,65,17,166,30,87,13,119,36,67,47,317,23,1*7F,1732608434703
NMEA,$GLGSV,3,3,09,68,02,334,,1*49,1732608434703
NMEA,$GAGSV,2,1,07,04,43,324,26,06,18,321,22,19,73,125,36,21,37,031,35,7*76,1732608434703
NMEA,$GAGSV,2,2,07,29,26,137,17,31,28,240,21,26,00,000,,7*41,1732608434703
NMEA,$GAGSV,2,1,06,04,43,324,22,06,18,321,13,19,73,125,32,21,37,031,32,1*74,1732608434703
NMEA,$GAGSV,2,2,06,29,26,137,20,31,28,240,23,1*74,1732608434703
NMEA,$GQGSV,1,1,02,02,38,056,39,04,20,143,18,1*6E,1732608434703
NMEA,$GQGSV,1,1,03,02,38,056,32,03,12,112,14,04,20,143,17,8*55,1732608434703
NMEA,$GBGSV,7,1,28,60,59,199,32,59,26,108,25,45,38,295,24,40,64,109,40,1*7E,1732608434703
NMEA,$GBGSV,7,2,28,39,45,066,42,36,49,009,33,29,23,155,36,22,57,266,27,1*7E,1732608434703
NMEA,$GBGSV,7,3,28,21,19,316,26,19,38,181,40,16,47,055,43,13,09,187,26,1*7E,1732608434703
NMEA,$GBGSV,7,4,28,10,65,166,38,09,54,025,38,07,70,134,30,06,51,048,36,1*7D,1732608434703
NMEA,$GBGSV,7,5,28,05,47,236,24,03,52,135,39,02,62,191,34,01,22,106,28,1*74,1732608434703
NMEA,$GBGSV,7,6,28,04,07,099,,08,03,178,,27,05,051,,30,27,095,,1*75,1732608434703
NMEA,$GBGSV,7,7,28,38,00,000,,46,15,057,,61,52,134,,62,08,095,,1*75,1732608434703
NMEA,$GBGSV,3,1,09,19,38,181,35,21,19,316,24,22,57,266,24,29,23,155,33,3*76,1732608434703
