Fix,GPS,12.9855605200,80.2375867700,-82.85000610351562,0.0,9.935046,,1681733960000,0.5240229,,319308418592394,3.0
Fix,GPS,12.9855619400,80.2375862900,-82.80462646484375,0.0,9.935046,,1681733961000,0.2523886,,319309418592394,3.0
Fix,GPS,12.9855624000,80.2375854700,-82.62255859375,0.0,9.935046,,1681733962000,0.09899495,,319310418592394,3.0
Fix,GPS,12.9855628900,80.2375846900,-82.56707763671875,0.0,9.935046,,1681733963000,0.15811388,,319311418592394,3.0
Fix,GPS,12.9855630700,80.2375846100,-82.59487915039062,0.0,9.935046,,1681733964000,0.26925823,,319312418592394,3.0
Fix,GPS,12.9855623700,80.2375840400,-82.52410888671875,0.0,9.935046,,1681733965000,0.2236068,,319313418592394,3.0
Fix,GPS,12.9855629000,80.2375841500,-82.49594116210938,0.0,9.935046,,1681733966000,0.15264338,,319314418592394,3.0
Fix,GPS,12.9855627400,80.2375841900,-82.53662109375,0.0,9.935046,,1681733967000,0.23259407,,319315418592394,3.0
Fix,GPS,12.9855630000,80.2375842300,-82.5390625,0.0,9.935046,,1681733968000,0.14422205,,319316418592394,3.0
Fix,GPS,12.9855624700,80.2375841400,-82.52569580078125,0.0,9.935046,,1681733969000,0.55172455,,319317418592394,3.0
Fix,GPS,12.9855636600,80.2375877700,-82.477783203125,0.33,9.935046,91.1,1681733970000,0.9402127,79.47035,319318418592394,3.0
Fix,GPS,12.9855609300,80.2375823200,-81.72015380859375,0.28,9.935046,328.0,1681733971000,1.1458621,89.09821,319319418592394,3.0
Fix,GPS,12.9855609700,80.2375829900,-81.1087646484375,0.0,9.935046,,1681733972000,0.24166092,,319320418592394,3.0
Fix,GPS,12.9855575600,80.2375836300,-80.89111328125,0.0,9.935046,,1681733973000,0.15264338,,319321418592394,3.0
Fix,GPS,12.9855575500,80.2375844500,-81.09661865234375,0.0,9.935046,,1681733974000,0.15264338,,319322418592394,3.0
Fix,GPS,12.9855572200,80.2375847700,-80.98614501953125,0.0,9.935046,,1681733975000,0.15264338,,319323418592394,3.0
Fix,GPS,12.9855570800,80.2375869600,-81.162109375,0.0,9.935046,,1681733976000,0.15264338,,319324418592394,3.0
Fix,GPS,12.9855569500,80.2375850600,-81.23348999023438,0.0,9.935046,,1681733977000,0.17492856,,319325418592394,3.0
Fix,GPS,12.9855558500,80.2375874900,-81.53152465820312,0.34,9.935046,88.7,1681733978000,0.9464143,79.036705,319326418592394,3.0
Fix,GPS,12.9855544100,80.2375912200,-80.83499145507812,0.0,9.935046,,1681733979000,0.20124611,,319327418592394,3.0
Fix,GPS,12.9855558400,80.2375900100,-80.27947998046875,0.0,9.935046,,1681733980000,0.20124611,,319328418592394,3.0
Fix,GPS,12.9855577000,80.2375902400,-80.495849609375,0.0,9.935046,,1681733981000,0.19235384,,319329418592394,3.0
Fix,GPS,12.9855546300,80.2375887300,-80.68533325195312,0.0,9.935046,,1681733982000,0.14422205,,319330418592394,3.0
Fix,GPS,12.9855530900,80.2375860300,-81.1746826171875,0.0,9.935046,,1681733983000,0.15264338,,319331418592394,3.0
Fix,GPS,12.9855538900,80.2375868600,-81.12588500976562,0.0,9.935046,,1681733984000,0.10630146,,319332418592394,3.0
Fix,GPS,12.9855515800,80.2375848100,-80.98739624023438,0.0,9.935046,,1681733985000,0.2059126,,319333418592394,3.0
Fix,GPS,12.9855519800,80.2375846700,-81.13381958007812,0.0,9.935046,,1681733986000,0.1360147,,319334418592394,3.0
Fix,GPS,12.9855508400,80.2375827200,-81.03359985351562,0.0,9.935046,,1681733987000,0.3324154,,319335418592394,3.0
Fix,GPS,12.9855503200,80.2375803000,-81.48953247070312,0.0,9.935046,,1681733988000,0.21023796,,319336418592394,3.0
Fix,GPS,12.9855502600,80.2375805200,-81.34896850585938,0.0,9.935046,,1681733989000,0.19235384,,319337418592394,3.0
Fix,GPS,12.9855503300,80.2375806700,-81.27041625976562,0.0,9.935046,,1681733990000,0.19235384,,319338418592394,3.0
Fix,GPS,12.9855498500,80.2375806500,-81.09463500976562,0.0,9.935046,,1681733991000,0.27313,,319339418592394,3.0
Fix,GPS,12.9855497800,80.2375805000,-81.07254028320312,0.0,9.935046,,1681733992000,0.2236068,,319340418592394,3.0
Fix,GPS,12.9855496900,80.2375803600,-81.21859741210938,0.0,9.935046,,1681733993000,0.2236068,,319341418592394,3.0
Fix,GPS,12.9855497900,80.2375802800,-81.15020751953125,0.0,9.935046,,1681733994000,0.33941126,,319342418592394,3.0
Fix,GPS,12.9855500300,80.2375804500,-81.26901245117188,0.0,9.935046,,1681733995000,0.16124515,,319343418592394,3.0
Fix,GPS,12.9855501300,80.2375803900,-81.36410522460938,0.0,9.935046,,1681733996000,0.2404163,,319344418592394,3.0
Fix,GPS,12.9855498400,80.2375802500,-81.3411865234375,0.0,9.935046,,1681733997000,0.114017546,,319345418592394,3.0
Fix,GPS,12.9855498200,80.2375804700,-81.3997802734375,0.0,9.935046,,1681733998000,0.14422205,,319346418592394,3.0
Fix,GPS,12.9855500400,80.2375804500,-81.38748168945312,0.0,9.935046,,1681733999000,0.22847319,,319347418592394,3.0
Fix,GPS,12.9855499300,80.2375805100,-81.39529418945312,0.0,9.935046,,1681734000000,0.2505993,,319348418592394,3.0
Fix,GPS,12.9855500600,80.2375805000,-81.36236572265625,0.0,9.935046,,1681734001000,0.24166092,,319349418592394,3.0
Fix,GPS,12.9855503400,80.2375804900,-81.4625244140625,0.0,9.935046,,1681734002000,0.21931712,,319350418592394,3.0
Fix,GPS,12.9855508500,80.2375804600,-81.52642822265625,0.0,9.935046,,1681734003000,0.32557642,,319351418592394,3.0
Fix,GPS,12.9855509400,80.2375804900,-81.49563598632812,0.0,9.935046,,1681734004000,0.114017546,,319352418592394,3.0
Fix,GPS,12.9855509900,80.2375804900,-81.62152099609375,0.0,9.935046,,1681734005000,0.21931712,,319353418592394,3.0
Fix,GPS,12.9855525600,80.2375813300,-81.6395263671875,0.0,9.935046,,1681734006000,0.14422205,,319354418592394,3.0
Fix,GPS,12.9855523100,80.2375812100,-81.81661987304688,0.0,9.935046,,1681734007000,0.15264338,,319355418592394,3.0
Fix,GPS,12.9855518700,80.2375809600,-81.7325439453125,0.0,9.935046,,1681734008000,0.18788294,,319356418592394,3.0
Fix,GPS,12.9855516800,80.2375808200,-81.7572021484375,0.0,9.935046,,1681734009000,0.21023796,,319357418592394,3.0
Fix,GPS,12.9855518500,80.2375809100,-81.68502807617188,0.0,9.935046,,1681734010000,0.21213204,,319358418592394,3.0
Fix,GPS,12.9855519100,80.2375809400,-81.56356811523438,0.0,9.935046,,1681734011000,0.24166092,,319359418592394,3.0
Fix,GPS,12.9855519700,80.2375809600,-81.48770141601562,0.0,9.935046,,1681734012000,0.114017546,,319360418592394,3.0
Fix,GPS,12.9855519900,80.2375809700,-81.47320556640625,0.0,9.935046,,1681734013000,0.15264338,,319361418592394,3.0
Fix,GPS,12.9855519300,80.2375809000,-81.4783935546875,0.0,9.935046,,1681734014000,0.21023796,,319362418592394,3.0
Fix,GPS,12.9855519600,80.2375809000,-81.55868530273438,0.0,9.935046,,1681734015000,0.26925823,,319363418592394,3.0
Fix,GPS,12.9855519700,80.2375809000,-80.87844848632812,0.0,9.935046,,1681734016000,0.13892443,,319364418592394,3.0
Fix,GPS,12.9855519600,80.2375808700,-80.96731567382812,0.0,9.935046,,1681734017000,0.10630146,,319365418592394,4.0
Fix,GPS,12.9855519900,80.2375808800,-81.074951171875,0.0,9.935046,,1681734018000,0.13038404,,319366418592394,4.0
Fix,GPS,12.9855520000,80.2375808800,-80.96820068359375,0.0,9.935046,,1681734019000,0.17888544,,319367418592394,4.0
Fix,GPS,12.9855520100,80.2375808700,-80.98068237304688,0.0,9.935046,,1681734020000,0.092195444,,319368418592394,4.0
Fix,GPS,12.9855520300,80.2375808500,-81.06002807617188,0.0,9.935046,,1681734021000,0.16124515,,319369418592394,4.0
Fix,GPS,12.9855520600,80.2375808400,-81.11163330078125,0.0,9.935046,,1681734022000,0.18027757,,319370418592394,4.0
Fix,GPS,12.9855520600,80.2375808400,-81.09503173828125,0.0,9.935046,,1681734023000,0.17492856,,319371418592394,4.0
Fix,GPS,12.9855520900,80.2375808100,-81.18087768554688,0.0,9.935046,,1681734024000,0.15264338,,319372418592394,4.0
Fix,GPS,12.9855520900,80.2375808100,-81.06036376953125,0.0,9.935046,,1681734025000,0.2505993,,319373418592394,4.0
Fix,GPS,12.9855521100,80.2375808000,-81.02447509765625,0.0,9.935046,,1681734026000,0.2641969,,319374418592394,4.0
Fix,GPS,12.9855521100,80.2375807600,-81.12884521484375,0.0,9.935046,,1681734027000,0.19416487,,319375418592394,4.0
Fix,GPS,12.9855520900,80.2375807900,-81.27197265625,0.0,9.935046,,1681734028000,0.25942242,,319376418592394,4.0
Fix,GPS,12.9855521000,80.2375807900,-81.1793212890625,0.0,9.935046,,1681734029000,0.24166092,,319377418592394,4.0
Fix,GPS,12.9855521000,80.2375807900,-81.21636962890625,0.0,9.935046,,1681734030000,0.18027757,,319378418592394,4.0
Fix,GPS,12.9855521200,80.2375808000,-81.11770629882812,0.0,9.935046,,1681734031000,0.23259407,,319379418592394,4.0
Fix,GPS,12.9855521300,80.2375807800,-81.14825439453125,0.0,9.935046,,1681734032000,0.114017546,,319380418592394,4.0
Fix,GPS,12.9855521300,80.2375807900,-81.14794921875,0.0,9.935046,,1681734033000,0.114017546,,319381418592394,4.0
Fix,GPS,12.9855521300,80.2375807900,-81.09597778320312,0.0,9.935046,,1681734034000,0.092195444,,319382418592394,4.0
Fix,GPS,12.9855521600,80.2375808000,-81.1993408203125,0.0,9.935046,,1681734035000,0.16124515,,319383418592394,4.0
Fix,GPS,12.9855521700,80.2375807900,-81.26995849609375,0.0,9.935046,,1681734036000,0.14142136,,319384418592394,4.0
Fix,GPS,12.9855521700,80.2375808000,-81.28005981445312,0.0,9.935046,,1681734037000,0.092195444,,319385418592394,4.0
Fix,GPS,12.9855521900,80.2375807900,-81.24160766601562,0.0,9.935046,,1681734038000,0.092195444,,319386418592394,4.0
Fix,GPS,12.9855522000,80.2375807800,-81.13720703125,0.0,9.935046,,1681734039000,0.10630146,,319387418592394,4.0
Fix,GPS,12.9855542400,80.2375844900,-81.10910034179688,0.22,9.935046,84.9,1681734040000,0.9323626,87.79927,319388418592394,4.0
Fix,GPS,12.9855572600,80.2375847500,-82.08642578125,0.0,9.935046,,1681734041000,0.9402127,,319389418592394,4.0
Fix,GPS,12.9855576900,80.2375812200,-81.902587890625,0.0,9.935046,,1681734042000,0.10630146,,319390418592394,4.0
Fix,GPS,12.9855569800,80.2375795600,-81.53140258789062,0.0,9.935046,,1681734043000,0.10630146,,319391418592394,4.0
Fix,GPS,12.9855581500,80.2375784000,-82.40142822265625,0.0,9.935046,,1681734044000,0.10630146,,319392418592394,4.0
Fix,GPS,12.9855597600,80.2375786100,-81.62954711914062,0.0,9.935046,,1681734045000,0.16124515,,319393418592394,4.0
Fix,GPS,12.9855596400,80.2375780000,-81.20159912109375,0.0,9.935046,,1681734046000,0.114017546,,319394418592394,3.0
Fix,GPS,12.9855595100,80.2375778500,-80.8082275390625,0.0,9.935046,,1681734047000,0.114017546,,319395418592394,3.0
Fix,GPS,12.9855596700,80.2375777600,-81.44424438476562,0.0,9.935046,,1681734048000,0.14866069,,319396418592394,3.0
Fix,GPS,12.9855595000,80.2375771800,-81.30685424804688,0.0,9.935046,,1681734049000,0.13892443,,319397418592394,3.0
Fix,GPS,12.9855598300,80.2375778800,-81.07687377929688,0.0,9.935046,,1681734050000,0.16124515,,319398418592394,3.0
Fix,GPS,12.9855603900,80.2375783600,-81.11209106445312,0.0,9.935046,,1681734051000,0.24596748,,319399418592394,3.0
Fix,GPS,12.9855604600,80.2375779000,-81.27066040039062,0.0,9.935046,,1681734052000,0.114017546,,319400418592394,3.0
Fix,GPS,12.9855603100,80.2375774000,-81.06536865234375,0.0,9.935046,,1681734053000,0.15264338,,319401418592394,3.0
Fix,GPS,12.9855600000,80.2375775700,-81.08599853515625,0.0,9.935046,,1681734054000,0.092195444,,319402418592394,3.0
Fix,GPS,12.9855596800,80.2375777200,-80.50140380859375,0.0,9.935046,,1681734055000,0.10630146,,319403418592394,3.0
Fix,GPS,12.9855599200,80.2375776700,-80.18490600585938,0.0,9.935046,,1681734056000,0.13038404,,319404418592394,3.0
Fix,GPS,12.9855599400,80.2375775000,-80.2203369140625,0.0,9.935046,,1681734057000,0.13038404,,319405418592394,3.0
Fix,GPS,12.9855603900,80.2375771100,-80.1475830078125,0.0,9.935046,,1681734058000,0.14422205,,319406418592394,3.0
Fix,GPS,12.9855607400,80.2375772000,-79.95730590820312,0.19,9.935046,0.2,1681734059000,0.9200543,90.78127,319407418592394,3.0
Fix,GPS,12.9855594300,80.2375777700,-80.07830810546875,0.0,9.935046,,1681734060000,0.21023796,,319408418592394,3.0
Fix,GPS,12.9855584900,80.2375774200,-79.43035888671875,0.0,9.935046,,1681734061000,0.10630146,,319409418592394,3.0
Fix,GPS,12.9855561700,80.2375747500,-79.71414184570312,0.0,9.935046,,1681734062000,0.092195444,,319410418592394,3.0
Fix,GPS,12.9855545000,80.2375743700,-79.13778686523438,0.0,9.935046,,1681734063000,0.09899495,,319411418592394,3.0
Fix,GPS,12.9855535600,80.2375735700,-78.56692504882812,0.0,9.935046,,1681734064000,0.20518285,,319412418592394,3.0
Fix,GPS,12.9855528400,80.2375730600,-78.53750610351562,0.0,9.935046,,1681734065000,0.092195444,,319413418592394,3.0
Fix,GPS,12.9855520800,80.2375742100,-77.7823486328125,0.0,9.935046,,1681734066000,0.14422205,,319414418592394,3.0
Fix,GPS,12.9855505600,80.2375735600,-77.46286010742188,0.0,9.935046,,1681734067000,0.14422205,,319415418592394,3.0
Fix,GPS,12.9855512400,80.2375736700,-77.41323852539062,0.0,9.935046,,1681734068000,0.10630146,,319416418592394,3.0
Fix,GPS,12.9855531700,80.2375736000,-77.05621337890625,0.21,9.935046,0.1,1681734069000,0.90801984,88.58927,319417418592394,3.0
Fix,GPS,12.9855541600,80.2375711000,-77.39947509765625,0.0,9.935046,,1681734070000,0.2523886,,319418418592394,3.0
Fix,GPS,12.9855535800,80.2375714300,-77.39236450195312,0.0,9.935046,,1681734071000,0.25495097,,319419418592394,3.0
Fix,GPS,12.9855533500,80.2375736800,-77.00796508789062,0.0,9.935046,,1681734072000,0.09899495,,319420418592394,3.0
Fix,GPS,12.9855532900,80.2375745200,-76.71279907226562,0.0,9.935046,,1681734073000,0.13453624,,319421418592394,3.0
Fix,GPS,12.9855542200,80.2375744900,-76.80816650390625,0.0,9.935046,,1681734074000,0.16970563,,319422418592394,3.0
Fix,GPS,12.9855557300,80.2375733100,-77.11691284179688,0.0,9.935046,,1681734075000,0.2302173,,319423418592394,3.0
Fix,GPS,12.9855548300,80.2375738200,-76.97610473632812,0.0,9.935046,,1681734076000,0.24839485,,319424418592394,3.0
Fix,GPS,12.9855530900,80.2375750600,-76.8897705078125,0.0,9.935046,,1681734077000,0.18601075,,319425418592394,4.0
Fix,GPS,12.9855528600,80.2375767200,-76.2713623046875,0.0,9.935046,,1681734078000,0.14422205,,319426418592394,4.0
Fix,GPS,12.9855531900,80.2375770400,-76.11471557617188,0.0,9.935046,,1681734079000,0.4031129,,319427418592394,4.0
Fix,GPS,12.9855534700,80.2375769500,-75.80792236328125,0.0,9.935046,,1681734080000,0.20124611,,319428418592394,4.0
Fix,GPS,12.9855540100,80.2375768300,-75.56600952148438,0.0,9.935046,,1681734081000,0.15264338,,319429418592394,3.0
Fix,GPS,12.9855546300,80.2375766800,-75.359375,0.0,9.935046,,1681734082000,0.14422205,,319430418592394,3.0
Fix,GPS,12.9855540000,80.2375768000,-75.160888671875,0.0,9.935046,,1681734083000,0.14422205,,319431418592394,3.0
Fix,GPS,12.9855552900,80.2375767800,-75.25775146484375,0.0,9.935046,,1681734084000,0.21931712,,319432418592394,3.0
Fix,GPS,12.9855552100,80.2375767800,-75.07485961914062,0.0,9.935046,,1681734085000,0.14422205,,319433418592394,3.0
Fix,GPS,12.9855555900,80.2375767800,-75.315185546875,0.0,9.935046,,1681734086000,0.15,,319434418592394,3.0
Fix,GPS,12.9855554000,80.2375767200,-75.44772338867188,0.0,9.935046,,1681734087000,0.15811388,,319435418592394,3.0
Fix,GPS,12.9855553900,80.2375767300,-76.0040283203125,0.0,9.935046,,1681734088000,0.15,,319436418592394,3.0
Fix,GPS,12.9855554000,80.2375767300,-76.13815307617188,0.0,9.935046,,1681734089000,0.15811388,,319437418592394,3.0
Fix,GPS,12.9855554000,80.2375767200,-75.99664306640625,0.0,9.935046,,1681734090000,0.15811388,,319438418592394,3.0
Fix,GPS,12.9855553900,80.2375767200,-76.15081787109375,0.0,9.935046,,1681734091000,0.41400483,,319439418592394,3.0
Fix,GPS,12.9855553900,80.2375767400,-76.36468505859375,0.0,9.935046,,1681734092000,0.23706539,,319440418592394,4.0
Fix,GPS,12.9855553700,80.2375767400,-76.52786254882812,0.0,9.935046,,1681734093000,0.23323807,,319441418592394,4.0
Fix,GPS,12.9855553600,80.2375767400,-76.60806274414062,0.0,9.935046,,1681734094000,0.3828838,,319442418592394,4.0
Fix,GPS,12.9855553600,80.2375767500,-76.79373168945312,0.0,9.935046,,1681734095000,0.28017852,,319443418592394,4.0
Fix,GPS,12.9855553700,80.2375767700,-76.40576171875,0.0,9.935046,,1681734096000,0.17,,319444418592394,4.0
Fix,GPS,12.9855553700,80.2375767900,-76.2950439453125,0.0,9.935046,,1681734097000,0.16124515,,319445418592394,4.0
Fix,GPS,12.9855553500,80.2375767900,-76.02206420898438,0.0,9.935046,,1681734098000,0.15264338,,319446418592394,4.0
Fix,GPS,12.9855553600,80.2375768000,-75.85940551757812,0.0,9.935046,,1681734099000,0.21023796,,319447418592394,4.0
Fix,GPS,12.9855553700,80.2375768000,-75.81488037109375,0.0,9.935046,,1681734100000,0.21023796,,319448418592394,4.0
Fix,GPS,12.9855553700,80.2375768100,-75.89056396484375,0.0,9.935046,,1681734101000,0.15264338,,319449418592394,4.0
Fix,GPS,12.9855553900,80.2375768200,-75.65997314453125,0.0,9.935046,,1681734102000,0.15264338,,319450418592394,3.0
Fix,GPS,12.9855554100,80.2375768200,-75.68817138671875,0.0,9.935046,,1681734103000,0.21023796,,319451418592394,4.0
Fix,GPS,12.9855554100,80.2375768200,-75.477783203125,0.0,9.935046,,1681734104000,0.19235384,,319452418592394,3.0
Fix,GPS,12.9855554200,80.2375768200,-75.35348510742188,0.0,9.935046,,1681734105000,0.20124611,,319453418592394,3.0
Fix,GPS,12.9855554400,80.2375768400,-75.29183959960938,0.0,9.935046,,1681734106000,0.15264338,,319454418592394,3.0
Fix,GPS,12.9855554700,80.2375768400,-75.34423828125,0.0,9.935046,,1681734107000,0.21023796,,319455418592394,3.0
Fix,GPS,12.9855554900,80.2375768500,-75.21017456054688,0.0,9.935046,,1681734108000,0.15264338,,319456418592394,3.0
Fix,GPS,12.9855555000,80.2375768500,-75.24652099609375,0.0,9.935046,,1681734109000,0.23345235,,319457418592394,3.0
Fix,GPS,12.9855555000,80.2375768500,-75.18499755859375,0.0,9.935046,,1681734110000,0.15264338,,319458418592394,3.0
Fix,GPS,12.9855555200,80.2375768500,-75.20587158203125,0.0,9.935046,,1681734111000,0.15264338,,319459418592394,3.0
Fix,GPS,12.9855555400,80.2375768400,-75.25387573242188,0.0,9.935046,,1681734112000,0.2236068,,319460418592394,3.0
Fix,GPS,12.9855555500,80.2375768300,-75.311279296875,0.0,9.935046,,1681734113000,0.2147091,,319461418592394,3.0
Fix,GPS,12.9855555200,80.2375768400,-75.21615600585938,0.0,9.935046,,1681734114000,0.2147091,,319462418592394,3.0
Fix,GPS,12.9855554900,80.2375768300,-75.27145385742188,0.0,9.935046,,1681734115000,0.19235384,,319463418592394,3.0
Fix,GPS,12.9855554800,80.2375768200,-75.42678833007812,0.0,9.935046,,1681734116000,0.2147091,,319464418592394,3.0
Fix,GPS,12.9855554700,80.2375768100,-75.32147216796875,0.0,9.935046,,1681734117000,0.14422205,,319465418592394,3.0
Fix,GPS,12.9855555000,80.2375768100,-75.2535400390625,0.0,9.935046,,1681734118000,0.20124611,,319466418592394,3.0
Fix,GPS,12.9855555200,80.2375768200,-75.1492919921875,0.0,9.935046,,1681734119000,0.31890437,,319467418592394,3.0
Fix,GPS,12.9855555300,80.2375768100,-75.1480712890625,0.0,9.935046,,1681734120000,0.19235384,,319468418592394,3.0
Fix,GPS,12.9855555200,80.2375768300,-75.26751708984375,0.0,9.935046,,1681734121000,0.20124611,,319469418592394,3.0
Fix,GPS,12.9855554900,80.2375768400,-75.36746215820312,0.0,9.935046,,1681734122000,0.2059126,,319470418592394,3.0
Fix,GPS,12.9855554600,80.2375768400,-75.48699951171875,0.0,9.935046,,1681734123000,0.15264338,,319471418592394,3.0
Fix,GPS,12.9855554400,80.2375768400,-75.50787353515625,0.0,9.935046,,1681734124000,0.18788294,,319472418592394,3.0
Fix,GPS,12.9855554300,80.2375768300,-75.41900634765625,0.0,9.935046,,1681734125000,0.15264338,,319473418592394,3.0
Fix,GPS,12.9855554400,80.2375768400,-75.3974609375,0.0,9.935046,,1681734126000,0.2236068,,319474418592394,3.0
Fix,GPS,12.9855554300,80.2375768300,-75.5616455078125,0.0,9.935046,,1681734127000,0.36055514,,319475418592394,3.0
Fix,GPS,12.9855554000,80.2375768400,-75.59722900390625,0.0,9.935046,,1681734128000,0.23259407,,319476418592394,3.0
Fix,GPS,12.9855554000,80.2375768600,-75.6728515625,0.0,9.935046,,1681734129000,0.15264338,,319477418592394,3.0
Fix,GPS,12.9855554000,80.2375768700,-75.60186767578125,0.0,9.935046,,1681734130000,0.19235384,,319478418592394,3.0
Fix,GPS,12.9855553900,80.2375768800,-75.60711669921875,0.0,9.935046,,1681734131000,0.24166092,,319479418592394,3.0
Fix,GPS,12.9855553900,80.2375768900,-75.60330200195312,0.0,9.935046,,1681734132000,0.25495097,,319480418592394,3.0
Fix,GPS,12.9855553900,80.2375768900,-75.52703857421875,0.0,9.935046,,1681734133000,0.25079873,,319481418592394,3.0
Fix,GPS,12.9855553900,80.2375768900,-75.62997436523438,0.0,9.935046,,1681734134000,0.25079873,,319482418592394,3.0
Fix,GPS,12.9855553800,80.2375769100,-76.04693603515625,0.0,9.935046,,1681734135000,0.35468295,,319483418592394,4.0
Fix,GPS,12.9855553900,80.2375769000,-76.32208251953125,0.0,9.935046,,1681734136000,0.25806975,,319484418592394,4.0
Fix,GPS,12.9855553900,80.2375769100,-75.8641357421875,0.0,9.935046,,1681734137000,0.21931712,,319485418592394,4.0
Fix,GPS,12.9855554000,80.2375769100,-75.6468505859375,0.0,9.935046,,1681734138000,0.15264338,,319486418592394,3.0
Fix,GPS,12.9855554100,80.2375769200,-75.61883544921875,0.0,9.935046,,1681734139000,0.21023796,,319487418592394,3.0
Fix,GPS,12.9855554100,80.2375769400,-75.41387939453125,0.0,9.935046,,1681734140000,0.19697715,,319488418592394,3.0
Fix,GPS,12.9855554000,80.2375769400,-75.21258544921875,0.0,9.935046,,1681734141000,0.19697715,,319489418592394,3.0
Fix,GPS,12.9855554100,80.2375769500,-75.01510620117188,0.0,9.935046,,1681734142000,0.20615529,,319490418592394,3.0
Fix,GPS,12.9855554300,80.2375769600,-74.88650512695312,0.0,9.935046,,1681734143000,0.3560899,,319491418592394,3.0
Fix,GPS,12.9855554500,80.2375769800,-74.87442016601562,0.0,9.935046,,1681734144000,0.2657066,,319492418592394,3.0
Fix,GPS,12.9855554700,80.2375769900,-75.02865600585938,0.0,9.935046,,1681734145000,0.2529822,,319493418592394,3.0
Fix,GPS,12.9855554900,80.2375769900,-75.15203857421875,0.0,9.935046,,1681734146000,0.2780288,,319494418592394,3.0
Fix,GPS,12.9855554900,80.2375770000,-75.3817138671875,0.0,9.935046,,1681734147000,0.3560899,,319495418592394,3.0
Fix,GPS,12.9855555500,80.2375770200,-75.96234130859375,0.0,9.935046,,1681734148000,0.21954498,,319496418592394,3.0
Fix,GPS,12.9855555700,80.2375770200,-75.87799072265625,0.0,9.935046,,1681734149000,0.29068884,,319497418592394,3.0
Fix,GPS,12.9855556000,80.2375770100,-75.982666015625,0.0,9.935046,,1681734150000,0.19235384,,319498418592394,3.0
Fix,GPS,12.9855556200,80.2375770300,-76.05429077148438,0.0,9.935046,,1681734151000,0.29,,319499418592394,3.0
Fix,GPS,12.9855556800,80.2375770100,-76.44558715820312,0.0,9.935046,,1681734152000,0.2147091,,319500418592394,4.0
Fix,GPS,12.9855557200,80.2375769900,-76.81805419921875,0.0,9.935046,,1681734153000,0.26627055,,319501418592394,4.0
Fix,GPS,12.9855557400,80.2375770100,-76.75311279296875,0.0,9.935046,,1681734154000,0.21023796,,319502418592394,4.0
Fix,GPS,12.9855557800,80.2375770100,-76.99334716796875,0.0,9.935046,,1681734155000,0.2915476,,319503418592394,4.0
Fix,GPS,12.9855558100,80.2375770000,-76.76171875,0.0,9.935046,,1681734156000,0.234094,,319504418592394,4.0
Fix,GPS,12.9855558600,80.2375770100,-77.04861450195312,0.0,9.935046,,1681734157000,0.23769729,,319505418592394,4.0
Fix,GPS,12.9855558900,80.2375770200,-76.97235107421875,0.0,9.935046,,1681734158000,0.29,,319506418592394,4.0
Fix,GPS,12.9855559500,80.2375770400,-77.2872314453125,0.0,9.935046,,1681734159000,0.29732138,,319507418592394,4.0
Fix,GPS,12.9855560100,80.2375770300,-77.44656372070312,0.0,9.935046,,1681734160000,0.32526913,,319508418592394,4.0
Fix,GPS,12.9855560600,80.2375770000,-77.69427490234375,0.0,10.012007,,1681734161000,0.27586228,,319509418592394,4.0
Fix,GPS,12.9855561100,80.2375769900,-77.93609619140625,0.0,10.539273,,1681734162000,0.32526913,,319510418592394,4.0
Fix,GPS,12.9855561500,80.2375770000,-78.29901123046875,0.0,10.915046,,1681734163000,0.3324154,,319511418592394,4.0
Fix,GPS,12.9855562000,80.2375770300,-78.26806640625,0.0,10.921027,,1681734164000,0.29068884,,319512418592394,4.0
Fix,GPS,12.9855562500,80.2375770400,-78.31375122070312,0.0,10.918626,,1681734165000,0.3330165,,319513418592394,4.0
Fix,GPS,12.9855562900,80.2375770400,-78.382080078125,0.0,10.896865,,1681734166000,0.39698866,,319514418592394,4.0
Fix,GPS,12.9855563200,80.2375770400,-78.302490234375,0.0,10.85764,,1681734167000,0.29732138,,319515418592394,4.0
Fix,GPS,12.9855563500,80.2375770200,-78.28121948242188,0.0,10.8212595,,1681734168000,0.6303174,,319516418592394,4.0
Fix,GPS,12.9855563900,80.2375770300,-78.3013916015625,0.0,10.78797,,1681734169000,0.5315073,,319517418592394,4.0
Fix,GPS,12.9855564100,80.2375770300,-78.15966796875,0.0,10.71107,,1681734170000,0.4455334,,319518418592394,4.0
Fix,GPS,12.9855564400,80.2375770500,-78.29730224609375,0.0,10.755295,,1681734171000,0.17691806,,319519418592394,4.0
Fix,GPS,12.9855564400,80.2375770400,-78.266357421875,0.0,10.718333,,1681734172000,0.41773197,,319520418592394,4.0
Fix,GPS,12.9855564600,80.2375770600,-78.23187255859375,0.0,10.719895,,1681734173000,0.48918298,,319521418592394,4.0
Fix,GPS,12.9855564900,80.2375770800,-78.23199462890625,0.0,10.809136,,1681734174000,0.3720215,,319522418592394,4.0
Fix,GPS,12.9855565400,80.2375770800,-78.19424438476562,0.0,10.867404,,1681734175000,0.4860041,,319523418592394,4.0
Fix,GPS,12.9855565800,80.2375771000,-78.3165283203125,0.0,10.971295,,1681734176000,0.38832974,,319524418592394,4.0
Fix,GPS,12.9855566200,80.2375770900,-78.47113037109375,0.0,10.725505,,1681734177000,0.18027757,,319525418592394,4.0
Fix,GPS,12.9855566800,80.2375771300,-78.816162109375,0.0,10.583218,,1681734178000,0.18384777,,319526418592394,4.0
Fix,GPS,12.9855567200,80.2375771400,-78.69656372070312,0.0,10.612485,,1681734179000,0.29732138,,319527418592394,6.0
Fix,GPS,12.9855567600,80.2375771500,-78.74990844726562,0.0,10.6368885,,1681734180000,0.29,,319528418592394,6.0
Fix,GPS,12.9855567800,80.2375771400,-78.63980102539062,0.0,10.731408,,1681734181000,0.29732138,,319529418592394,4.0
Fix,GPS,12.9855568000,80.2375771400,-78.54428100585938,0.0,10.774941,,1681734182000,0.3560899,,319530418592394,4.0
Fix,GPS,12.9855568300,80.2375771300,-78.55929565429688,0.0,10.757354,,1681734183000,0.388973,,319531418592394,4.0
Fix,GPS,12.9855568800,80.2375771000,-78.65643310546875,0.0,10.694109,,1681734184000,0.21095023,,319532418592394,6.0
Fix,GPS,12.9855569100,80.2375771100,-78.751708984375,0.0,10.66293,,1681734185000,0.26172504,,319533418592394,4.0
Fix,GPS,12.9855569500,80.2375771200,-78.7027587890625,0.0,10.663368,,1681734186000,0.3959798,,319534418592394,6.0
Fix,GPS,12.9855569600,80.2375771200,-78.66168212890625,0.0,10.684383,,1681734187000,0.4103657,,319535418592394,6.0
Fix,GPS,12.9855569800,80.2375771100,-78.63897705078125,0.0,10.625386,,1681734188000,0.18601075,,319536418592394,4.0
Fix,GPS,12.9855570100,80.2375771000,-78.5272216796875,0.0,10.670409,,1681734189000,0.23345235,,319537418592394,4.0
Fix,GPS,12.9855570100,80.2375771100,-78.57598876953125,0.0,10.651692,,1681734190000,0.2915476,,319538418592394,4.0
Fix,GPS,12.9855570200,80.2375771000,-78.4757080078125,0.0,10.663299,,1681734191000,0.45607018,,319539418592394,4.0
Fix,GPS,12.9855570300,80.2375771100,-78.41217041015625,0.0,10.672859,,1681734192000,0.14212671,,319540418592394,4.0
Fix,GPS,12.9855570400,80.2375771100,-78.3192138671875,0.0,10.755226,,1681734193000,0.16278821,,319541418592394,4.0
Fix,GPS,12.9855570400,80.2375771200,-77.65496826171875,0.0,10.056452,,1681734194000,0.19849433,,319542418592394,4.0
Fix,GPS,12.9855570600,80.2375771200,-76.93597412109375,0.0,9.935046,,1681734195000,0.2729469,,319543418592394,4.0
Fix,GPS,12.9855570600,80.2375771100,-76.93572998046875,0.0,9.935046,,1681734196000,0.23259407,,319544418592394,4.0
Fix,GPS,12.9855570800,80.2375771000,-76.71380615234375,0.0,9.935046,,1681734197000,0.36069378,,319545418592394,4.0
Fix,GPS,12.9855598200,80.2375766100,-76.27252197265625,0.25,9.935046,0.2,1681734198000,1.1621101,90.550674,319546418592394,4.0
Fix,GPS,12.9855603900,80.2375748800,-76.28762817382812,0.26,9.935046,0.2,1681734199000,0.9200543,84.96092,319547418592394,4.0
Fix,GPS,12.9855610400,80.2375710000,-75.95025634765625,0.0,9.935046,,1681734200000,0.2236068,,319548418592394,4.0
Fix,GPS,12.9855611900,80.2375733500,-75.57455444335938,0.0,9.935046,,1681734201000,0.1360147,,319549418592394,4.0
Fix,GPS,12.9855617800,80.2375771700,-74.51022338867188,0.0,9.935046,,1681734202000,0.09899495,,319550418592394,3.0
Fix,GPS,12.9855634700,80.2375783400,-74.34915161132812,0.0,9.935046,,1681734203000,0.12041595,,319551418592394,3.0
Fix,GPS,12.9855642500,80.2375790700,-74.34002685546875,0.0,9.935046,,1681734204000,0.14422205,,319552418592394,3.0
Fix,GPS,12.9855635700,80.2375798400,-74.8050537109375,0.0,9.935046,,1681734205000,0.12041595,,319553418592394,3.0
Fix,GPS,12.9855669200,80.2375796500,-75.29058837890625,0.35,9.935046,0.2,1681734206000,0.8905055,77.70717,319554418592394,3.0
Fix,GPS,12.9855688900,80.2375768300,-75.58160400390625,0.0,9.935046,,1681734207000,0.22825424,,319555418592394,3.0
Fix,GPS,12.9855693800,80.2375758700,-75.42791748046875,0.0,9.935046,,1681734208000,0.14422205,,319556418592394,3.0
Fix,GPS,12.9855719100,80.2375762300,-75.75393676757812,0.0,9.935046,,1681734209000,0.09899495,,319557418592394,3.0
Fix,GPS,12.9855736000,80.2375764700,-75.92767333984375,0.0,9.935046,,1681734210000,0.1360147,,319558418592394,3.0
Fix,GPS,12.9855732500,80.2375765400,-76.066650390625,0.0,9.935046,,1681734211000,0.09899495,,319559418592394,3.0
Fix,GPS,12.9855728200,80.2375756800,-76.37387084960938,0.0,9.935046,,1681734212000,0.12041595,,319560418592394,3.0
Fix,GPS,12.9855719400,80.2375761400,-76.8084716796875,0.0,9.935046,,1681734213000,0.092195444,,319561418592394,3.0
Fix,GPS,12.9855705300,80.2375762400,-77.24688720703125,0.0,9.935046,,1681734214000,0.092195444,,319562418592394,3.0
Fix,GPS,12.9855713100,80.2375738000,-77.5506591796875,0.0,9.935046,,1681734215000,0.09899495,,319563418592394,3.0
Fix,GPS,12.9855731400,80.2375724000,-77.66433715820312,0.0,9.935046,,1681734216000,0.092195444,,319564418592394,3.0
Fix,GPS,12.9855737200,80.2375716000,-77.78237915039062,0.0,9.935046,,1681734217000,0.12041595,,319565418592394,3.0
Fix,GPS,12.9855742600,80.2375708500,-78.26626586914062,0.0,9.935046,,1681734218000,0.092195444,,319566418592394,3.0
Fix,GPS,12.9855742600,80.2375708700,-78.26348876953125,0.0,9.935046,,1681734219000,0.09899495,,319567418592394,3.0
Fix,GPS,12.9855743600,80.2375709100,-78.2564697265625,0.0,9.935046,,1681734220000,0.14422205,,319568418592394,3.0
Fix,GPS,12.9855746500,80.2375709500,-78.3404541015625,0.0,9.935046,,1681734221000,0.10630146,,319569418592394,3.0
Fix,GPS,12.9855751100,80.2375709600,-78.43667602539062,0.0,9.935046,,1681734222000,0.14422205,,319570418592394,3.0
Fix,GPS,12.9855756100,80.2375709800,-78.41006469726562,0.0,9.935046,,1681734223000,0.13892443,,319571418592394,3.0
Fix,GPS,12.9855765300,80.2375709400,-78.43115234375,0.0,9.935046,,1681734224000,0.13892443,,319572418592394,3.0
Fix,GPS,12.9855767300,80.2375708900,-78.33489990234375,0.0,9.935046,,1681734225000,0.13892443,,319573418592394,3.0
Fix,GPS,12.9855767300,80.2375708700,-78.38021850585938,0.0,9.935046,,1681734226000,0.21931712,,319574418592394,3.0
Fix,GPS,12.9855768300,80.2375708600,-78.53457641601562,0.0,9.935046,,1681734227000,0.15264338,,319575418592394,3.0
Fix,GPS,12.9855769000,80.2375708500,-78.51324462890625,0.0,9.935046,,1681734228000,0.14866069,,319576418592394,3.0
Fix,GPS,12.9855768900,80.2375708500,-78.51763916015625,0.0,9.935046,,1681734229000,0.32526913,,319577418592394,3.0
Fix,GPS,12.9855769100,80.2375708400,-78.56707763671875,0.0,9.935046,,1681734230000,0.36069378,,319578418592394,3.0
Fix,GPS,12.9855769100,80.2375708500,-78.74459838867188,0.0,9.935046,,1681734231000,0.15264338,,319579418592394,3.0
Fix,GPS,12.9855769000,80.2375708300,-78.78305053710938,0.0,9.935046,,1681734232000,0.2302173,,319580418592394,3.0
Fix,GPS,12.9855769000,80.2375708200,-78.86065673828125,0.0,9.935046,,1681734233000,0.24758837,,319581418592394,3.0
Fix,GPS,12.9855769100,80.2375708100,-78.79806518554688,0.0,9.935046,,1681734234000,0.12806249,,319582418592394,4.0
Fix,GPS,12.9855769000,80.2375708300,-78.76065063476562,0.0,9.935046,,1681734235000,0.21023796,,319583418592394,3.0
Fix,GPS,12.9855769100,80.2375708100,-78.77474975585938,0.0,9.935046,,1681734236000,0.15264338,,319584418592394,3.0
Fix,GPS,12.9855769200,80.2375708000,-78.8013916015625,0.0,9.935046,,1681734237000,0.25495097,,319585418592394,4.0
Fix,GPS,12.9855769200,80.2375707800,-78.81399536132812,0.0,9.935046,,1681734238000,0.4420407,,319586418592394,4.0
Fix,GPS,12.9855769200,80.2375707900,-78.8057861328125,0.0,9.935046,,1681734239000,0.24166092,,319587418592394,4.0
Fix,GPS,12.9855769300,80.2375707900,-78.86618041992188,0.0,9.935046,,1681734240000,0.23345235,,319588418592394,4.0
Fix,GPS,12.9855769300,80.2375707900,-78.90185546875,0.0,9.935046,,1681734241000,0.41868842,,319589418592394,4.0
Fix,GPS,12.9855769300,80.2375707800,-78.96127319335938,0.0,9.935046,,1681734242000,0.16124515,,319590418592394,4.0
Fix,GPS,12.9855769300,80.2375708000,-78.94351196289062,0.0,9.935046,,1681734243000,0.19416487,,319591418592394,4.0
Fix,GPS,12.9855769400,80.2375707900,-78.98025512695312,0.0,9.935046,,1681734244000,0.23323807,,319592418592394,4.0
Fix,GPS,12.9855769700,80.2375707900,-79.07440185546875,0.0,9.935046,,1681734245000,0.40607882,,319593418592394,4.0
Fix,GPS,12.9855769600,80.2375707700,-79.0810546875,0.0,9.935046,,1681734246000,0.18027757,,319594418592394,4.0
Fix,GPS,12.9855769700,80.2375707400,-79.13583374023438,0.0,9.935046,,1681734247000,0.2624881,,319595418592394,4.0
Fix,GPS,12.9855769600,80.2375707500,-79.00042724609375,0.0,9.935046,,1681734248000,0.21260291,,319596418592394,4.0
Fix,GPS,12.9855769600,80.2375707400,-78.7789306640625,0.0,9.935046,,1681734249000,0.17492856,,319597418592394,4.0
Fix,GPS,12.9855769600,80.2375707300,-78.64901733398438,0.0,9.935046,,1681734250000,0.17,,319598418592394,4.0
Fix,GPS,12.9855770600,80.2375707000,-78.64642333984375,0.0,9.935046,,1681734251000,0.16643317,,319599418592394,4.0
Fix,GPS,12.9855772500,80.2375706300,-78.616943359375,0.0,9.935046,,1681734252000,0.15264338,,319600418592394,3.0
Fix,GPS,12.9855773300,80.2375705900,-78.57662963867188,0.0,9.935046,,1681734253000,0.2147091,,319601418592394,3.0
Fix,GPS,12.9855773700,80.2375705600,-78.51058959960938,0.0,9.935046,,1681734254000,0.16124515,,319602418592394,3.0
Fix,GPS,12.9855774100,80.2375705500,-78.46249389648438,0.0,9.935046,,1681734255000,0.23345235,,319603418592394,3.0
Fix,GPS,12.9855775000,80.2375705200,-78.46572875976562,0.0,9.935046,,1681734256000,0.15264338,,319604418592394,3.0
Fix,GPS,12.9855774900,80.2375704900,-78.52487182617188,0.0,9.935046,,1681734257000,0.15264338,,319605418592394,3.0
Fix,GPS,12.9855773600,80.2375705200,-78.52969360351562,0.0,9.935046,,1681734258000,0.21954498,,319606418592394,3.0
Fix,GPS,12.9855773300,80.2375705300,-78.5108642578125,0.0,9.935046,,1681734259000,0.15264338,,319607418592394,3.0
Fix,GPS,12.9855773800,80.2375705100,-78.546630859375,0.0,9.935046,,1681734260000,0.15811388,,319608418592394,3.0
Fix,GPS,12.9855773800,80.2375704900,-78.58944702148438,0.0,9.935046,,1681734261000,0.15264338,,319609418592394,3.0
Fix,GPS,12.9855775000,80.2375704700,-78.5135498046875,0.0,9.935046,,1681734262000,0.14422205,,319610418592394,3.0
Fix,GPS,12.9855776100,80.2375704600,-78.594482421875,0.0,9.935046,,1681734263000,0.14422205,,319611418592394,3.0
Fix,GPS,12.9855776600,80.2375704500,-78.52630615234375,0.0,9.935046,,1681734264000,0.21095023,,319612418592394,3.0
Fix,GPS,12.9855776600,80.2375704400,-78.5404052734375,0.0,9.935046,,1681734265000,0.15811388,,319613418592394,3.0
Fix,GPS,12.9855776600,80.2375704400,-78.5394287109375,0.0,9.935046,,1681734266000,0.2147091,,319614418592394,3.0
Fix,GPS,12.9855776500,80.2375704200,-78.57119750976562,0.0,9.935046,,1681734267000,0.21954498,,319615418592394,3.0
Fix,GPS,12.9855775900,80.2375704000,-78.54541015625,0.0,9.935046,,1681734268000,0.15264338,,319616418592394,3.0
Fix,GPS,12.9855775900,80.2375703800,-78.49349975585938,0.0,9.935046,,1681734269000,0.34655446,,319617418592394,3.0
Fix,GPS,12.9855775800,80.2375703800,-78.44598388671875,0.0,9.935046,,1681734270000,0.15811388,,319618418592394,3.0
Fix,GPS,12.9855777000,80.2375703700,-78.51535034179688,0.0,9.935046,,1681734271000,0.14422205,,319619418592394,3.0
Fix,GPS,12.9855773200,80.2375703500,-78.38784790039062,0.0,9.935046,,1681734272000,0.1360147,,319620418592394,3.0
Fix,GPS,12.9855772100,80.2375703400,-78.38754272460938,0.0,9.935046,,1681734273000,0.1360147,,319621418592394,3.0
Fix,GPS,12.9855772800,80.2375703300,-78.44451904296875,0.0,9.935046,,1681734274000,0.1360147,,319622418592394,3.0
Fix,GPS,12.9855774700,80.2375703400,-78.46978759765625,0.0,9.935046,,1681734275000,0.1835756,,319623418592394,3.0
Fix,GPS,12.9855775200,80.2375703500,-78.46023559570312,0.0,9.935046,,1681734276000,0.26832816,,319624418592394,3.0
Fix,GPS,12.9855775300,80.2375703600,-78.47625732421875,0.0,9.935046,,1681734277000,0.31112698,,319625418592394,3.0
Fix,GPS,12.9855775500,80.2375703400,-78.489990234375,0.0,9.935046,,1681734278000,0.35383612,,319626418592394,3.0
Fix,GPS,12.9855776200,80.2375703300,-78.50344848632812,0.0,9.935046,,1681734279000,0.2408319,,319627418592394,3.0
Fix,GPS,12.9855776400,80.2375703300,-78.50759887695312,0.0,9.935046,,1681734280000,0.14422205,,319628418592394,3.0
Fix,GPS,12.9855776600,80.2375703200,-78.4935302734375,0.0,9.935046,,1681734281000,0.1835756,,319629418592394,3.0
Fix,GPS,12.9855776500,80.2375702900,-78.55313110351562,0.0,9.935046,,1681734282000,0.1835756,,319630418592394,3.0
Fix,GPS,12.9855776500,80.2375702700,-78.584228515625,0.0,9.935046,,1681734283000,0.17492856,,319631418592394,3.0
Fix,GPS,12.9855776500,80.2375702600,-78.65194702148438,0.0,9.935046,,1681734284000,0.1835756,,319632418592394,3.0
Fix,GPS,12.9855776600,80.2375702500,-78.62933349609375,0.0,9.935046,,1681734285000,0.1360147,,319633418592394,3.0
Fix,GPS,12.9855776700,80.2375702200,-78.64443969726562,0.0,9.935046,,1681734286000,0.29698485,,319634418592394,3.0
Fix,GPS,12.9855776700,80.2375702100,-78.5958251953125,0.0,9.935046,,1681734287000,0.19235384,,319635418592394,3.0
Fix,GPS,12.9855776800,80.2375702300,-78.6170654296875,0.0,9.935046,,1681734288000,0.1360147,,319636418592394,3.0
Fix,GPS,12.9855776800,80.2375702200,-78.61563110351562,0.0,9.935046,,1681734289000,0.1360147,,319637418592394,3.0
Fix,GPS,12.9855776800,80.2375702300,-78.58465576171875,0.0,9.935046,,1681734290000,0.13038404,,319638418592394,3.0
Fix,GPS,12.9855776800,80.2375702300,-78.60305786132812,0.0,9.935046,,1681734291000,0.13038404,,319639418592394,3.0
Fix,GPS,12.9855776800,80.2375702500,-78.58572387695312,0.0,9.935046,,1681734292000,0.13038404,,319640418592394,3.0
Fix,GPS,12.9855776900,80.2375702700,-78.58609008789062,0.0,9.935046,,1681734293000,0.1360147,,319641418592394,3.0
Fix,GPS,12.9855776800,80.2375702600,-78.5506591796875,0.0,9.935046,,1681734294000,0.17,,319642418592394,3.0
Fix,GPS,12.9855776700,80.2375702500,-78.54421997070312,0.0,9.935046,,1681734295000,0.13038404,,319643418592394,3.0
Fix,GPS,12.9855776600,80.2375702500,-78.5736083984375,0.0,9.935046,,1681734296000,0.12206556,,319644418592394,3.0
Fix,GPS,12.9855776700,80.2375702600,-78.58090209960938,0.0,9.935046,,1681734297000,0.14866069,,319645418592394,3.0
Fix,GPS,12.9855776600,80.2375702600,-78.6429443359375,0.0,9.935046,,1681734298000,0.22203603,,319646418592394,3.0
Fix,GPS,12.9855776700,80.2375702400,-78.75308227539062,0.0,9.935046,,1681734299000,0.13892443,,319647418592394,3.0
Fix,GPS,12.9855776700,80.2375702600,-78.77789306640625,0.0,9.935046,,1681734300000,0.13892443,,319648418592394,3.0
Fix,GPS,12.9855776800,80.2375702600,-78.79562377929688,0.0,9.935046,,1681734301000,0.13038404,,319649418592394,3.0
Fix,GPS,12.9855776900,80.2375702500,-78.88052368164062,0.0,9.935046,,1681734302000,0.21260291,,319650418592394,3.0
Fix,GPS,12.9855777000,80.2375702300,-78.997802734375,0.0,9.935046,,1681734303000,0.3182766,,319651418592394,4.0
Fix,GPS,12.9855776900,80.2375702600,-79.09268188476562,0.0,9.935046,,1681734304000,0.2147091,,319652418592394,4.0
Fix,GPS,12.9855776900,80.2375702700,-79.20504760742188,0.0,9.935046,,1681734305000,0.20124611,,319653418592394,4.0
Fix,GPS,12.9855777000,80.2375702900,-79.27557373046875,0.0,9.935046,,1681734306000,0.19723083,,319654418592394,4.0
Fix,GPS,12.9855776800,80.2375703100,-79.37826538085938,0.0,9.935046,,1681734307000,0.32015622,,319655418592394,4.0
Fix,GPS,12.9855776800,80.2375703200,-79.37075805664062,0.0,9.935046,,1681734308000,0.1360147,,319656418592394,4.0
Fix,GPS,12.9855776800,80.2375703000,-79.41482543945312,0.0,9.935046,,1681734309000,0.20615529,,319657418592394,4.0
Fix,GPS,12.9855776600,80.2375703100,-79.440185546875,0.0,10.144106,,1681734310000,0.3580503,,319658418592394,4.0
Fix,GPS,12.9855776600,80.2375703200,-79.37057495117188,0.0,9.935046,,1681734311000,0.19723083,,319659418592394,4.0
Fix,GPS,12.9855776600,80.2375703100,-79.34014892578125,0.0,9.935046,,1681734312000,0.1360147,,319660418592394,4.0
Fix,GPS,12.9855776900,80.2375703000,-79.3951416015625,0.0,9.935046,,1681734313000,0.1360147,,319661418592394,4.0
Fix,GPS,12.9855777000,80.2375703000,-79.33087158203125,0.0,9.935046,,1681734314000,0.31400636,,319662418592394,4.0
Fix,GPS,12.9855776900,80.2375703200,-79.35791015625,0.0,9.935046,,1681734315000,0.20248456,,319663418592394,4.0
Fix,GPS,12.9855777100,80.2375703300,-79.43844604492188,0.0,10.130153,,1681734316000,0.23430748,,319664418592394,4.0
Fix,GPS,12.9855777300,80.2375703500,-79.36212158203125,0.0,10.232292,,1681734317000,0.1835756,,319665418592394,4.0
Fix,GPS,12.9855777500,80.2375703500,-79.25958251953125,0.0,9.935046,,1681734318000,0.17492856,,319666418592394,4.0
Fix,GPS,12.9855777700,80.2375703600,-79.17523193359375,0.0,9.935046,,1681734319000,0.114017546,,319667418592394,4.0
Fix,GPS,12.9855777700,80.2375703500,-79.13262939453125,0.0,9.935046,,1681734320000,0.114017546,,319668418592394,4.0
Fix,GPS,12.9855777700,80.2375703600,-79.01617431640625,0.0,9.935046,,1681734321000,0.114017546,,319669418592394,4.0
Fix,GPS,12.9855777800,80.2375703500,-78.91204833984375,0.0,9.935046,,1681734322000,0.114017546,,319670418592394,4.0
Fix,GPS,12.9855777800,80.2375703600,-78.80728149414062,0.0,9.935046,,1681734323000,0.114017546,,319671418592394,4.0
Fix,GPS,12.9855777700,80.2375703900,-78.79937744140625,0.0,9.935046,,1681734324000,0.12206556,,319672418592394,4.0
Fix,GPS,12.9855777600,80.2375704000,-78.74270629882812,0.0,9.935046,,1681734325000,0.12206556,,319673418592394,3.0
Fix,GPS,12.9855777800,80.2375704100,-78.71847534179688,0.0,9.935046,,1681734326000,0.114017546,,319674418592394,3.0
Fix,GPS,12.9855777800,80.2375704200,-78.68511962890625,0.0,9.935046,,1681734327000,0.15811388,,319675418592394,3.0
Fix,GPS,12.9855777700,80.2375704300,-78.64031982421875,0.0,9.935046,,1681734328000,0.15264338,,319676418592394,3.0
Fix,GPS,12.9855777800,80.2375704300,-78.5838623046875,0.0,9.935046,,1681734329000,0.15264338,,319677418592394,3.0
Fix,GPS,12.9855777700,80.2375704200,-78.61532592773438,0.0,9.935046,,1681734330000,0.114017546,,319678418592394,3.0
Fix,GPS,12.9855777500,80.2375704100,-78.61712646484375,0.0,9.935046,,1681734331000,0.114017546,,319679418592394,3.0
Fix,GPS,12.9855777500,80.2375703900,-78.59564208984375,0.0,9.935046,,1681734332000,0.09899495,,319680418592394,3.0
Fix,GPS,12.9855777500,80.2375704000,-78.5369873046875,0.0,9.935046,,1681734333000,0.09899495,,319681418592394,3.0
Fix,GPS,12.9855777500,80.2375704000,-78.50103759765625,0.0,9.935046,,1681734334000,0.09899495,,319682418592394,3.0
Fix,GPS,12.9855777400,80.2375704100,-78.48516845703125,0.0,9.935046,,1681734335000,0.09899495,,319683418592394,3.0
Fix,GPS,12.9855777300,80.2375704100,-78.490478515625,0.0,9.935046,,1681734336000,0.14422205,,319684418592394,3.0
Fix,GPS,12.9855777200,80.2375704100,-78.46881103515625,0.0,9.935046,,1681734337000,0.09899495,,319685418592394,3.0
Fix,GPS,12.9855777000,80.2375704200,-78.50540161132812,0.0,9.935046,,1681734338000,0.114017546,,319686418592394,3.0
Fix,GPS,12.9855777000,80.2375704400,-78.4625244140625,0.0,9.935046,,1681734339000,0.15264338,,319687418592394,3.0
Fix,GPS,12.9855777000,80.2375704600,-78.45538330078125,0.0,9.935046,,1681734340000,0.114017546,,319688418592394,3.0
Fix,GPS,12.9855776900,80.2375704500,-78.51101684570312,0.0,9.935046,,1681734341000,0.10630146,,319689418592394,3.0
Fix,GPS,12.9855776900,80.2375704400,-78.61239624023438,0.0,9.935046,,1681734342000,0.14422205,,319690418592394,3.0
Fix,GPS,12.9855777000,80.2375704300,-78.645263671875,0.0,9.935046,,1681734343000,0.15264338,,319691418592394,3.0
Fix,GPS,12.9855777000,80.2375704200,-78.64788818359375,0.0,9.935046,,1681734344000,0.1360147,,319692418592394,3.0
Fix,GPS,12.9855777100,80.2375704300,-78.66473388671875,0.0,9.935046,,1681734345000,0.19104972,,319693418592394,3.0
Fix,GPS,12.9855777100,80.2375704400,-78.72918701171875,0.0,9.935046,,1681734346000,0.18439089,,319694418592394,3.0
Fix,GPS,12.9855777100,80.2375704400,-78.612548828125,0.0,9.935046,,1681734347000,0.12041595,,319695418592394,3.0
Fix,GPS,12.9855777100,80.2375704400,-78.60308837890625,0.0,9.935046,,1681734348000,0.16643317,,319696418592394,3.0
Fix,GPS,12.9855777100,80.2375704300,-78.58035278320312,0.0,9.935046,,1681734349000,0.12806249,,319697418592394,3.0
Fix,GPS,12.9855777200,80.2375704400,-78.55923461914062,0.0,9.935046,,1681734350000,0.16643317,,319698418592394,3.0
Fix,GPS,12.9855777200,80.2375704400,-78.525634765625,0.0,9.935046,,1681734351000,0.12806249,,319699418592394,3.0
Fix,GPS,12.9855777300,80.2375704500,-78.56707763671875,0.0,9.935046,,1681734352000,0.12206556,,319700418592394,3.0
Fix,GPS,12.9855777200,80.2375704500,-78.52557373046875,0.0,9.935046,,1681734353000,0.09899495,,319701418592394,3.0
Fix,GPS,12.9855777100,80.2375704700,-78.54330444335938,0.0,9.935046,,1681734354000,0.092195444,,319702418592394,3.0
Fix,GPS,12.9855777000,80.2375704800,-78.5211181640625,0.0,9.935046,,1681734355000,0.15264338,,319703418592394,3.0
Fix,GPS,12.9855776900,80.2375704700,-78.50018310546875,0.0,9.935046,,1681734356000,0.15264338,,319704418592394,3.0
Fix,GPS,12.9855777000,80.2375704600,-78.4884033203125,0.0,9.935046,,1681734357000,0.10630146,,319705418592394,3.0
Fix,GPS,12.9855802800,80.2375698600,-78.72714233398438,0.38,9.935046,0.0,1681734358000,0.9340771,75.27108,319706418592394,3.0
Fix,GPS,12.9855810600,80.2375692700,-78.4915771484375,0.32,9.935046,0.0,1681734359000,0.9200543,80.04233,319707418592394,3.0
Fix,GPS,12.9855812000,80.2375690900,-80.02261352539062,0.0,9.935046,,1681734360000,1.1458621,,319708418592394,3.0
Fix,GPS,12.9855787400,80.2375641900,-80.56784057617188,0.0,9.935046,,1681734361000,0.14422205,,319709418592394,3.0
Fix,GPS,12.9855754800,80.2375624600,-80.62506103515625,0.0,9.935046,,1681734362000,0.10630146,,319710418592394,3.0
Fix,GPS,12.9855747800,80.2375629100,-79.83676147460938,0.4,9.935046,0.1,1681734363000,0.9280086,73.85405,319711418592394,3.0
Fix,GPS,12.9855726500,80.2375612900,-79.80648803710938,0.25,9.935046,0.0,1681734364000,0.9280086,85.60559,319712418592394,3.0
Fix,GPS,12.9855658900,80.2375620800,-79.7022705078125,0.0,9.935046,,1681734365000,0.14422205,,319713418592394,3.0
Fix,GPS,12.9855662500,80.2375620100,-79.60702514648438,0.33,9.935046,0.1,1681734366000,0.9340771,79.23971,319714418592394,3.0
Fix,GPS,12.9855660900,80.2375618100,-78.30914306640625,0.3,9.935046,0.1,1681734367000,0.9280086,81.88746,319715418592394,3.0
Fix,GPS,12.9855658000,80.2375611900,-78.0025634765625,0.4,9.935046,0.1,1681734368000,0.9340771,74.02245,319716418592394,3.0
Fix,GPS,12.9855642600,80.2375613800,-77.4537353515625,0.34,9.935046,0.1,1681734369000,0.9280086,78.67634,319717418592394,3.0
Fix,GPS,12.9855606300,80.2375613500,-76.76519775390625,0.0,9.935046,,1681734370000,0.9340771,,319718418592394,3.0
Fix,GPS,12.9855525700,80.2375598100,-75.88339233398438,0.0,9.935046,,1681734371000,0.15264338,,319719418592394,3.0
Fix,GPS,12.9855502200,80.2375611400,-75.46185302734375,0.0,9.935046,,1681734372000,0.10630146,,319720418592394,3.0
Fix,GPS,12.9855484300,80.2375619400,-74.85916137695312,0.0,9.935046,,1681734373000,0.14422205,,319721418592394,3.0
Fix,GPS,12.9855492700,80.2375634200,-74.88250732421875,0.35,9.935046,0.1,1681734374000,1.1344161,84.4928,319722418592394,3.0
Fix,GPS,12.9855470100,80.2375642800,-74.88214111328125,0.0,9.935046,,1681734375000,0.23259407,,319723418592394,3.0
Fix,GPS,12.9855445600,80.2375644500,-74.57208251953125,0.0,9.935046,,1681734376000,0.14422205,,319724418592394,3.0
Fix,GPS,12.9855423800,80.2375651800,-74.383056640625,0.0,9.935046,,1681734377000,0.14422205,,319725418592394,3.0
Fix,GPS,12.9855415500,80.2375652700,-74.250244140625,0.0,9.935046,,1681734378000,0.14422205,,319726418592394,3.0
Fix,GPS,12.9855409600,80.2375647200,-74.343505859375,0.0,9.935046,,1681734379000,0.10630146,,319727418592394,3.0
Fix,GPS,12.9855408300,80.2375654000,-74.05816650390625,0.0,9.935046,,1681734380000,0.15264338,,319728418592394,3.0
Fix,GPS,12.9855396400,80.2375639700,-73.97943115234375,0.0,9.935046,,1681734381000,0.092195444,,319729418592394,3.0
Fix,GPS,12.9855385600,80.2375638600,-74.1131591796875,0.0,9.935046,,1681734382000,0.09899495,,319730418592394,3.0
Fix,GPS,12.9855391400,80.2375654300,-73.91940307617188,0.29,9.935046,0.1,1681734383000,0.9200543,82.579216,319731418592394,3.0
Fix,GPS,12.9855354000,80.2375669400,-74.01937866210938,0.0,9.935046,,1681734384000,0.20124611,,319732418592394,3.0
Fix,GPS,12.9855355600,80.2375678500,-74.310302734375,0.0,9.935046,,1681734385000,0.10630146,,319733418592394,3.0
Fix,GPS,12.9855354600,80.2375676200,-74.55645751953125,0.0,9.935046,,1681734386000,0.13038404,,319734418592394,3.0
Fix,GPS,12.9855358600,80.2375681300,-74.45343017578125,0.0,9.935046,,1681734387000,0.092195444,,319735418592394,3.0
Fix,GPS,12.9855374200,80.2375687600,-74.91641235351562,0.0,9.935046,,1681734388000,0.1360147,,319736418592394,3.0
Fix,GPS,12.9855387100,80.2375675300,-76.07046508789062,0.3,9.935046,0.1,1681734389000,1.1177208,87.03806,319737418592394,3.0
Fix,GPS,12.9855396800,80.2375685200,-76.53268432617188,0.43,9.935046,0.1,1681734390000,1.1512167,79.73084,319738418592394,3.0
Fix,GPS,12.9855398100,80.2375692600,-76.44906616210938,0.16,9.935046,0.1,1681734391000,0.9140022,93.00289,319739418592394,3.0
Fix,GPS,12.9855386700,80.2375694100,-76.30224609375,0.0,9.935046,,1681734392000,0.21023796,,319740418592394,3.0
Fix,GPS,12.9855379100,80.2375692100,-76.48785400390625,0.0,9.935046,,1681734393000,0.20124611,,319741418592394,3.0
Fix,GPS,12.9855375000,80.2375685400,-76.23635864257812,0.0,9.935046,,1681734394000,0.09899495,,319742418592394,3.0
Fix,GPS,12.9855360500,80.2375691800,-75.9481201171875,0.0,9.935046,,1681734395000,0.09899495,,319743418592394,3.0
Fix,GPS,12.9855351100,80.2375702600,-75.684814453125,0.0,9.935046,,1681734396000,0.09899495,,319744418592394,3.0
Fix,GPS,12.9855349700,80.2375709700,-75.30532836914062,0.0,9.935046,,1681734397000,0.092195444,,319745418592394,3.0
Fix,GPS,12.9855360500,80.2375735500,-75.33642578125,0.0,9.935046,,1681734398000,0.092195444,,319746418592394,3.0
Fix,GPS,12.9855369300,80.2375744700,-75.2642822265625,0.0,9.935046,,1681734399000,0.14422205,,319747418592394,3.0
Fix,GPS,12.9855379200,80.2375763300,-75.01025390625,0.0,9.935046,,1681734400000,0.20124611,,319748418592394,3.0
Fix,GPS,12.9855389500,80.2375758400,-74.9676513671875,0.0,9.935046,,1681734401000,0.10630146,,319749418592394,3.0
Fix,GPS,12.9855392900,80.2375767500,-74.91253662109375,0.0,9.935046,,1681734402000,0.10630146,,319750418592394,3.0
Fix,GPS,12.9855394700,80.2375769700,-74.86138916015625,0.0,9.935046,,1681734403000,0.14422205,,319751418592394,3.0
Fix,GPS,12.9855395400,80.2375769700,-74.736572265625,0.0,9.935046,,1681734404000,0.09899495,,319752418592394,3.0
Fix,GPS,12.9855397400,80.2375769700,-74.83700561523438,0.0,9.935046,,1681734405000,0.2059126,,319753418592394,3.0
Fix,GPS,12.9855397400,80.2375769800,-74.94140625,0.0,9.935046,,1681734406000,0.2059126,,319754418592394,3.0
Fix,GPS,12.9855410200,80.2375779400,-74.78182983398438,0.24,9.935046,0.1,1681734407000,1.1011357,90.48462,319755418592394,3.0
Fix,GPS,12.9855408400,80.2375805000,-74.48501586914062,0.0,9.935046,,1681734408000,0.13892443,,319756418592394,3.0
Fix,GPS,12.9855432200,80.2375809700,-74.50442504882812,0.0,9.935046,,1681734409000,0.14422205,,319757418592394,3.0
Fix,GPS,12.9855448700,80.2375803400,-73.18515014648438,0.0,9.935046,,1681734410000,0.25,,319758418592394,3.0
Fix,GPS,12.9855444600,80.2375789500,-73.75326538085938,0.0,9.935046,,1681734411000,0.2780288,,319759418592394,3.0
Fix,GPS,12.9855470300,80.2375782200,-74.03826904296875,0.0,9.935046,,1681734412000,0.16124515,,319760418592394,3.0
Fix,GPS,12.9855484700,80.2375765400,-73.8544921875,0.0,9.935046,,1681734413000,0.16124515,,319761418592394,3.0
Fix,GPS,12.9855510200,80.2375744400,-73.6982421875,0.0,9.935046,,1681734414000,0.20248456,,319762418592394,3.0
Fix,GPS,12.9855528800,80.2375737300,-73.78024291992188,0.0,9.935046,,1681734415000,0.3324154,,319763418592394,3.0
Fix,GPS,12.9855543700,80.2375739800,-73.6748046875,0.0,9.935046,,1681734416000,0.17492856,,319764418592394,3.0
Fix,GPS,12.9855554000,80.2375738800,-73.701416015625,0.0,9.935046,,1681734417000,0.16643317,,319765418592394,3.0
Fix,GPS,12.9855563500,80.2375730500,-73.86248779296875,0.0,9.935046,,1681734418000,0.3182766,,319766418592394,3.0
Fix,GPS,12.9855566300,80.2375729400,-73.8546142578125,0.0,9.935046,,1681734419000,0.35355338,,319767418592394,3.0
Fix,GPS,12.9855565500,80.2375732700,-74.35641479492188,0.0,9.935046,,1681734420000,0.16124515,,319768418592394,4.0
Fix,GPS,12.9855566000,80.2375733700,-75.38742065429688,0.0,9.935046,,1681734421000,0.2404163,,319769418592394,4.0
Fix,GPS,12.9855565800,80.2375734100,-75.62322998046875,0.0,9.935046,,1681734422000,0.20248456,,319770418592394,4.0
Fix,GPS,12.9855566000,80.2375734000,-76.0870361328125,0.0,9.935046,,1681734423000,0.33941126,,319771418592394,4.0
Fix,GPS,12.9855566100,80.2375734100,-75.85995483398438,0.0,9.935046,,1681734424000,0.35355338,,319772418592394,4.0
Fix,GPS,12.9855566400,80.2375734100,-76.2052001953125,0.0,10.374487,,1681734425000,0.38209945,,319773418592394,4.0
Fix,GPS,12.9855566800,80.2375734300,-76.78457641601562,0.0,10.648461,,1681734426000,0.24758837,,319774418592394,4.0
Fix,GPS,12.9855567000,80.2375734600,-76.90560913085938,0.0,10.710742,,1681734427000,0.26907247,,319775418592394,4.0
Fix,GPS,12.9855567300,80.2375734600,-77.06011962890625,0.0,10.690936,,1681734428000,0.24758837,,319776418592394,4.0
Fix,GPS,12.9855567600,80.2375734900,-76.6414794921875,0.0,10.686662,,1681734429000,0.11313708,,319777418592394,4.0
Fix,GPS,12.9855567700,80.2375735100,-76.54620361328125,0.0,10.750935,,1681734430000,0.10630146,,319778418592394,4.0
Fix,GPS,12.9855567900,80.2375735200,-76.320556640625,0.0,10.683989,,1681734431000,0.12806249,,319779418592394,4.0
Fix,GPS,12.9855568100,80.2375735200,-76.203369140625,0.0,10.681493,,1681734432000,0.12041595,,319780418592394,4.0
Fix,GPS,12.9855568700,80.2375735500,-76.568359375,0.0,10.761474,,1681734433000,0.19416487,,319781418592394,4.0
Fix,GPS,12.9855568800,80.2375735700,-76.46209716796875,0.0,10.737759,,1681734434000,0.1640122,,319782418592394,4.0
Fix,GPS,12.9855569100,80.2375735700,-76.4239501953125,0.0,10.8372,,1681734435000,0.18601075,,319783418592394,4.0
Fix,GPS,12.9855569300,80.2375734700,-76.37356567382812,0.0,10.653857,,1681734436000,0.20518285,,319784418592394,4.0
Fix,GPS,12.9855569500,80.2375734500,-75.89096069335938,0.0,10.281215,,1681734437000,0.22627416,,319785418592394,4.0
Fix,GPS,12.9855569600,80.2375734500,-75.76260375976562,0.0,10.185737,,1681734438000,0.16970563,,319786418592394,4.0
Fix,GPS,12.9855569800,80.2375734700,-75.718994140625,0.0,10.131939,,1681734439000,0.19104972,,319787418592394,4.0
