Fix,GPS,12.9859922300,80.2373228900,-57.756927490234375,0.0,14.474633,,1682241286000,0.33105892,,47149376769222,6.0
Fix,GPS,12.9859923400,80.2373229500,-57.77301025390625,0.0,14.95703,,1682241287000,0.34014702,,47150376769222,6.0
Fix,GPS,12.9859923100,80.2373229700,-57.773590087890625,0.0,15.269426,,1682241288000,0.34928498,,47151376769222,6.0
Fix,GPS,12.9859922900,80.2373229600,-57.777496337890625,0.0,16.164759,,1682241289000,0.37696153,,47152376769222,8.0
Fix,GPS,12.9859922800,80.2373229500,-57.775909423828125,0.0,15.970657,,1682241290000,0.37696153,,47153376769222,6.0
Fix,GPS,12.9859922600,80.2373229300,-57.765380859375,0.0,15.460095,,1682241291000,0.3939543,,47154376769222,6.0
Fix,GPS,12.9859922400,80.2373229500,-57.75909423828125,0.0,15.2750635,,1682241292000,0.3939543,,47155376769222,6.0
Fix,GPS,12.9859922600,80.2373229300,-57.751251220703125,0.0,14.569608,,1682241293000,0.3757659,,47156376769222,6.0
Fix,GPS,12.9859924400,80.2373229500,-57.753875732421875,0.0,13.729743,,1682241294000,0.25,,47157376769222,6.0
Fix,GPS,12.9859924300,80.2373229800,-57.7891845703125,0.0,13.729822,,1682241295000,0.2780288,,47158376769222,6.0
Fix,GPS,12.9859925600,80.2373230200,-57.80865478515625,0.0,13.720439,,1682241296000,0.29206163,,47159376769222,6.0
Fix,GPS,12.9859925500,80.2373230400,-57.809906005859375,0.0,13.889284,,1682241297000,0.25553864,,47160376769222,6.0
Fix,GPS,12.9859925500,80.2373230400,-57.8145751953125,0.0,14.256955,,1682241298000,0.30413812,,47161376769222,8.0
Fix,GPS,12.9859925900,80.2373230600,-57.8209228515625,0.0,14.576206,,1682241299000,0.3667424,,47162376769222,8.0
Fix,GPS,12.9859925600,80.2373230500,-57.8221435546875,0.0,14.4675,,1682241300000,0.30413812,,47163376769222,8.0
Fix,GPS,12.9859926100,80.2373230500,-57.840850830078125,0.0,14.31763,,1682241301000,0.25553864,,47164376769222,8.0
Fix,GPS,12.9859926000,80.2373230500,-57.840087890625,0.0,14.428764,,1682241302000,0.24596748,,47165376769222,8.0
Fix,GPS,12.9859925900,80.2373230600,-57.83685302734375,0.0,14.439217,,1682241303000,0.32202485,,47166376769222,8.0
Fix,GPS,12.9859926800,80.2373230300,-57.84478759765625,0.0,14.264311,,1682241304000,0.23706539,,47167376769222,8.0
Fix,GPS,12.9859926800,80.2373230200,-57.84478759765625,0.0,14.552847,,1682241305000,0.25495097,,47168376769222,8.0
Fix,GPS,12.9859926800,80.2373230200,-57.846221923828125,0.0,14.967854,,1682241306000,0.28635642,,47169376769222,8.0
Fix,GPS,12.9859926800,80.2373230200,-57.8475341796875,0.0,15.48704,,1682241307000,0.3138471,,47170376769222,8.0
Fix,GPS,12.9859926800,80.2373230100,-57.849639892578125,0.0,16.211742,,1682241308000,0.32893768,,47171376769222,8.0
Fix,GPS,12.9859926800,80.2373229900,-57.852203369140625,0.0,17.824594,,1682241309000,0.39217344,,47172376769222,8.0
Fix,GPS,12.9859926800,80.2373229800,-57.85150146484375,0.0,19.235489,,1682241310000,0.3827532,,47173376769222,8.0
Fix,GPS,12.9859927700,80.2373229200,-57.8511962890625,0.0,20.435648,,1682241311000,0.4554119,,47174376769222,8.0
Fix,GPS,12.9859927800,80.2373229100,-57.844482421875,0.0,19.036646,,1682241312000,0.38078865,,47175376769222,8.0
Fix,GPS,12.9859928600,80.2373229000,-57.852386474609375,0.0,19.986238,,1682241313000,0.3992493,,47176376769222,8.0
Fix,GPS,12.9859927700,80.2373228700,-57.849395751953125,0.0,21.521564,,1682241314000,0.40853396,,47177376769222,8.0
Fix,GPS,12.9859926100,80.2373228300,-57.845703125,0.0,23.237831,,1682241315000,0.39,,47178376769222,8.0
Fix,GPS,12.9859925800,80.2373228400,-57.840545654296875,0.0,21.759602,,1682241316000,0.3992493,,47179376769222,8.0
Fix,GPS,12.9859925800,80.2373228400,-57.83349609375,0.0,21.16654,,1682241317000,0.4272002,,47180376769222,8.0
Fix,GPS,12.9859924900,80.2373228100,-57.83050537109375,0.0,22.565056,,1682241318000,0.4554119,,47181376769222,8.0
Fix,GPS,12.9859925400,80.2373228300,-57.840362548828125,0.0,23.599636,,1682241319000,0.4272002,,47182376769222,8.0
Fix,GPS,12.9859925500,80.2373228000,-57.84075927734375,0.0,21.949852,,1682241320000,0.40853396,,47183376769222,8.0
Fix,GPS,12.9859925500,80.2373227500,-57.85296630859375,0.0,21.278875,,1682241321000,0.31780496,,47184376769222,8.0
Fix,GPS,12.9859926000,80.2373226600,-57.8876953125,0.0,21.785425,,1682241322000,0.35341194,,47185376769222,8.0
Fix,GPS,12.9859926400,80.2373225600,-57.9244384765625,0.0,22.377602,,1682241323000,0.3354102,,47186376769222,8.0
Fix,GPS,12.9859927900,80.2373225100,-57.940826416015625,0.0,22.001135,,1682241324000,0.36249137,,47187376769222,8.0
Fix,GPS,12.9859929600,80.2373224400,-57.95977783203125,0.0,23.983276,,1682241325000,0.55036354,,47188376769222,8.0
Fix,GPS,12.9859930500,80.2373224200,-57.970794677734375,0.0,23.176937,,1682241326000,0.58694124,,47189376769222,8.0
Fix,GPS,12.9859930400,80.2373224000,-57.97552490234375,0.0,23.723295,,1682241327000,0.59615433,,47190376769222,8.0
Fix,GPS,12.9859930500,80.2373224000,-57.968658447265625,0.0,26.121687,,1682241328000,0.38078865,,47191376769222,8.0
Fix,GPS,12.9859929600,80.2373223400,-57.99053955078125,0.0,24.591028,,1682241329000,0.33615473,,47192376769222,8.0
Fix,GPS,12.9859929600,80.2373223000,-58.00250244140625,0.0,24.355658,,1682241330000,0.52,,47193376769222,8.0
Fix,GPS,12.9859929100,80.2373222900,-57.99334716796875,0.0,25.630816,,1682241331000,0.31780496,,47194376769222,8.0
Fix,GPS,12.9859929200,80.2373222900,-57.986480712890625,0.0,28.02297,,1682241332000,0.3453983,,47195376769222,8.0
Fix,GPS,12.9859929100,80.2373222900,-57.979949951171875,0.0,30.734928,,1682241333000,0.4272002,,47196376769222,8.0
Fix,GPS,12.9859929200,80.2373223000,-57.98187255859375,0.0,31.359718,,1682241334000,0.4554119,,47197376769222,8.0
Fix,GPS,12.9859929300,80.2373223000,-57.981964111328125,0.0,32.774784,,1682241335000,0.48383883,,47198376769222,8.0
Fix,GPS,12.9859929700,80.2373222900,-57.983306884765625,0.0,34.171844,,1682241336000,0.5124451,,47199376769222,8.0
Fix,GPS,12.9859930100,80.2373222800,-57.990631103515625,0.0,33.62152,,1682241337000,0.53160137,,47200376769222,8.0
Fix,GPS,12.9859930700,80.2373222600,-57.976531982421875,0.0,40.256557,,1682241338000,0.56044626,,47201376769222,8.0
Fix,GPS,12.9859930700,80.2373222600,-57.97259521484375,0.0,44.362713,,1682241339000,0.5894065,,47202376769222,8.0
Fix,GPS,12.9859930700,80.2373222600,-57.974700927734375,0.0,43.1554,,1682241340000,0.490408,,47203376769222,8.0
Fix,GPS,12.9859930900,80.2373222600,-57.97113037109375,0.0,47.31141,,1682241341000,0.5096077,,47204376769222,8.0
Fix,GPS,12.9859931300,80.2373222500,-57.9664306640625,0.0,45.919144,,1682241342000,0.4588028,,47205376769222,8.0
Fix,GPS,12.9859931800,80.2373222300,-57.9703369140625,0.0,44.21866,,1682241343000,0.50289166,,47206376769222,8.0
Fix,GPS,12.9859932000,80.2373222200,-57.978973388671875,0.0,42.391052,,1682241344000,0.52201533,,47207376769222,8.0
Fix,GPS,12.9859932400,80.2373222100,-57.99554443359375,0.0,37.7138,,1682241345000,0.46173584,,47208376769222,8.0
Fix,GPS,12.9859932600,80.2373221800,-58.016937255859375,0.0,30.449041,,1682241346000,0.44598207,,47209376769222,8.0
Fix,GPS,12.9859932500,80.2373221100,-58.024383544921875,0.0,28.37844,,1682241347000,0.58694124,,47210376769222,8.0
Fix,GPS,12.9859933300,80.2373220500,-58.032379150390625,0.0,26.9938,,1682241348000,0.5830952,,47211376769222,8.0
Fix,GPS,12.9859933700,80.2373220100,-58.018829345703125,0.0,27.89561,,1682241349000,0.5923681,,47212376769222,8.0
Fix,GPS,12.9859933700,80.2373219900,-58.010528564453125,0.0,28.59288,,1682241350000,0.6332456,,47213376769222,8.0
Fix,GPS,12.9859933600,80.2373219600,-58.006500244140625,0.0,26.70555,,1682241351000,0.59615433,,47214376769222,8.0
Fix,GPS,12.9859934000,80.2373219200,-58.00189208984375,0.0,27.29243,,1682241352000,0.60166436,,47215376769222,8.0
Fix,GPS,12.9859933200,80.2373218900,-57.986175537109375,0.0,28.89944,,1682241353000,0.65192026,,47216376769222,8.0
Fix,GPS,12.9859933200,80.2373218600,-57.984375,0.0,27.825548,,1682241354000,0.6894926,,47217376769222,8.0
Fix,GPS,12.9859932900,80.2373218500,-57.9765625,0.0,28.148813,,1682241355000,0.6229767,,47218376769222,8.0
Fix,GPS,12.9859932800,80.2373218300,-57.9686279296875,0.0,29.264275,,1682241356000,0.64195013,,47219376769222,8.0
Fix,GPS,12.9859933300,80.2373218100,-57.96710205078125,0.0,29.416958,,1682241357000,0.6229767,,47220376769222,8.0
Fix,GPS,12.9859933400,80.2373217900,-57.969757080078125,0.0,28.409529,,1682241358000,0.59464276,,47221376769222,8.0
Fix,GPS,12.9859932800,80.2373217700,-57.9669189453125,0.0,27.891865,,1682241359000,0.6135145,,47222376769222,8.0
Fix,GPS,12.9859933300,80.2373217800,-57.959686279296875,0.0,31.139927,,1682241360000,0.4016217,,47223376769222,8.0
Fix,GPS,12.9859933200,80.2373217500,-57.95062255859375,0.0,31.968712,,1682241361000,0.4016217,,47224376769222,8.0
Fix,GPS,12.9859932700,80.2373217200,-57.944122314453125,0.0,32.052776,,1682241362000,0.3383785,,47225376769222,8.0
Fix,GPS,12.9859932700,80.2373217000,-57.938568115234375,0.0,32.840237,,1682241363000,0.4016217,,47226376769222,8.0
Fix,GPS,12.9859933100,80.2373217000,-57.93829345703125,0.0,33.58609,,1682241364000,0.4110961,,47227376769222,8.0
Fix,GPS,12.9859933100,80.2373216700,-57.93310546875,0.0,34.65386,,1682241365000,0.4110961,,47228376769222,8.0
Fix,GPS,12.9859934000,80.2373216800,-57.930084228515625,0.0,36.455025,,1682241366000,0.43324357,,47229376769222,8.0
Fix,GPS,12.9859932800,80.2373216200,-57.933319091796875,0.0,35.118763,,1682241367000,0.45221677,,47230376769222,8.0
Fix,GPS,12.9859932800,80.2373215800,-57.935791015625,0.0,33.97324,,1682241368000,0.46173584,,47231376769222,8.0
Fix,GPS,12.9859933500,80.2373215800,-57.93231201171875,0.0,36.8516,,1682241369000,0.4808326,,47232376769222,8.0
Fix,GPS,12.9859933400,80.2373215600,-57.930084228515625,0.0,34.888668,,1682241370000,0.490408,,47233376769222,8.0
Fix,GPS,12.9859933300,80.2373215300,-57.927520751953125,0.0,34.49889,,1682241371000,0.5,,47234376769222,8.0
Fix,GPS,12.9859932700,80.2373215000,-57.922821044921875,0.0,32.50049,,1682241372000,0.5,,47235376769222,8.0
Fix,GPS,12.9859932200,80.2373214300,-57.914276123046875,0.0,34.57439,,1682241373000,0.5192302,,47236376769222,8.0
Fix,GPS,12.9859931700,80.2373214200,-57.90704345703125,0.0,32.518745,,1682241374000,0.47434166,,47237376769222,8.0
Fix,GPS,12.9859933100,80.2373214600,-57.90826416015625,0.0,31.937366,,1682241375000,0.36249137,,47238376769222,8.0
Fix,GPS,12.9859932000,80.2373214500,-57.896453857421875,0.0,30.80736,,1682241376000,0.3088689,,47239376769222,8.0
Fix,GPS,12.9859930600,80.2373214000,-57.89617919921875,0.0,28.48187,,1682241377000,0.2385372,,47240376769222,8.0
Fix,GPS,12.9859929200,80.2373212800,-57.919403076171875,0.0,28.007734,,1682241378000,0.24698178,,47241376769222,8.0
Fix,GPS,12.9859928400,80.2373212600,-57.924285888671875,0.0,24.71815,,1682241379000,0.16643317,,47242376769222,8.0
Fix,GPS,12.9859928900,80.2373212400,-57.932403564453125,0.0,22.467165,,1682241380000,0.2385372,,47243376769222,8.0
Fix,GPS,12.9859930500,80.2373213000,-57.939422607421875,0.0,21.681913,,1682241381000,0.15811388,,47244376769222,8.0
Fix,GPS,12.9859930800,80.2373213100,-57.93841552734375,0.0,22.211582,,1682241382000,0.25553864,,47245376769222,8.0
Fix,GPS,12.9859930600,80.2373212800,-57.953948974609375,0.0,19.60828,,1682241383000,0.24698178,,47246376769222,8.0
Fix,GPS,12.9859929100,80.2373212200,-57.95751953125,0.0,18.871067,,1682241384000,0.16643317,,47247376769222,8.0
Fix,GPS,12.9859929200,80.2373212100,-57.957855224609375,0.0,19.158886,,1682241385000,0.1835756,,47248376769222,8.0
Fix,GPS,12.9859929000,80.2373212000,-57.956817626953125,0.0,19.450218,,1682241386000,0.24596748,,47249376769222,8.0
Fix,GPS,12.9859928300,80.2373211700,-57.967041015625,0.0,17.498781,,1682241387000,0.2729469,,47250376769222,8.0
Fix,GPS,12.9859928000,80.2373211700,-57.966888427734375,0.0,16.570501,,1682241388000,0.23706539,,47251376769222,8.0
Fix,GPS,12.9859927400,80.2373211900,-57.9561767578125,0.0,16.70254,,1682241389000,0.25495097,,47252376769222,8.0
Fix,GPS,12.9859927600,80.2373211800,-57.96490478515625,0.0,15.92829,,1682241390000,0.27313,,47253376769222,8.0
Fix,GPS,12.9859928200,80.2373211700,-57.9766845703125,0.0,15.471089,,1682241391000,0.2996665,,47254376769222,8.0
Fix,GPS,12.9859927700,80.2373211900,-57.968414306640625,0.0,15.29164,,1682241392000,0.3176476,,47255376769222,8.0
Fix,GPS,12.9859927900,80.2373211700,-57.981292724609375,0.0,15.441694,,1682241393000,0.3176476,,47256376769222,8.0
Fix,GPS,12.9859928100,80.2373211500,-57.9827880859375,0.0,15.517612,,1682241394000,0.3354102,,47257376769222,8.0
Fix,GPS,12.9859928300,80.2373211700,-57.98095703125,0.0,15.664025,,1682241395000,0.3354102,,47258376769222,8.0
Fix,GPS,12.9859928000,80.2373211800,-57.983367919921875,0.0,15.32491,,1682241396000,0.2641969,,47259376769222,8.0
Fix,GPS,12.9859926100,80.2373211400,-57.97021484375,0.0,15.185105,,1682241397000,0.2729469,,47260376769222,8.0
Fix,GPS,12.9859927200,80.2373211400,-58.0050048828125,0.0,14.727201,,1682241398000,0.29068884,,47261376769222,8.0
Fix,GPS,12.9859927000,80.2373211400,-58.00799560546875,0.0,14.40931,,1682241399000,0.30870697,,47262376769222,8.0
Fix,GPS,12.9859927000,80.2373211400,-58.010040283203125,0.0,14.291356,,1682241400000,0.26400757,,47263376769222,6.0
Fix,GPS,12.9859927000,80.2373211400,-58.0098876953125,0.0,14.429242,,1682241401000,0.35468295,,47264376769222,6.0
Fix,GPS,12.9859927500,80.2373211500,-58.0118408203125,0.0,14.938313,,1682241402000,0.33615473,,47265376769222,8.0
Fix,GPS,12.9859927300,80.2373211500,-58.00244140625,0.0,15.764257,,1682241403000,0.41785166,,47266376769222,8.0
Fix,GPS,12.9859927200,80.2373211500,-57.995849609375,0.0,17.11543,,1682241404000,0.44598207,,47267376769222,8.0
Fix,GPS,12.9859926600,80.2373211300,-57.981689453125,0.0,19.261726,,1682241405000,0.4554119,,47268376769222,8.0
Fix,GPS,12.9859925000,80.2373210900,-57.96240234375,0.0,20.697659,,1682241406000,0.39,,47269376769222,8.0
Fix,GPS,12.9859923600,80.2373210600,-57.95098876953125,0.0,21.471079,,1682241407000,0.55036354,,47270376769222,8.0
Fix,GPS,12.9859923500,80.2373210600,-57.94964599609375,0.0,22.570305,,1682241408000,0.3716181,,47271376769222,8.0
Fix,GPS,12.9859923600,80.2373210600,-57.949951171875,0.0,22.499884,,1682241409000,0.38078865,,47272376769222,8.0
Fix,GPS,12.9859925100,80.2373210800,-57.94873046875,0.0,25.425453,,1682241410000,0.3443835,,47273376769222,8.0
Fix,GPS,12.9859925000,80.2373210800,-57.94476318359375,0.0,24.690699,,1682241411000,0.3354102,,47274376769222,8.0
Fix,GPS,12.9859924800,80.2373210600,-57.953521728515625,0.0,22.923763,,1682241412000,0.35341194,,47275376769222,8.0
Fix,GPS,12.9859925000,80.2373210600,-57.952178955078125,0.0,22.858986,,1682241413000,0.39,,47276376769222,8.0
Fix,GPS,12.9859925700,80.2373210800,-57.95379638671875,0.0,23.448645,,1682241414000,0.38078865,,47277376769222,8.0
Fix,GPS,12.9859925800,80.2373210800,-57.959991455078125,0.0,21.551565,,1682241415000,0.38078865,,47278376769222,8.0
Fix,GPS,12.9859925700,80.2373210900,-57.96160888671875,0.0,19.710997,,1682241416000,0.38078865,,47279376769222,8.0
Fix,GPS,12.9859925300,80.2373210800,-57.96136474609375,0.0,19.26068,,1682241417000,0.3453983,,47280376769222,8.0
Fix,GPS,12.9859925600,80.2373210800,-57.95867919921875,0.0,19.959282,,1682241418000,0.3640055,,47281376769222,8.0
Fix,GPS,12.9859925800,80.2373210900,-57.95989990234375,0.0,20.041063,,1682241419000,0.3733631,,47282376769222,8.0
Fix,GPS,12.9859925500,80.2373210800,-57.953338623046875,0.0,21.079655,,1682241420000,0.3827532,,47283376769222,8.0
Fix,GPS,12.9859924700,80.2373210600,-57.942626953125,0.0,24.919527,,1682241421000,0.3956008,,47284376769222,8.0
Fix,GPS,12.9859924100,80.2373210500,-57.930633544921875,0.0,32.991055,,1682241422000,0.414367,,47285376769222,8.0
Fix,GPS,12.9859922900,80.2373210200,-57.92144775390625,0.0,42.20378,,1682241423000,0.34785053,,47286376769222,8.0
Fix,GPS,12.9859923000,80.2373210300,-57.920623779296875,0.0,45.871048,,1682241424000,0.44271886,,47287376769222,8.0
Fix,GPS,12.9859922300,80.2373210100,-57.918212890625,0.0,50.485256,,1682241425000,0.46173584,,47288376769222,8.0
Fix,GPS,12.9860042000,80.2373836200,-58.166900634765625,0.0,22.82688,,1682241432000,0.40496913,,47295376769222,12.0
Fix,GPS,12.9860030300,80.2374043100,-58.1578369140625,0.0,22.230263,,1682241433000,0.4554119,,47296376769222,12.0
Fix,GPS,12.9860030200,80.2374043100,-58.11041259765625,0.0,28.524523,,1682241434000,0.48383883,,47297376769222,12.0
Fix,GPS,12.9860030200,80.2374043000,-58.0755615234375,0.0,36.505283,,1682241435000,0.49335584,,47298376769222,12.0
Fix,GPS,12.9860030800,80.2374043200,-58.049713134765625,0.0,45.31312,,1682241436000,0.48383883,,47299376769222,12.0
Fix,GPS,12.9860060800,80.2374360800,-58.245086669921875,0.0,42.906807,,1682241448000,0.26400757,,47311376769222,12.0
Fix,GPS,12.9860060900,80.2374360800,-58.3741455078125,0.0,37.88375,,1682241449000,0.34928498,,47312376769222,12.0
Fix,GPS,12.9860060600,80.2374360700,-58.38238525390625,0.0,39.63482,,1682241450000,0.37696153,,47313376769222,12.0
Fix,GPS,12.9860060800,80.2374360700,-58.478912353515625,0.0,38.154514,,1682241451000,0.41785166,,47314376769222,12.0
Fix,GPS,12.9860060900,80.2374360700,-58.697906494140625,0.0,32.37762,,1682241452000,0.39,,47315376769222,8.0
Fix,GPS,12.9860061200,80.2374360700,-58.99676513671875,0.0,27.688055,,1682241453000,0.41785166,,47316376769222,8.0
Fix,GPS,12.9860061300,80.2374360700,-59.357421875,0.0,22.147196,,1682241454000,0.2996665,,47317376769222,8.0
Fix,GPS,12.9860061200,80.2374360700,-59.8089599609375,0.0,18.88488,,1682241455000,0.32695565,,47318376769222,8.0
Fix,GPS,12.9860060800,80.2374360700,-60.05706787109375,0.0,16.526184,,1682241456000,0.22825424,,47319376769222,8.0
Fix,GPS,12.9860060400,80.2374360600,-60.27386474609375,0.0,15.660383,,1682241457000,0.2641969,,47320376769222,8.0
Fix,GPS,12.9860059900,80.2374360600,-60.244171142578125,0.0,15.589303,,1682241458000,0.3001666,,47321376769222,8.0
Fix,GPS,12.9860059900,80.2374360600,-60.601104736328125,0.0,15.04899,,1682241459000,0.3176476,,47322376769222,8.0
Fix,GPS,12.9860059300,80.2374360500,-60.943115234375,0.0,14.836078,,1682241460000,0.3623534,,47323376769222,8.0
Fix,GPS,12.9860058700,80.2374360300,-60.83074951171875,0.0,14.879621,,1682241461000,0.32756677,,47324376769222,8.0
Fix,GPS,12.9860058800,80.2374360100,-60.5203857421875,0.0,15.535021,,1682241462000,0.33286634,,47325376769222,8.0
Fix,GPS,12.9860058900,80.2374360100,-60.2564697265625,0.0,16.454922,,1682241463000,0.3847077,,47326376769222,8.0
Fix,GPS,12.9860058700,80.2374360100,-60.076080322265625,0.0,17.37211,,1682241464000,0.3354102,,47327376769222,8.0
Fix,GPS,12.9860058000,80.2374360100,-60.180145263671875,0.0,16.360788,,1682241465000,0.2641969,,47328376769222,8.0
Fix,GPS,12.9860057100,80.2374360000,-60.276947021484375,0.0,15.794372,,1682241466000,0.22203603,,47329376769222,8.0
Fix,GPS,12.9860057100,80.2374360000,-60.37652587890625,0.0,15.450858,,1682241467000,0.21400934,,47330376769222,8.0
Fix,GPS,12.9860057300,80.2374360000,-60.41290283203125,0.0,15.322233,,1682241468000,0.21400934,,47331376769222,8.0
Fix,GPS,12.9860057300,80.2374359800,-60.504180908203125,0.0,15.132631,,1682241469000,0.21400934,,47332376769222,8.0
Fix,GPS,12.9860057600,80.2374359800,-60.40374755859375,0.0,15.352727,,1682241470000,0.2385372,,47333376769222,8.0
Fix,GPS,12.9860057100,80.2374359700,-60.57177734375,0.0,14.99994,,1682241471000,0.2385372,,47334376769222,8.0
Fix,GPS,12.9860056800,80.2374359600,-60.6396484375,0.0,14.787838,,1682241472000,0.22203603,,47335376769222,8.0
Fix,GPS,12.9860056400,80.2374359500,-60.865234375,0.0,14.356797,,1682241473000,0.22203603,,47336376769222,8.0
Fix,GPS,12.9860056500,80.2374359500,-60.633331298828125,0.0,14.68813,,1682241474000,0.15811388,,47337376769222,8.0
Fix,GPS,12.9860056300,80.2374359600,-60.673675537109375,0.0,14.541891,,1682241475000,0.22203603,,47338376769222,8.0
Fix,GPS,12.9860055900,80.2374359600,-60.72430419921875,0.0,14.430891,,1682241476000,0.15811388,,47339376769222,8.0
Fix,GPS,12.9860055700,80.2374359500,-60.692474365234375,0.0,14.534307,,1682241477000,0.16643317,,47340376769222,8.0
Fix,GPS,12.9860055500,80.2374359500,-60.894744873046875,0.0,14.231472,,1682241478000,0.24698178,,47341376769222,8.0
Fix,GPS,12.9860055400,80.2374359500,-60.861175537109375,0.0,14.287632,,1682241479000,0.2385372,,47342376769222,8.0
Fix,GPS,12.9860055400,80.2374359500,-60.8631591796875,0.0,14.394923,,1682241480000,0.3847077,,47343376769222,8.0
Fix,GPS,12.9860055200,80.2374359400,-60.864959716796875,0.0,14.46788,,1682241481000,0.5948109,,47344376769222,8.0
Fix,GPS,12.9860054800,80.2374359300,-60.7144775390625,0.0,14.669578,,1682241482000,0.5247857,,47345376769222,8.0
Fix,GPS,12.9860054900,80.2374359200,-60.633758544921875,0.0,14.844556,,1682241483000,0.5333854,,47346376769222,8.0
Fix,GPS,12.9860054900,80.2374359200,-60.55633544921875,0.0,15.182637,,1682241484000,0.52325904,,47347376769222,8.0
Fix,GPS,12.9860054900,80.2374359200,-60.729339599609375,0.0,15.073411,,1682241485000,0.49244288,,47348376769222,8.0
Fix,GPS,12.9860054700,80.2374359300,-60.8861083984375,0.0,14.825829,,1682241486000,0.4472136,,47349376769222,8.0
Fix,GPS,12.9860054400,80.2374359100,-60.834442138671875,0.0,14.832581,,1682241487000,0.43908995,,47350376769222,8.0
Fix,GPS,12.9860054500,80.2374359100,-60.69659423828125,0.0,15.038523,,1682241488000,0.33286634,,47351376769222,8.0
Fix,GPS,12.9860053600,80.2374358900,-60.154144287109375,0.0,16.469353,,1682241489000,0.49396357,,47352376769222,8.0
Fix,GPS,12.9860053600,80.2374358900,-59.76824951171875,0.0,18.800266,,1682241490000,0.34132096,,47353376769222,8.0
Fix,GPS,12.9860053700,80.2374358900,-59.64813232421875,0.0,19.885206,,1682241491000,0.3847077,,47354376769222,8.0
Fix,GPS,12.9860054100,80.2374358900,-59.511962890625,0.0,21.401152,,1682241492000,0.32649654,,47355376769222,8.0
Fix,GPS,12.9860054100,80.2374358800,-59.6365966796875,0.0,21.097452,,1682241493000,0.36249137,,47356376769222,8.0
Fix,GPS,12.9860054000,80.2374358700,-59.814056396484375,0.0,20.164976,,1682241494000,0.3443835,,47357376769222,8.0
Fix,GPS,12.9860054400,80.2374358600,-59.820831298828125,0.0,20.012169,,1682241495000,0.28178006,,47358376769222,8.0
Fix,GPS,12.9860054300,80.2374358700,-59.919708251953125,0.0,19.196089,,1682241496000,0.21954498,,47359376769222,8.0
Fix,GPS,12.9860054500,80.2374358600,-60.274017333984375,0.0,17.003023,,1682241497000,0.2385372,,47360376769222,8.0
Fix,GPS,12.9860054500,80.2374358600,-60.596649169921875,0.0,15.699272,,1682241498000,0.36891735,,47361376769222,8.0
Fix,GPS,12.9860054700,80.2374358600,-60.60943603515625,0.0,15.542968,,1682241499000,0.36891735,,47362376769222,8.0
Fix,GPS,12.9860054600,80.2374358600,-60.651397705078125,0.0,15.454788,,1682241500000,0.2641969,,47363376769222,8.0
Fix,GPS,12.9860054500,80.2374358600,-60.983154296875,0.0,14.836665,,1682241501000,0.37735924,,47364376769222,8.0
Fix,GPS,12.9860054600,80.2374358400,-61.40667724609375,0.0,14.229229,,1682241502000,0.39446166,,47365376769222,8.0
Fix,GPS,12.9860054500,80.2374358400,-61.527862548828125,0.0,14.149391,,1682241503000,0.4294182,,47366376769222,8.0
Fix,GPS,12.9860054900,80.2374358500,-61.18438720703125,0.0,14.759273,,1682241504000,0.50537115,,47367376769222,8.0
Fix,GPS,12.9860055100,80.2374358500,-61.09130859375,0.0,15.091752,,1682241505000,0.53712195,,47368376769222,8.0
Fix,GPS,12.9860055000,80.2374358400,-61.3055419921875,0.0,14.964028,,1682241506000,0.56859475,,47369376769222,8.0
Fix,GPS,12.9860055100,80.2374358400,-61.2947998046875,0.0,15.3028965,,1682241507000,0.6239391,,47370376769222,8.0
Fix,GPS,12.9860055100,80.2374358400,-61.3525390625,0.0,15.361886,,1682241508000,0.5292447,,47371376769222,8.0
Fix,GPS,12.9860055000,80.2374358400,-61.2415771484375,0.0,15.960535,,1682241509000,0.5758472,,47372376769222,8.0
Fix,GPS,12.9860054900,80.2374358400,-61.313995361328125,0.0,15.974751,,1682241510000,0.46238512,,47373376769222,8.0
Fix,GPS,12.9860055200,80.2374358400,-60.961395263671875,0.0,16.495008,,1682241511000,0.4561798,,47374376769222,8.0
Fix,GPS,12.9860054900,80.2374358400,-60.78314208984375,0.0,16.455667,,1682241512000,0.43908995,,47375376769222,8.0
Fix,GPS,12.9860055000,80.2374358300,-60.48272705078125,0.0,17.321669,,1682241513000,0.36891735,,47376376769222,8.0
Fix,GPS,12.9860055000,80.2374358300,-60.501983642578125,0.0,17.001694,,1682241514000,0.24698178,,47377376769222,8.0
Fix,GPS,12.9860054900,80.2374358400,-60.353363037109375,0.0,17.608797,,1682241515000,0.24698178,,47378376769222,8.0
Fix,GPS,12.9860055000,80.2374358400,-60.065032958984375,0.0,19.26225,,1682241516000,0.2641969,,47379376769222,8.0
Fix,GPS,12.9860055100,80.2374358400,-59.829833984375,0.0,20.471159,,1682241517000,0.2641969,,47380376769222,8.0
Fix,GPS,12.9860055000,80.2374358300,-59.83197021484375,0.0,20.30543,,1682241518000,0.3635932,,47381376769222,8.0
Fix,GPS,12.9860055000,80.2374358200,-59.9114990234375,0.0,19.62107,,1682241519000,0.16643317,,47382376769222,8.0
Fix,GPS,12.9860055000,80.2374358200,-60.034942626953125,0.0,18.881306,,1682241520000,0.17492856,,47383376769222,8.0
Fix,GPS,12.9860054600,80.2374358200,-60.21539306640625,0.0,17.652992,,1682241521000,0.24698178,,47384376769222,8.0
Fix,GPS,12.9860054100,80.2374358200,-60.259033203125,0.0,17.313253,,1682241522000,0.2385372,,47385376769222,8.0
Fix,GPS,12.9860054000,80.2374358200,-60.2950439453125,0.0,17.056135,,1682241523000,0.15811388,,47386376769222,8.0
Fix,GPS,12.9860054500,80.2374358200,-60.1798095703125,0.0,17.56658,,1682241524000,0.22472206,,47387376769222,8.0
Fix,GPS,12.9860054900,80.2374358200,-60.056793212890625,0.0,18.185993,,1682241525000,0.2385372,,47388376769222,8.0
Fix,GPS,12.9860054300,80.2374358100,-59.890106201171875,0.0,19.015537,,1682241526000,0.24698178,,47389376769222,8.0
Fix,GPS,12.9860054100,80.2374358200,-59.843017578125,0.0,19.228836,,1682241527000,0.2385372,,47390376769222,8.0
Fix,GPS,12.9860054600,80.2374358300,-59.5400390625,0.0,21.25018,,1682241528000,0.15811388,,47391376769222,8.0
Fix,GPS,12.9860054300,80.2374358200,-59.503448486328125,0.0,21.516508,,1682241529000,0.15811388,,47392376769222,8.0
Fix,GPS,12.9860054200,80.2374358100,-59.620330810546875,0.0,20.599707,,1682241530000,0.2385372,,47393376769222,8.0
Fix,GPS,12.9860054200,80.2374358000,-59.583984375,0.0,20.861843,,1682241531000,0.24698178,,47394376769222,8.0
Fix,GPS,12.9860053800,80.2374357900,-59.56976318359375,0.0,20.928053,,1682241532000,0.16643317,,47395376769222,8.0
Fix,GPS,12.9860053800,80.2374357900,-59.675567626953125,0.0,20.144918,,1682241533000,0.16643317,,47396376769222,8.0
Fix,GPS,12.9860052900,80.2374357800,-59.93182373046875,0.0,18.315107,,1682241534000,0.2385372,,47397376769222,8.0
Fix,GPS,12.9860053200,80.2374357800,-60.255340576171875,0.0,16.625034,,1682241535000,0.2385372,,47398376769222,8.0
Fix,GPS,12.9860053100,80.2374357800,-60.844879150390625,0.0,15.148625,,1682241536000,0.25553864,,47399376769222,8.0
Fix,GPS,12.9860053400,80.2374357900,-60.82818603515625,0.0,15.323107,,1682241537000,0.4294182,,47400376769222,8.0
Fix,GPS,12.9860053600,80.2374357900,-61.2974853515625,0.0,14.600184,,1682241538000,0.43829215,,47401376769222,8.0
Fix,GPS,12.9860054200,80.2374357900,-60.934844970703125,0.0,15.31178,,1682241539000,0.32649654,,47402376769222,8.0
Fix,GPS,12.9860054500,80.2374357800,-60.682464599609375,0.0,15.802757,,1682241540000,0.2641969,,47403376769222,8.0
Fix,GPS,12.9860054900,80.2374357800,-60.716033935546875,0.0,15.842716,,1682241541000,0.2729469,,47404376769222,8.0
Fix,GPS,12.9860054500,80.2374357900,-60.673370361328125,0.0,15.996987,,1682241542000,0.3847077,,47405376769222,8.0
Fix,GPS,12.9860054500,80.2374357800,-60.6563720703125,0.0,16.120228,,1682241543000,0.3176476,,47406376769222,8.0
Fix,GPS,12.9860054500,80.2374357800,-60.58941650390625,0.0,16.843811,,1682241544000,0.35341194,,47407376769222,8.0
Fix,GPS,12.9860054500,80.2374357700,-60.456298828125,0.0,17.684395,,1682241545000,0.3443835,,47408376769222,8.0
Fix,GPS,12.9860053900,80.2374357700,-60.558624267578125,0.0,17.094835,,1682241546000,0.3176476,,47409376769222,8.0
Fix,GPS,12.9860053800,80.2374357600,-60.6951904296875,0.0,16.594278,,1682241547000,0.3176476,,47410376769222,8.0
Fix,GPS,12.9860054000,80.2374357500,-60.68597412109375,0.0,17.122833,,1682241548000,0.31304953,,47411376769222,8.0
Fix,GPS,12.9860054000,80.2374357500,-60.667694091796875,0.0,17.860096,,1682241549000,0.34928498,,47412376769222,8.0
Fix,GPS,12.9860053900,80.2374357500,-60.626007080078125,0.0,18.896793,,1682241550000,0.37696153,,47413376769222,8.0
Fix,GPS,12.9860053600,80.2374357500,-60.44488525390625,0.0,20.69854,,1682241551000,0.44598207,,47414376769222,8.0
Fix,GPS,12.9860053500,80.2374357400,-60.54205322265625,0.0,20.916222,,1682241552000,0.3827532,,47415376769222,8.0
Fix,GPS,12.9860053500,80.2374357400,-60.309326171875,0.0,23.547457,,1682241553000,0.34176016,,47416376769222,8.0
Fix,GPS,12.9860053600,80.2374357400,-60.121490478515625,0.0,26.014086,,1682241554000,0.34785053,,47417376769222,8.0
Fix,GPS,12.9860053500,80.2374357300,-59.988616943359375,0.0,27.720478,,1682241555000,0.48383883,,47418376769222,8.0
Fix,GPS,12.9860053900,80.2374357300,-59.86248779296875,0.0,28.470959,,1682241556000,0.4554119,,47419376769222,8.0
Fix,GPS,12.9860054300,80.2374357300,-59.9176025390625,0.0,28.457771,,1682241557000,0.48383883,,47420376769222,8.0
Fix,GPS,12.9860053800,80.2374357100,-60.02679443359375,0.0,27.003426,,1682241558000,0.48383883,,47421376769222,8.0
Fix,GPS,12.9860053900,80.2374357000,-60.074981689453125,0.0,26.767881,,1682241559000,0.49335584,,47422376769222,8.0
Fix,GPS,12.9860053900,80.2374356800,-60.090789794921875,0.0,26.533812,,1682241560000,0.76537573,,47423376769222,8.0
Fix,GPS,12.9860054000,80.2374356700,-60.10467529296875,0.0,25.738731,,1682241561000,0.57775426,,47424376769222,8.0
Fix,GPS,12.9860053800,80.2374356500,-60.498779296875,0.0,22.29439,,1682241562000,0.5008992,,47425376769222,8.0
Fix,GPS,12.9860053400,80.2374356200,-60.270751953125,0.0,22.739191,,1682241563000,0.3224903,,47426376769222,8.0
Fix,GPS,12.9860053900,80.2374356100,-59.9019775390625,0.0,24.124088,,1682241564000,0.30528677,,47427376769222,8.0
Fix,GPS,12.9860054200,80.2374356100,-60.14263916015625,0.0,22.244917,,1682241565000,0.24698178,,47428376769222,8.0
Fix,GPS,12.9860054500,80.2374356000,-60.351409912109375,0.0,20.551466,,1682241566000,0.34669873,,47429376769222,8.0
Fix,GPS,12.9860054700,80.2374356000,-60.670989990234375,0.0,18.735836,,1682241567000,0.34669873,,47430376769222,8.0
Fix,GPS,12.9860054900,80.2374355900,-60.961517333984375,0.0,17.211723,,1682241568000,0.4205948,,47431376769222,8.0
Fix,GPS,12.9860054900,80.2374355800,-61.1878662109375,0.0,16.452454,,1682241569000,0.47423622,,47432376769222,8.0
Fix,GPS,12.9860054700,80.2374355800,-61.14453125,0.0,16.279959,,1682241570000,0.25553864,,47433376769222,8.0
Fix,GPS,12.9860054800,80.2374355800,-60.97357177734375,0.0,16.604843,,1682241571000,0.2302173,,47434376769222,8.0
Fix,GPS,12.9860054400,80.2374355700,-61.09771728515625,0.0,16.12795,,1682241572000,0.15811388,,47435376769222,8.0
Fix,GPS,12.9860054200,80.2374355600,-60.9560546875,0.0,16.791931,,1682241573000,0.25553864,,47436376769222,8.0
Fix,GPS,12.9860053500,80.2374355500,-61.00640869140625,0.0,16.540693,,1682241574000,0.25553864,,47437376769222,8.0
Fix,GPS,12.9860053700,80.2374355400,-61.4930419921875,0.0,15.484212,,1682241575000,0.3635932,,47438376769222,8.0
Fix,GPS,12.9860053900,80.2374355300,-61.66400146484375,0.0,15.246136,,1682241576000,0.4294182,,47439376769222,8.0
Fix,GPS,12.9860053700,80.2374356500,-61.67559814453125,0.0,15.335081,,1682241577000,0.47423622,,47440376769222,8.0
Fix,GPS,12.9860053800,80.2374356500,-61.650604248046875,0.0,15.341771,,1682241578000,0.4205948,,47441376769222,8.0
Fix,GPS,12.9860053700,80.2374356500,-61.65069580078125,0.0,15.408797,,1682241579000,0.34,,47442376769222,8.0
Fix,GPS,12.9860053500,80.2374356400,-61.450469970703125,0.0,15.797334,,1682241580000,0.39824617,,47443376769222,8.0
Fix,GPS,12.9860053600,80.2374356500,-61.483551025390625,0.0,15.746788,,1682241581000,0.35846898,,47444376769222,8.0
Fix,GPS,12.9860053300,80.2374356500,-61.4945068359375,0.0,15.598081,,1682241582000,0.24698178,,47445376769222,8.0
Fix,GPS,12.9860053200,80.2374356500,-61.633148193359375,0.0,15.489264,,1682241583000,0.2729469,,47446376769222,8.0
Fix,GPS,12.9860053300,80.2374356500,-61.424530029296875,0.0,15.899485,,1682241584000,0.28178006,,47447376769222,8.0
Fix,GPS,12.9860053300,80.2374356500,-61.65667724609375,0.0,15.653305,,1682241585000,0.23706539,,47448376769222,8.0
Fix,GPS,12.9860053600,80.2374356400,-61.630035400390625,0.0,15.729417,,1682241586000,0.22825424,,47449376769222,8.0
Fix,GPS,12.9860053300,80.2374356400,-61.339752197265625,0.0,16.044516,,1682241587000,0.16643317,,47450376769222,8.0
Fix,GPS,12.9860053200,80.2374356400,-61.1298828125,0.0,16.894608,,1682241588000,0.25553864,,47451376769222,8.0
Fix,GPS,12.9860053400,80.2374356500,-60.928131103515625,0.0,17.907732,,1682241589000,0.3847077,,47452376769222,8.0
Fix,GPS,12.9860053700,80.2374356400,-60.945831298828125,0.0,17.917309,,1682241590000,0.37589893,,47453376769222,8.0
Fix,GPS,12.9860053600,80.2374356300,-61.06146240234375,0.0,17.30539,,1682241591000,0.25553864,,47454376769222,8.0
Fix,GPS,12.9860054300,80.2374356200,-60.8623046875,0.0,18.284153,,1682241592000,0.25553864,,47455376769222,8.0
Fix,GPS,12.9860054900,80.2374356200,-61.072723388671875,0.0,17.462576,,1682241593000,0.24698178,,47456376769222,8.0
Fix,GPS,12.9860055000,80.2374356200,-61.11907958984375,0.0,17.392319,,1682241594000,0.24698178,,47457376769222,8.0
Fix,GPS,12.9860055300,80.2374356300,-60.850311279296875,0.0,18.581532,,1682241595000,0.17492856,,47458376769222,8.0
Fix,GPS,12.9860055500,80.2374356200,-61.05889892578125,0.0,17.86347,,1682241596000,0.17492856,,47459376769222,8.0
Fix,GPS,12.9860055700,80.2374356300,-61.161590576171875,0.0,17.58624,,1682241597000,0.2641969,,47460376769222,8.0
Fix,GPS,12.9860056100,80.2374356300,-61.29644775390625,0.0,17.15918,,1682241598000,0.35355338,,47461376769222,8.0
Fix,GPS,12.9860055700,80.2374356200,-61.00445556640625,0.0,18.448647,,1682241599000,0.3847077,,47462376769222,8.0
Fix,GPS,12.9860055900,80.2374356200,-61.17822265625,0.0,17.845074,,1682241600000,0.2729469,,47463376769222,8.0
Fix,GPS,12.9860055700,80.2374356200,-61.342620849609375,0.0,17.257607,,1682241601000,0.28178006,,47464376769222,8.0
Fix,GPS,12.9860055500,80.2374356100,-61.278289794921875,0.0,17.75715,,1682241602000,0.29068884,,47465376769222,8.0
Fix,GPS,12.9860055500,80.2374356100,-61.3226318359375,0.0,17.649557,,1682241603000,0.2996665,,47466376769222,8.0
Fix,GPS,12.9860055300,80.2374356100,-61.429168701171875,0.0,17.47225,,1682241604000,0.2996665,,47467376769222,8.0
Fix,GPS,12.9860055300,80.2374356100,-61.48516845703125,0.0,17.432661,,1682241605000,0.2996665,,47468376769222,8.0
Fix,GPS,12.9860056100,80.2374356300,-61.096282958984375,0.0,18.805782,,1682241606000,0.28178006,,47469376769222,8.0
Fix,GPS,12.9860056200,80.2374356200,-60.767578125,0.0,20.437767,,1682241607000,0.3443835,,47470376769222,8.0
Fix,GPS,12.9860056100,80.2374356200,-60.60333251953125,0.0,21.172398,,1682241608000,0.29529646,,47471376769222,8.0
Fix,GPS,12.9860056100,80.2374356200,-60.78582763671875,0.0,20.493828,,1682241609000,0.35341194,,47472376769222,8.0
Fix,GPS,12.9860056300,80.2374356300,-60.797271728515625,0.0,20.37639,,1682241610000,0.29068884,,47473376769222,8.0
Fix,GPS,12.9860056500,80.2374356300,-61.0440673828125,0.0,19.172289,,1682241611000,0.3176476,,47474376769222,8.0
Fix,GPS,12.9860056500,80.2374356300,-61.02301025390625,0.0,19.283411,,1682241612000,0.3176476,,47475376769222,8.0
Fix,GPS,12.9860056600,80.2374356200,-61.253509521484375,0.0,17.76161,,1682241613000,0.34985712,,47476376769222,8.0
Fix,GPS,12.9860056700,80.2374356300,-61.3946533203125,0.0,17.154995,,1682241614000,0.35846898,,47477376769222,8.0
Fix,GPS,12.9860056900,80.2374356200,-61.471527099609375,0.0,16.838968,,1682241615000,0.39357337,,47478376769222,8.0
Fix,GPS,12.9860057000,80.2374356200,-61.77545166015625,0.0,15.986932,,1682241616000,0.3354102,,47479376769222,8.0
Fix,GPS,12.9860057100,80.2374356100,-62.05413818359375,0.0,15.56023,,1682241617000,0.3354102,,47480376769222,8.0
Fix,GPS,12.9860057300,80.2374356100,-62.024017333984375,0.0,15.730095,,1682241618000,0.48332185,,47481376769222,8.0
Fix,GPS,12.9860057400,80.2374356100,-62.323333740234375,0.0,15.422955,,1682241619000,0.38078865,,47482376769222,8.0
Fix,GPS,12.9860057500,80.2374356100,-62.36517333984375,0.0,15.380283,,1682241620000,0.48332185,,47483376769222,8.0
Fix,GPS,12.9860058100,80.2374355200,-62.085052490234375,0.0,15.834779,,1682241621000,0.31780496,,47484376769222,8.0
Fix,GPS,12.9860058200,80.2374355100,-62.218994140625,0.0,15.578079,,1682241622000,0.24596748,,47485376769222,8.0
Fix,GPS,12.9860058300,80.2374355100,-62.46942138671875,0.0,15.169959,,1682241623000,0.28178006,,47486376769222,8.0
Fix,GPS,12.9860058300,80.2374355100,-62.67156982421875,0.0,15.049036,,1682241624000,0.32202485,,47487376769222,8.0
Fix,GPS,12.9860058700,80.2374355100,-62.346710205078125,0.0,15.690918,,1682241625000,0.33615473,,47488376769222,8.0
Fix,GPS,12.9860058600,80.2374355100,-61.95574951171875,0.0,16.989683,,1682241626000,0.35468295,,47489376769222,8.0
Fix,GPS,12.9860058600,80.2374355100,-61.622314453125,0.0,18.955648,,1682241627000,0.39217344,,47490376769222,8.0
Fix,GPS,12.9860058500,80.2374355100,-61.43505859375,0.0,19.881231,,1682241628000,0.41785166,,47491376769222,8.0
Fix,GPS,12.9860058700,80.2374355100,-61.142608642578125,0.0,21.359442,,1682241629000,0.40853396,,47492376769222,8.0
Fix,GPS,12.9860058700,80.2374355100,-60.869964599609375,0.0,22.879187,,1682241630000,0.3992493,,47493376769222,8.0
Fix,GPS,12.9860058700,80.2374355100,-60.686676025390625,0.0,23.885443,,1682241631000,0.38078865,,47494376769222,8.0
Fix,GPS,12.9860058700,80.2374355100,-60.487518310546875,0.0,25.9361,,1682241632000,0.41785166,,47495376769222,8.0
Fix,GPS,12.9860058700,80.2374355100,-60.32965087890625,0.0,28.042957,,1682241633000,0.4554119,,47496376769222,8.0
Fix,GPS,12.9860058600,80.2374355100,-60.376220703125,0.0,27.975534,,1682241634000,0.4365776,,47497376769222,8.0
Fix,GPS,12.9860058800,80.2374355100,-60.11138916015625,0.0,31.040527,,1682241635000,0.39217344,,47498376769222,8.0
Fix,GPS,12.9860058900,80.2374355100,-59.9114990234375,0.0,34.272682,,1682241636000,0.47434166,,47499376769222,8.0
Fix,GPS,12.9860058800,80.2374355100,-59.963592529296875,0.0,34.257397,,1682241637000,0.46486557,,47500376769222,8.0
Fix,GPS,12.9860059200,80.2374355100,-59.907379150390625,0.0,36.23762,,1682241638000,0.49335584,,47501376769222,8.0
Fix,GPS,12.9860059300,80.2374355100,-60.1689453125,0.0,34.564133,,1682241639000,0.50289166,,47502376769222,8.0
Fix,GPS,12.9860059400,80.2374355100,-60.451568603515625,0.0,33.34366,,1682241640000,0.52201533,,47503376769222,8.0
Fix,GPS,12.9860059600,80.2374355100,-60.659515380859375,0.0,30.134308,,1682241641000,0.47434166,,47504376769222,8.0
Fix,GPS,12.9860059800,80.2374355000,-60.509002685546875,0.0,32.215702,,1682241642000,0.49335584,,47505376769222,8.0
Fix,GPS,12.9860059800,80.2374355100,-60.381439208984375,0.0,34.832867,,1682241643000,0.5249762,,47506376769222,8.0
Fix,GPS,12.9860060600,80.2374355100,-60.23492431640625,0.0,37.045197,,1682241644000,0.52201533,,47507376769222,8.0
Fix,GPS,12.9860060500,80.2374355000,-60.26214599609375,0.0,34.146214,,1682241645000,0.4365776,,47508376769222,8.0
Fix,GPS,12.9860060500,80.2374355000,-60.274017333984375,0.0,34.976505,,1682241646000,0.46486557,,47509376769222,8.0
Fix,GPS,12.9860060700,80.2374355100,-60.23974609375,0.0,35.165726,,1682241647000,0.32893768,,47510376769222,8.0
Fix,GPS,12.9860060800,80.2374355100,-60.44134521484375,0.0,33.422245,,1682241648000,0.39217344,,47511376769222,8.0
Fix,GPS,12.9860060900,80.2374355100,-60.4744873046875,0.0,34.232418,,1682241649000,0.4237924,,47512376769222,8.0
Fix,GPS,12.9860060600,80.2374355100,-60.418548583984375,0.0,34.718777,,1682241650000,0.48383883,,47513376769222,8.0
Fix,GPS,12.9860060900,80.2374355300,-60.5509033203125,0.0,30.86766,,1682241651000,0.4308132,,47514376769222,8.0
Fix,GPS,12.9860061200,80.2374355500,-60.5787353515625,0.0,30.339235,,1682241652000,0.4588028,,47515376769222,8.0
Fix,GPS,12.9860061200,80.2374355500,-60.890899658203125,0.0,27.744677,,1682241653000,0.4365776,,47516376769222,8.0
Fix,GPS,12.9860060700,80.2374355400,-60.613616943359375,0.0,26.354828,,1682241654000,0.29529646,,47517376769222,8.0
Fix,GPS,12.9860060400,80.2374355200,-60.5433349609375,0.0,25.675695,,1682241655000,0.2607681,,47518376769222,8.0
Fix,GPS,12.9860060100,80.2374355100,-60.7501220703125,0.0,24.11191,,1682241656000,0.2505993,,47519376769222,8.0
Fix,GPS,12.9860060000,80.2374355100,-61.20977783203125,0.0,21.765638,,1682241657000,0.2641969,,47520376769222,8.0
Fix,GPS,12.9860059300,80.2374354900,-61.196044921875,0.0,21.730206,,1682241658000,0.2729469,,47521376769222,8.0
Fix,GPS,12.9860059500,80.2374354900,-61.21905517578125,0.0,21.696915,,1682241659000,0.29068884,,47522376769222,8.0
Fix,GPS,12.9860059400,80.2374354900,-61.348968505859375,0.0,21.417042,,1682241660000,0.30870697,,47523376769222,8.0
Fix,GPS,12.9860059300,80.2374354900,-61.602630615234375,0.0,20.248922,,1682241661000,0.31780496,,47524376769222,8.0
Fix,GPS,12.9860059000,80.2374354900,-61.534820556640625,0.0,20.910501,,1682241662000,0.32695565,,47525376769222,8.0
Fix,GPS,12.9860059200,80.2374354900,-61.37847900390625,0.0,21.182007,,1682241663000,0.30870697,,47526376769222,8.0
Fix,GPS,12.9860059200,80.2374354800,-61.51531982421875,0.0,20.846094,,1682241664000,0.31780496,,47527376769222,8.0
Fix,GPS,12.9860059000,80.2374354800,-61.73272705078125,0.0,19.409172,,1682241665000,0.25495097,,47528376769222,8.0
Fix,GPS,12.9860060000,80.2374354900,-60.904815673828125,0.0,23.059744,,1682241666000,0.25495097,,47529376769222,8.0
Fix,GPS,12.9860060200,80.2374354800,-61.18511962890625,0.0,21.278648,,1682241667000,0.23706539,,47530376769222,8.0
Fix,GPS,12.9860060400,80.2374354900,-61.378448486328125,0.0,19.310371,,1682241668000,0.25553864,,47531376769222,8.0
Fix,GPS,12.9860060300,80.2374354700,-61.642120361328125,0.0,18.196093,,1682241669000,0.24186774,,47532376769222,8.0
Fix,GPS,12.9860060300,80.2374354700,-61.642242431640625,0.0,17.593401,,1682241670000,0.15811388,,47533376769222,8.0
Fix,GPS,12.9860054000,80.2374354400,-61.18365478515625,0.0,18.363506,,1682241671000,0.15811388,,47534376769222,8.0
Fix,GPS,12.9860054100,80.2374354400,-60.886199951171875,0.0,19.844711,,1682241672000,0.17492856,,47535376769222,8.0
Fix,GPS,12.9860064500,80.2374355000,-61.28564453125,0.0,19.226494,,1682241673000,0.2641969,,47536376769222,8.0
Fix,GPS,12.9860067300,80.2374355100,-61.411041259765625,0.0,19.028841,,1682241674000,0.2505993,,47537376769222,8.0
Fix,GPS,12.9860067400,80.2374355100,-61.6114501953125,0.0,18.057709,,1682241675000,0.2641969,,47538376769222,8.0
Fix,GPS,12.9860065800,80.2374354900,-61.6317138671875,0.0,17.594627,,1682241676000,0.16643317,,47539376769222,8.0
Fix,GPS,12.9860064000,80.2374354900,-61.69219970703125,0.0,16.942778,,1682241677000,0.23323807,,47540376769222,8.0
Fix,GPS,12.9860063800,80.2374354900,-61.746368408203125,0.0,16.933613,,1682241678000,0.25553864,,47541376769222,8.0
Fix,GPS,12.9860064300,80.2374354900,-61.782501220703125,0.0,16.75731,,1682241679000,0.40249223,,47542376769222,8.0
Fix,GPS,12.9860064400,80.2374354900,-61.880462646484375,0.0,16.79787,,1682241680000,0.30870697,,47543376769222,8.0
Fix,GPS,12.9860064900,80.2374355000,-61.6605224609375,0.0,17.81705,,1682241681000,0.26400757,,47544376769222,8.0
Fix,GPS,12.9860064900,80.2374354900,-61.52374267578125,0.0,18.215635,,1682241682000,0.24596748,,47545376769222,8.0
Fix,GPS,12.9860064700,80.2374354900,-61.4254150390625,0.0,18.24293,,1682241683000,0.28178006,,47546376769222,8.0
Fix,GPS,12.9860065100,80.2374355000,-61.087646484375,0.0,19.157072,,1682241684000,0.3088689,,47547376769222,8.0
Fix,GPS,12.9860064600,80.2374354900,-60.72467041015625,0.0,20.472588,,1682241685000,0.3088689,,47548376769222,8.0
Fix,GPS,12.9860064900,80.2374354800,-60.545867919921875,0.0,21.050848,,1682241686000,0.3088689,,47549376769222,8.0
Fix,GPS,12.9860064500,80.2374354800,-60.3206787109375,0.0,22.218016,,1682241687000,0.3176476,,47550376769222,8.0
Fix,GPS,12.9860064500,80.2374354800,-60.147918701171875,0.0,23.95113,,1682241688000,0.36249137,,47551376769222,8.0
Fix,GPS,12.9860064500,80.2374354800,-59.99053955078125,0.0,26.024097,,1682241689000,0.4031129,,47552376769222,8.0
Fix,GPS,12.9860064500,80.2374354700,-59.51141357421875,0.0,31.941015,,1682241690000,0.44011363,,47553376769222,8.0
Fix,GPS,12.9860064400,80.2374354700,-59.15435791015625,0.0,38.675587,,1682241691000,0.4554119,,47554376769222,8.0
Fix,GPS,12.9860064400,80.2374354700,-58.888336181640625,0.0,46.895233,,1682241692000,0.48383883,,47555376769222,8.0
Fix,GPS,12.9860063400,80.2374354600,-58.5369873046875,0.0,51.640736,,1682241698000,0.24698178,,47561376769222,12.0
Fix,GPS,12.9860077900,80.2374441300,-58.93536376953125,0.0,19.547215,,1682241699000,0.25553864,,47562376769222,8.0
Fix,GPS,12.9860078100,80.2374441600,-59.03533935546875,0.0,19.063456,,1682241700000,0.2729469,,47563376769222,8.0
Fix,GPS,12.9860078100,80.2374441600,-59.202484130859375,0.0,18.601936,,1682241701000,0.2996665,,47564376769222,8.0
Fix,GPS,12.9860078500,80.2374441600,-59.24755859375,0.0,19.398056,,1682241702000,0.2996665,,47565376769222,8.0
Fix,GPS,12.9860078700,80.2374441500,-59.269439697265625,0.0,20.412085,,1682241703000,0.3443835,,47566376769222,8.0
Fix,GPS,12.9860078500,80.2374441500,-59.90618896484375,0.0,16.832474,,1682241704000,0.3176476,,47567376769222,8.0
Fix,GPS,12.9860078100,80.2374441300,-59.930694580078125,0.0,16.710144,,1682241705000,0.25553864,,47568376769222,8.0
Fix,GPS,12.9860078500,80.2374441400,-60.301513671875,0.0,15.643531,,1682241706000,0.31906113,,47569376769222,8.0
Fix,GPS,12.9860078800,80.2374441400,-60.52398681640625,0.0,15.463434,,1682241707000,0.3448188,,47570376769222,8.0
Fix,GPS,12.9860079000,80.2374441400,-60.62908935546875,0.0,15.489374,,1682241708000,0.33615473,,47571376769222,8.0
Fix,GPS,12.9860079100,80.2374441400,-61.012054443359375,0.0,14.987667,,1682241709000,0.22472206,,47572376769222,8.0
Fix,GPS,12.9860079300,80.2374441300,-61.37554931640625,0.0,14.573595,,1682241710000,0.2302173,,47573376769222,8.0
Fix,GPS,12.9860079000,80.2374441300,-61.616119384765625,0.0,14.382694,,1682241711000,0.22472206,,47574376769222,8.0
Fix,GPS,12.9860078900,80.2374441200,-62.177398681640625,0.0,13.887138,,1682241712000,0.2385372,,47575376769222,8.0
Fix,GPS,12.9860078100,80.2374441000,-62.303466796875,0.0,13.935513,,1682241713000,0.16643317,,47576376769222,8.0
Fix,GPS,12.9860077800,80.2374440900,-62.71240234375,0.0,13.597121,,1682241714000,0.15811388,,47577376769222,8.0
Fix,GPS,12.9860077400,80.2374440800,-62.67913818359375,0.0,13.71406,,1682241715000,0.16643317,,47578376769222,8.0
Fix,GPS,12.9860077300,80.2374440800,-62.780548095703125,0.0,13.788299,,1682241716000,0.2729469,,47579376769222,8.0
Fix,GPS,12.9860077500,80.2374440900,-62.310943603515625,0.0,14.502743,,1682241717000,0.29068884,,47580376769222,8.0
Fix,GPS,12.9860077500,80.2374440800,-62.9044189453125,0.0,14.026123,,1682241718000,0.29068884,,47581376769222,8.0
Fix,GPS,12.9860077500,80.2374440800,-63.32537841796875,0.0,13.777317,,1682241719000,0.3443835,,47582376769222,8.0
Fix,GPS,12.9860077700,80.2374440800,-62.970001220703125,0.0,14.436669,,1682241720000,0.36249137,,47583376769222,8.0
Fix,GPS,12.9860077700,80.2374440800,-63.313232421875,0.0,14.271337,,1682241721000,0.36249137,,47584376769222,8.0
Fix,GPS,12.9860077800,80.2374440700,-63.298828125,0.0,14.320958,,1682241722000,0.3354102,,47585376769222,8.0
Fix,GPS,12.9860077900,80.2374440700,-63.57232666015625,0.0,14.253901,,1682241723000,0.30870697,,47586376769222,6.0
Fix,GPS,12.9860078000,80.2374440600,-63.46246337890625,0.0,14.595216,,1682241724000,0.31780496,,47587376769222,8.0
Fix,GPS,12.9860075200,80.2374444100,-63.716583251953125,0.0,14.593133,,1682241725000,0.30870697,,47588376769222,8.0
Fix,GPS,12.9860075200,80.2374444100,-63.67352294921875,0.0,14.679001,,1682241726000,0.30870697,,47589376769222,8.0
Fix,GPS,12.9860074900,80.2374444000,-63.6563720703125,0.0,14.739363,,1682241727000,0.24596748,,47590376769222,8.0
Fix,GPS,12.9860074700,80.2374444000,-63.7777099609375,0.0,14.367122,,1682241728000,0.2641969,,47591376769222,8.0
Fix,GPS,12.9860074700,80.2374443900,-63.64227294921875,0.0,14.363917,,1682241729000,0.24698178,,47592376769222,8.0
Fix,GPS,12.9860075000,80.2374443900,-63.48333740234375,0.0,14.375686,,1682241730000,0.16643317,,47593376769222,8.0
Fix,GPS,12.9860075100,80.2374443900,-63.40911865234375,0.0,14.280879,,1682241731000,0.15811388,,47594376769222,8.0
Fix,GPS,12.9860075200,80.2374443900,-63.121490478515625,0.0,14.493312,,1682241732000,0.15811388,,47595376769222,8.0
Fix,GPS,12.9860075300,80.2374443500,-63.29559326171875,0.0,14.129907,,1682241733000,0.30805844,,47596376769222,8.0
Fix,GPS,12.9860075500,80.2374443500,-63.271209716796875,0.0,14.094148,,1682241734000,0.31622776,,47597376769222,8.0
Fix,GPS,12.9860076000,80.2374443400,-63.042724609375,0.0,14.242689,,1682241735000,0.2302173,,47598376769222,8.0
Fix,GPS,12.9860077700,80.2374443400,-63.18389892578125,0.0,14.095405,,1682241736000,0.2385372,,47599376769222,8.0
Fix,GPS,12.9860077500,80.2374443500,-63.2462158203125,0.0,13.944298,,1682241737000,0.22203603,,47600376769222,8.0
Fix,GPS,12.9860076000,80.2374445200,-63.6279296875,0.0,13.629085,,1682241738000,0.22203603,,47601376769222,8.0
Fix,GPS,12.9860075900,80.2374445100,-63.338531494140625,0.0,13.8335705,,1682241739000,0.30232432,,47602376769222,8.0
Fix,GPS,12.9860075600,80.2374444900,-63.23858642578125,0.0,13.867971,,1682241740000,0.15811388,,47603376769222,8.0
Fix,GPS,12.9860075100,80.2374444600,-63.040069580078125,0.0,13.976534,,1682241741000,0.15,,47604376769222,8.0
Fix,GPS,12.9860075000,80.2374444700,-63.228912353515625,0.0,13.7294035,,1682241742000,0.15,,47605376769222,8.0
Fix,GPS,12.9860074800,80.2374444600,-63.450439453125,0.0,13.517859,,1682241743000,0.2302173,,47606376769222,8.0
Fix,GPS,12.9860074900,80.2374444600,-63.428253173828125,0.0,13.605528,,1682241744000,0.25553864,,47607376769222,8.0
Fix,GPS,12.9860074700,80.2374444600,-63.56549072265625,0.0,13.500831,,1682241745000,0.17492856,,47608376769222,8.0
Fix,GPS,12.9860074600,80.2374444500,-63.602691650390625,0.0,13.420803,,1682241746000,0.2385372,,47609376769222,8.0
Fix,GPS,12.9860074500,80.2374444500,-63.659332275390625,0.0,13.293059,,1682241747000,0.15811388,,47610376769222,8.0
Fix,GPS,12.9860074400,80.2374444500,-63.453125,0.0,13.432744,,1682241748000,0.15811388,,47611376769222,8.0
Fix,GPS,12.9860074000,80.2374444400,-63.19818115234375,0.0,13.594108,,1682241749000,0.22203603,,47612376769222,8.0
Fix,GPS,12.9860074000,80.2374444400,-63.59344482421875,0.0,13.217801,,1682241750000,0.30805844,,47613376769222,8.0
Fix,GPS,12.9860073800,80.2374444300,-64.03167724609375,0.0,12.824864,,1682241751000,0.29410884,,47614376769222,6.0
Fix,GPS,12.9860074000,80.2374444400,-66.80535888671875,0.0,13.139431,,1682241752000,0.29410884,,47615376769222,8.0
Fix,GPS,12.9860073900,80.2374444400,-66.83242797851562,0.0,13.116022,,1682241753000,0.29410884,,47616376769222,8.0
Fix,GPS,12.9860073900,80.2374444400,-66.87664794921875,0.0,13.029623,,1682241754000,0.29410884,,47617376769222,6.0
Fix,GPS,12.9860073600,80.2374444300,-66.80111694335938,0.0,13.183672,,1682241755000,0.29410884,,47618376769222,8.0
Fix,GPS,12.9860073800,80.2374444300,-66.7156982421875,0.0,13.258064,,1682241756000,0.2780288,,47619376769222,8.0
Fix,GPS,12.9860073700,80.2374444300,-66.69805908203125,0.0,13.265799,,1682241757000,0.29410884,,47620376769222,8.0
Fix,GPS,12.9860074000,80.2374444300,-66.65899658203125,0.0,13.309377,,1682241758000,0.21400934,,47621376769222,8.0
Fix,GPS,12.9860071800,80.2374448000,-66.75369262695312,0.0,13.41765,,1682241759000,0.21400934,,47622376769222,8.0
Fix,GPS,12.9860071800,80.2374447900,-66.78411865234375,0.0,13.393842,,1682241760000,0.31622776,,47623376769222,8.0
Fix,GPS,12.9860071600,80.2374447900,-66.9300537109375,0.0,13.171587,,1682241761000,0.31064448,,47624376769222,8.0
Fix,GPS,12.9860071600,80.2374447900,-67.03424072265625,0.0,13.0239105,,1682241762000,0.30232432,,47625376769222,8.0
Fix,GPS,12.9860071600,80.2374447900,-67.12222290039062,0.0,12.889307,,1682241763000,0.2302173,,47626376769222,6.0
Fix,GPS,12.9860071500,80.2374447900,-67.2254638671875,0.0,12.713966,,1682241764000,0.30805844,,47627376769222,6.0
Fix,GPS,12.9860071500,80.2374447800,-68.92337036132812,0.0,12.472114,,1682241765000,0.3,,47628376769222,6.0
